     2.10           OBSERVATION DATA    G (GPS)             RINEX VERSION / TYPE
teqc  2002Mar14                         20110314 18:33:12UTCPGM / RUN BY / DATE
Linux 2.0.36|Pentium II|gcc -static|Linux|486/DX+           COMMENT
teqc  2002Mar14     GSI, JAPAN          20110311 04:16:29UTCCOMMENT
3090                                                        MARKER NAME
GSI, JAPAN          GEOSPATIAL INFORMATION AUTHORITY OF JAPAOBSERVER / AGENCY
00000               TRIMBLE 5700        Nav 1.24 Sig 0.00   REC # / TYPE / VERS
                    TRM29659.00     GSI                     ANT # / TYPE
 -3878653.5481  3514734.8381  3632596.8831                  APPROX POSITION XYZ
        0.0000        0.0000        0.0000                  ANTENNA: DELTA H/E/N
     1     1                                                WAVELENGTH FACT L1/2
     6    L1    C1    L2    P2    S1    S2                  # / TYPES OF OBSERV
    30.0000                                                 INTERVAL
teqc windowed: start @ 2011 Mar 11 00:00:00.000             COMMENT
teqc windowed:  end  @ 2011 Mar 11 23:59:59.000             COMMENT
  2011     3    11     0     0    0.0000000     GPS         TIME OF FIRST OBS
                                                            END OF HEADER
 11  3 11  0  0  0.0000000  0  7G 2G 4G 5G10G13G17G23
  -9426532.809    22140630.747    -7323993.2834   22140626.5824         46.000
        38.0004
 -22304066.027    20415894.483   -17334999.5964   20415892.0894         49.500
        45.5004
  -3533745.547    23632516.221    -2701201.0194   23632515.6094         43.000
        29.5004
 -24543158.574    20395982.913   -19053566.6714   20395980.7254         52.750
        44.7504
 -22614786.168    21120746.466   -17564973.6534   21120743.9374         51.250
        41.0004
 -18896533.059    21434529.795   -14698099.0504   21434527.8844         50.750
        41.7504
 -17261340.816    22914289.128   -13423509.2524   22914285.4454         45.750
        33.5004
 11  3 11  0  0 30.0000000  0  7G 2G 4G 5G10G13G17G23
  -9509161.660    22124907.561    -7388379.3624   22124903.0844         45.250
        38.2504
 -22324666.273    20411974.407   -17351051.7344   20411972.1424         52.750
        45.5004
  -3624520.285    23615242.948    -2771934.4974   23615241.9804         43.750
        30.2504
 -24576273.801    20389681.294   -19079370.7154   20389678.8114         52.500
        45.0004
 -22624925.598    21118816.859   -17572874.4864   21118814.5164         52.000
        41.5004
 -18824719.898    21448195.398   -14642140.7744   21448193.4394         48.250
        41.0004
 -17206671.164    22924692.262   -13380909.5104   22924688.1244         47.250
        32.5004
 11  3 11  0  1  0.0000000  0  7G 2G 4G 5G10G13G17G23
  -9591697.484    22109200.798    -7452692.9664   22109196.5444         46.500
        38.2504
 -22344977.145    20408109.339   -17366878.3694   20408107.2834         52.500
        46.0004
  -3715075.699    23598010.360    -2842497.1284   23598010.2614         42.500
        30.0004
 -24608969.016    20383459.371   -19104847.4734   20383457.2224         52.000
        44.7504
 -22634422.191    21117009.907   -17580274.4154   21117007.2374         51.750
        41.5004
 -18752490.461    21461939.967   -14585858.1254   21461938.4934         48.250
        41.0004
 -17151550.672    22935181.312   -13337958.4764   22935177.5854         47.500
        33.0004
 11  3 11  0  1 30.0000000  0  7G 2G 4G 5G10G13G17G23
  -9674139.160    22093512.985    -7516933.1944   22093508.7774         47.250
        38.0004
 -22364997.660    20404299.669   -17382478.7714   20404297.2024         53.000
        45.7504
  -3805410.996    23580820.068    -2912888.2214   23580819.3204         41.750
        30.0004
 -24641244.715    20377317.554   -19129997.3524   20377315.3264         52.250
        45.0004
 -22643275.531    21115325.049   -17587173.1264   21115322.3504         51.750
        41.2504
 -18679846.727    21475763.659   -14529252.6614   21475761.8184         49.000
        41.5004
 -17095980.961    22945755.796   -13294657.4064   22945752.2284         46.000
        32.7504
 11  3 11  0  2  0.0000000  0  7G 2G 4G 5G10G13G17G23
  -9756485.449    22077842.818    -7581099.1064   22077838.8964         46.500
        38.2504
 -22384727.004    20400545.321   -17397852.2814   20400542.5974         52.500
        45.7504
  -3895525.852    23563671.868    -2983107.5324   23563671.4074         40.750
        29.5004
 -24673101.547    20371255.383   -19154820.8284   20371252.9604         52.750
        45.0004
 -22651485.762    21113762.587   -17593570.6844   21113760.1364         51.750
        41.7504
 -18606790.559    21489665.831   -14472325.8124   21489664.1084         49.000
        41.7504
 -17039964.262    22956414.842   -13251008.0574   22956411.6734         45.500
        32.0004
 11  3 11  0  2 30.0000000  0  7G 2G 4G 5G10G13G17G23
  -9838735.117    22062191.315    -7645189.7384   22062187.1884         47.500
        38.0004
 -22404164.281    20396846.347   -17412998.2144   20396843.7424         53.250
        45.5004
  -3985419.684    23546565.510    -3053154.6484   23546564.3194         42.250
        29.7504
 -24704540.070    20365272.937   -19179318.3584   20365270.4194         52.250
        45.0004
 -22659052.840    21112322.737   -17599467.1014   21112320.0454         52.000
        41.2504
 -18533324.457    21503645.913   -14415079.5254   21503644.1084         49.750
        41.7504
 -16983502.566    22967159.343   -13207011.9094   22967155.7144         45.500
        32.0004
 11  3 11  0  3  0.0000000  0  7G 2G 4G 5G10G13G17G23
  -9920887.691    22046558.297    -7709204.6954   22046553.8674         45.250
        39.0004
 -22423309.926    20393203.226   -17427916.8884   20393200.7024         52.250
        45.5004
  -4075092.754    23529501.307    -3123029.6984   23529500.7224         42.500
        30.7504
 -24735561.941    20359369.563   -19203491.2134   20359367.3134         51.250
        45.0004
 -22665977.645    21111004.813   -17604863.0514   21111002.7114         51.750
        41.5004
 -18459451.438    21517703.596   -14357516.1584   21517701.7384         49.750
        41.5004
 -16926599.746    22977988.284   -13162672.0304   22977984.1014         47.000
        32.0004
 11  3 11  0  3 30.0000000  0  7G 2G 4G 5G10G13G17G23
 -10002941.691    22030944.055    -7773142.8444   22030939.4864         47.500
        38.7504
 -22442162.582    20389615.618   -17442607.2544   20389613.2614         53.500
        46.0004
  -4164544.645    23512479.200    -3192732.4084   23512478.7754         42.500
        30.5004
 -24766167.191    20353545.658   -19227339.4344   20353543.1594         51.750
        45.5004
 -22672259.656    21109809.575   -17609758.1334   21109807.1404         50.750
        42.0004
 -18385173.438    21531838.349   -14299637.2244   21531836.3724         49.500
        41.0004
 -16869256.621    22988900.248   -13117989.0654   22988895.7504         45.750
        32.0004
 11  3 11  0  4  0.0000000  0  7G 2G 4G 5G10G13G17G23
 -10084896.523    22015348.668    -7837003.7224   22015344.2694         47.750
        38.5004
 -22460721.926    20386083.743   -17457069.0554   20386081.6644         52.500
        45.5004
  -4253775.402    23495499.578    -3262262.8164   23495498.5294         40.500
        29.7504
 -24796357.527    20347800.487   -19250864.3424   20347797.9684         51.500
        45.5004
 -22677899.730    21108736.360   -17614152.9794   21108733.7814         50.750
        42.2504
 -18310493.469    21546049.536   -14241445.0864   21546048.0034         49.000
        41.0004
 -16811476.594    22999895.080   -13072965.6864   22999891.3074         46.000
        31.5004
 11  3 11  0  4 30.0000000  0  7G 2G 4G 5G10G13G17G23
 -10166750.168    21999771.836    -7900785.7464   21999767.6044         45.750
        39.0004
 -22478986.547    20382608.177   -17471301.2184   20382605.9124         53.250
        45.5004
  -4342783.574    23478561.239    -3331619.7354   23478560.3274         41.500
        29.5004
 -24826132.484    20342134.632   -19274065.5814   20342132.1864         52.000
        45.2504
 -22682897.113    21107785.386   -17618047.0324   21107782.8144         51.750
        42.0004
 -18235412.426    21560336.705   -14182940.4154   21560335.2434         48.000
        40.7504
 -16753260.535    23010973.453   -13027602.5444   23010969.2804         47.250
        32.0004
 11  3 11  0  5  0.0000000  0  7G 2G 4G 5G10G13G17G23
 -10248500.148    21984215.650    -7964486.9904   21984211.2804         45.250
        39.0004
 -22496954.516    20379188.808   -17485302.2204   20379186.8494         53.000
        46.0004
  -4431567.844    23461665.849    -3400802.2104   23461665.6934         40.500
        31.5004
 -24855491.699    20336547.679   -19296942.8524   20336545.3494         51.500
        45.0004
 -22687251.102    21106956.884   -17621439.7444   21106953.9584         53.000
        42.0004
 -18159931.852    21574700.232   -14124124.4204   21574699.0464         48.500
        41.5004
 -16694609.922    23022133.938   -12981900.7594   23022130.6444         45.500
        32.5004
 11  3 11  0  5 30.0000000  0  7G 2G 4G 5G10G13G17G23
 -10330146.180    21968678.984    -8028107.2404   21968674.4214         45.000
        38.2504
 -22514625.688    20375826.355   -17499071.9714   20375823.9354         52.250
        45.7504
  -4520128.250    23444814.020    -3469810.3044   23444812.8574         41.500
        30.7504
 -24884436.375    20331039.725   -19319497.1274   20331037.2064         51.250
        45.0004
 -22690962.344    21106250.592   -17624331.6004   21106248.0284         51.000
        42.2504
 -18084054.734    21589139.345   -14064999.4474   21589138.0534         49.000
        40.2504
 -16635527.516    23033377.363   -12935862.5184   23033373.4154         46.000
        32.0004
 11  3 11  0  6  0.0000000  0  7G 2G 4G 5G10G13G17G23
 -10411683.234    21953162.993    -8091642.5734   21953158.4124         46.000
        39.0004
 -22531995.672    20372520.939   -17512607.0184   20372518.4574         52.000
        46.0004
  -4608460.914    23428004.634    -3538640.9194   23428003.8504         41.000
        30.0004
 -24912964.164    20325610.630   -19341726.5584   20325608.4024         52.250
        45.0004
 -22694027.320    21105667.234   -17626719.8704   21105664.6934         51.750
        42.0004
 -18007779.500    21603654.042   -14005564.2414   21603652.5534         48.750
        40.0004
 -16576012.066    23044703.165   -12889486.8784   23044699.1704         46.000
        31.0004
 11  3 11  0  6 30.0000000  0  7G 2G 4G 5G10G13G17G23
 -10493107.375    21937668.450    -8155089.9174   21937664.0784         46.250
        38.7504
 -22549061.039    20369273.392   -17525904.6794   20369270.7404         53.000
        45.5004
  -4696562.820    23411238.484    -3607291.6804   23411237.8044         40.500
        28.5004
 -24941072.730    20320261.832   -19363629.3044   20320259.3514         50.750
        45.2504
 -22696443.574    21105207.681   -17628602.6284   21105204.7854         52.000
        41.5004
 -17931106.082    21618244.432   -13945818.7484   21618242.9664         48.250
        40.0004
 -16516063.176    23056111.302   -12842773.4674   23056106.5644         44.500
        31.2504
 11  3 11  0  7  0.0000000  0  7G 2G 4G 5G10G13G17G23
 -10574422.582    21922194.027    -8218452.3794   21922189.9894         45.000
        38.5004
 -22565826.148    20366082.853   -17538968.3694   20366080.1964         53.500
        45.7504
  -4784438.625    23394516.681    -3675766.2804   23394515.8324         39.750
        29.7504
 -24968768.184    20314991.693   -19385210.1534   20314989.4484         51.500
        45.2504
 -22698216.723    21104870.357   -17629984.2824   21104867.2294         52.250
        41.7504
 -17854041.793    21632909.332   -13885768.6874   21632907.7854         48.500
        40.5004
 -16455688.129    23067599.678   -12795727.9794   23067595.6004         41.750
        30.2504
 11  3 11  0  7 30.0000000  0  7G 2G 4G 5G10G13G17G23
 -10655627.793    21906741.634    -8281729.1344   21906737.4244         47.250
        39.2504
 -22582290.312    20362949.993   -17551797.5884   20362947.3584         53.500
        45.5004
  -4872088.355    23377837.805    -3744064.7364   23377836.9344         40.250
        30.5004
 -24996051.340    20309799.786   -19406469.7324   20309797.5204         52.000
        45.5004
 -22699347.211    21104655.100   -17630865.1584   21104652.3324         52.000
        42.0004
 -17776589.266    21647647.949   -13825416.1354   21647646.4464         49.250
        40.0004
 -16394889.062    23079169.437   -12748352.1264   23079165.4214         44.500
        31.2504
 11  3 11  0  8  0.0000000  0  7G 2G 4G 5G10G13G17G23
 -10736722.621    21891309.552    -8344919.8664   21891305.0894         47.000
        39.0004
 -22598453.980    20359874.389   -17564392.6444   20359871.9944         53.000
        45.5004
  -4959512.250    23361201.525    -3812187.2164   23361200.7654         40.500
        31.2504
 -25022923.898    20304686.113   -19427409.3654   20304683.8364         52.000
        45.0004
 -22699836.289    21104561.963   -17631246.2284   21104559.1104         51.250
        41.7504
 -17698751.898    21662460.058   -13764763.6884   21662458.0884         49.250
        40.5004
 -16333669.914    23090818.655   -12700648.8954   23090815.0034         43.500
        32.0004
 11  3 11  0  8 30.0000000  0  7G 2G 4G 5G10G13G17G23
 -10817707.043    21875898.878    -8408024.5824   21875894.3754         47.750
        38.7504
 -22614317.375    20356855.371   -17576753.7154   20356853.3674         52.750
        45.7504
  -5046711.395    23344608.157    -3880134.5534   23344607.3984         41.000
        31.2504
 -25049387.645    20299650.431   -19448030.4394   20299647.9674         52.500
        45.5004
 -22699685.289    21104590.591   -17631128.5534   21104587.4574         51.250
        41.2504
 -17620533.223    21677344.950   -13703814.1204   21677342.7574         48.500
        40.0004
 -16272033.820    23102547.790   -12652620.7784   23102543.5274         44.250
        32.5004
 11  3 11  0  9  0.0000000  0  7G 2G 4G 5G10G13G17G23
 -10898580.867    21860509.045    -8471043.1034   21860504.2454         48.000
        39.2504
 -22629881.078    20353893.689   -17588881.2784   20353891.4974         52.500
        45.7504
  -5133686.371    23328057.716    -3947907.2144   23328056.6204         41.750
        33.2504
 -25075444.820    20294692.063   -19468334.7014   20294689.5054         51.750
        45.5004
 -22698896.297    21104740.914   -17630513.7244   21104738.1104         50.750
        41.2504
 -17541936.762    21692300.573   -13642570.1594   21692299.3924         48.750
        40.0004
 -16209984.207    23114355.600   -12604270.4494   23114351.8554         44.500
        33.5004
 11  3 11  0  9 30.0000000  0  7G 2G 4G 5G10G13G17G23
 -10979343.547    21845140.147    -8533975.0364   21845135.8664         48.750
        39.5004
 -22645144.730    20350989.123   -17600775.0364   20350987.1964         53.250
        45.7504
  -5220437.711    23311549.019    -4015505.6134   23311548.0584         40.500
        32.0004
 -25101096.750    20289810.262   -19488323.1994   20289808.0334         51.500
        45.2504
 -22697470.062    21105012.315   -17629402.3644   21105009.3574         51.000
        41.7504
 -17462965.363    21707328.220   -13581034.0244   21707326.6314         48.500
        39.7504
 -16147524.176    23126241.616   -12555600.3294   23126237.3794         44.500
        33.0004
 11  3 11  0 10  0.0000000  0  7G 2G 4G 5G10G13G17G23
 -11059992.660    21829793.482    -8596818.4614   21829788.8364         48.500
        39.5004
 -22660106.691    20348142.066   -17612433.7054   20348139.6644         52.750
        45.5004
  -5306964.137    23295082.666    -4082928.7504   23295082.8784         40.000
        30.7504
 -25126343.547    20285006.345   -19507996.0204   20285003.3924         50.250
        45.0004
 -22695406.090    21105405.062   -17627794.0624   21105402.0714         51.000
        41.2504
 -17383620.500    21722427.703   -13519206.9044   21722425.6334         48.500
        38.7504
 -16084655.004    23138204.722   -12506611.3714   23138200.8314         44.750
        32.5004
 11  3 11  0 10 30.0000000  0  7G 2G 4G 5G10G13G17G23
 -11140526.758    21814468.532    -8659572.2814   21814463.8014         48.500
        40.0004
 -22674765.820    20345352.330   -17623856.3924   20345349.9054         53.500
        45.5004
  -5393264.828    23278660.691    -4150175.9944   23278659.6084         39.750
        29.2504
 -25151185.332    20280278.881   -19527353.2244   20280276.3404         49.750
        45.2504
 -22692704.438    21105919.203   -17625688.8474   21105916.3154         50.000
        41.0004
 -17303904.449    21737597.075   -13457090.5484   21737595.3254         48.750
        39.2504
 -16021378.500    23150246.200   -12457305.0524   23150241.6184         43.750
        31.0004
 11  3 11  0 11  0.0000000  0  7G 2G 4G 5G10G13G17G23
 -11220943.496    21799165.555    -8722234.6394   21799161.2424         48.250
        40.2504
 -22689120.477    20342621.094   -17635041.8284   20342618.3554         53.500
        46.0004
  -5479338.832    23262280.999    -4217246.6194   23262280.4524         40.250
        30.0004
 -25175622.348    20275628.379   -19546395.0244   20275625.9984         48.500
        45.2504
 -22689364.836    21106554.572   -17623086.5534   21106551.4144         48.500
        41.7504
 -17223818.586    21752837.146   -13394686.0474   21752835.2604         48.500
        40.0004
 -15957696.457    23162364.445   -12407682.7224   23162360.7044         43.000
        30.5004
 11  3 11  0 11 30.0000000  0  7G 2G 4G 5G10G13G17G23
 -11301243.473    21783884.844    -8784806.0134   21783880.6304         48.750
        40.5004
 -22703172.070    20339946.975   -17645991.1114   20339944.4754         52.750
        46.0004
  -5565187.730    23245945.145    -4284141.8484   23245943.8334         42.250
        29.7504
 -25199657.613    20271054.679   -19565123.7704   20271052.3054         48.750
        45.5004
 -22685389.855    21107311.074   -17619989.1314   21107308.1034         48.750
        41.7504
 -17143367.574    21768146.066   -13331997.0054   21768145.2394         48.500
        39.5004
 -15893613.195    23174558.581   -12357747.7534   23174554.7404         41.750
        29.0004
 11  3 11  0 12  0.0000000  0  7G 2G 4G 5G10G13G17G23
 -11381425.414    21768626.757    -8847285.4264   21768621.9564         49.000
        40.5004
 -22716919.633    20337330.924   -17656703.4834   20337328.2514         54.000
        45.5004
  -5650810.902    23229652.323    -4350861.1654   23229650.1424         42.750
        32.2504
 -25223291.492    20266557.096   -19583539.7674   20266554.6484         48.500
        45.5004
 -22680779.914    21108188.207   -17616396.9694   21108185.3894         48.000
        42.0004
 -17062553.332    21783525.286   -13269024.9504   21783523.7324         48.250
        39.2504
 -15829130.750    23186829.895   -12307501.7104   23186825.4254         39.750
        25.0004
 11  3 11  0 12 30.0000000  0  7G 2G 4G 5G10G13G17G23
 -11461486.344    21753391.915    -8909670.5364   21753387.0414         49.250
        40.0004
 -22730360.715    20334773.396   -17667177.0634   20334770.6094         55.250
        46.2504
  -5736206.379    23213401.460    -4417403.0554   23213400.2664         42.250
        33.0004
 -25246523.289    20262136.384   -19601642.4504   20262134.1794         48.750
        45.5004
 -22675533.984    21109186.460   -17612309.2024   21109183.5674         47.750
        41.5004
 -16981376.984    21798972.690   -13205770.6984   21798971.5424         48.250
        39.2504
 -15764249.918    23199175.836   -12256945.2464   23199171.9444         37.500
        23.2504
 11  3 11  0 13  0.0000000  0  7G 2G 4G 5G10G13G17G23
 -11541428.227    21738179.014    -8971962.8864   21738174.7764         48.750
        40.0004
 -22743497.777    20332273.256   -17677413.7284   20332270.8674         53.500
        45.7504
  -5821377.391    23197193.838    -4483770.0184   23197192.3024         43.250
        33.2504
 -25269357.191    20257791.649   -19619435.0844   20257788.9954         49.500
        45.5004
 -22669655.738    21110304.976   -17607728.7444   21110302.2674         50.250
        41.7504
 -16899844.305    21814487.836   -13142238.8004   21814486.4764         48.000
        39.0004
 -15698976.434    23211597.521   -12206082.8364   23211593.1014         37.500
        21.0004
 11  3 11  0 13 30.0000000  0  7G 2G 4G 5G10G13G17G23
 -11621253.051    21722989.082    -9034164.0134   21722984.6374         48.500
        40.0004
 -22756333.895    20329830.577   -17687415.8884   20329828.4044         53.500
        46.0004
  -5906327.191    23181027.709    -4549964.6414   23181027.3554         41.750
        33.5004
 -25291797.504    20253521.287   -19636921.0084   20253518.6434         51.000
        45.5004
 -22663149.574    21111543.166   -17602658.9874   21111540.4594         49.500
        41.5004
 -16817961.199    21830069.357   -13078433.8214   21830067.9644         48.500
        39.5004
 -15633316.301    23224093.192   -12154919.1824   23224087.8514         36.500
        20.0004
 11  3 11  0 14  0.0000000  0  7G 2G 4G 5G10G13G17G23
 -11700958.551    21707821.507    -9096272.1604   21707816.6334         47.500
        39.5004
 -22768867.062    20327445.669   -17697182.0024   20327443.1494         54.000
        45.7504
  -5991054.578    23164905.191    -4615985.9534   23164904.4904         42.500
        33.5004
 -25313844.371    20249325.591   -19654100.3704   20249323.3244         48.500
        45.5004
 -22656015.410    21112900.627   -17597099.8864   21112897.9374         48.000
        41.5004
 -16735729.266    21845717.290   -13014357.0414   21845716.3774         48.000
        39.0004
 -15567270.914    23236660.253   -12103455.2124   23236655.9774         34.250
        18.5004
 11  3 11  0 14 30.0000000  0  7G 2G 4G 5G10G13G17G23
 -11780542.820    21692676.737    -9158285.8484   21692672.9884         46.750
        39.7504
 -22781096.137    20325118.662   -17706711.1424   20325116.1984         53.250
        46.0004
  -6075558.145    23148824.619    -4681832.8734   23148823.7674         41.250
        32.7504
 -25335497.785    20245205.193   -19670973.1434   20245202.8394         51.500
        45.5004
 -22648252.930    21114377.666   -17591051.1764   21114374.7474         48.250
        41.2504
 -16653150.426    21861432.272   -12950009.9454   21861430.6554         48.500
        38.7504
 -15500841.758    23249301.363   -12051692.2974   23249296.8204         32.500
        17.7504
 11  3 11  0 15  0.0000000  0  7G 2G 4G 5G10G13G17G23
 -11860001.668    21677556.197    -9220201.8114   21677552.1724         45.500
        39.7504
 -22793017.117    20322850.007   -17716000.2374   20322847.4014         53.500
        46.0004
  -6159835.391    23132786.996    -4747503.4294   23132786.1124         43.250
        32.5004
 -25356755.941    20241160.023   -19687537.9264   20241157.1634         51.500
        45.5004
 -22639859.992    21115974.530   -17584511.2194   21115971.9594         49.000
        41.5004
 -16570223.887    21877211.638   -12885391.9214   21877210.9694         47.750
        39.0004
 -15434028.5121   23262015.405   -11999630.0085   23262010.9714         33.5001
        16.2505
 11  3 11  0 15 30.0000000  0  8G 2G 4G 5G 7G10G13G17G23
 -11939331.582    21662460.612    -9282017.3134   21662456.2054         46.000
        39.7504
 -22804627.719    20320640.605   -17725047.4504   20320638.1324         54.000
        45.7504
  -6243883.875    23116793.629    -4812995.7374   23116792.2034         41.750
        32.0004
    -55297.4921   25193814.363

 -25377617.898    20237189.965   -19703793.9764   20237187.3564         51.500
        45.5004
 -22630835.711    21117691.739   -17577479.2834   21117689.4184         50.250
        41.5004
 -16486950.609    21893058.496   -12820503.6954   21893057.2614         48.500
        38.5004
 -15366831.8011   23274801.376

 11  3 11  0 16  0.0000000  0  8G 2G 4G 5G 7G10G13G17G23
 -12018530.586    21647389.584    -9343730.7734   21647385.0324         46.500
        40.5004
 -22815926.242    20318490.744   -17733851.4804   20318487.9894         54.750
        45.7504
  -6327702.684    23100842.655    -4878309.0604   23100841.6244         41.000
        31.5004
   -139118.230    25177864.009      -98387.7405   25177865.8304         36.000
        19.5005
 -25398083.895    20233295.353   -19719741.5004   20233292.5774         51.000
        45.5004
 -22621180.066    21119529.453   -17569955.3954   21119526.8534         49.500
        41.2504
 -16403332.547    21908970.824   -12755346.7814   21908969.4064         48.250
        38.7504
 -15299253.793    23287663.794

 11  3 11  0 16 30.0000000  0  8G 2G 4G 5G 7G10G13G17G23
 -12097596.461    21632343.828    -9405340.5354   21632338.6824         47.500
        40.2504
 -22826911.562    20316400.113   -17742411.4714   20316397.7254         52.750
        45.5004
  -6411290.863    23084936.977    -4943442.7054   23084935.5954         42.500
        32.2504
   -222951.305    25161911.920     -163712.2154   25161912.2704         37.500
        17.5004
 -25418154.227    20229476.225   -19735380.6924   20229473.7174         49.500
        45.5004
 -22610893.117    21121486.649   -17561939.5874   21121484.4214         49.500
        42.0004
 -16319371.387    21924947.866   -12689922.5524   21924946.6524         47.750
        38.5004
 -15231295.7341   23300595.735

 11  3 11  0 17  0.0000000  0  8G 2G 4G 5G 7G10G13G17G23
 -12176527.594    21617323.625    -9466845.2874   21617318.3364         46.500
        40.2504
 -22837582.352    20314369.445   -17750726.3954   20314367.1784         54.000
        46.0004
  -6494647.816    23069074.534    -5008396.1374   23069073.3854         42.750
        32.0004
   -306792.938    25145955.567     -229043.1994   25145958.5544         38.250
        17.7504
 -25437829.234    20225732.071   -19750711.8554   20225729.6524         50.000
        45.5004
 -22599975.441    21123564.369   -17553432.3064   21123562.1344         50.000
        41.0004
 -16235069.297    21940990.403   -12624232.6894   21940989.0254         48.750
        39.0004
 -15162959.7581   23313594.793

 11  3 11  0 17 30.0000000  0  8G 2G 4G 5G 7G10G13G17G23
 -12255323.891    21602329.014    -9528244.9894   21602324.4104         47.250
        40.5004
 -22847939.102    20312398.648   -17758796.5694   20312396.2974         54.000
        45.7504
  -6577774.652    23053256.942    -5073170.2564   23053254.9174         42.500
        32.0004
   -390641.809    25129999.862     -294379.7424   25130002.4844         39.250
        21.7504
 -25457111.504    20222062.745   -19765736.9844   20222060.3924         49.500
        45.5004
 -22588429.281    21125761.423   -17544435.2804   21125758.9664         48.250
        41.0004
 -16150430.281    21957096.602   -12558280.2744   21957095.3534         48.000
        38.2504
 -15094249.7071   23326674.675

 11  3 11  0 18  0.0000000  0  8G 2G 4G 5G 7G10G13G17G23
 -12333983.492    21587360.304    -9589538.1654   21587356.3684         46.250
        41.2504
 -22857980.992    20310487.577   -17766621.4194   20310485.3284         53.750
        46.0004
  -6660670.883    23037481.587    -5137764.6674   23037480.5244         43.500
        32.0004
   -474495.1171   25114042.902     -359719.7985   25114046.8204         35.5001
        21.0005
 -25476001.402    20218468.566   -19780456.3784   20218465.6544         51.500
        46.0004
 -22576255.102    21128078.438   -17534948.9024   21128075.5204         48.250
        41.7504
 -16065456.383    21973266.591   -12492066.9424   21973265.1354         48.750
        38.2504
                  23339818.113

 11  3 11  0 18 30.0000000  0  7G 2G 4G 5G 7G10G13G17
 -12412503.598    21572418.933    -9650722.6414   21572414.4874         46.500
        41.5004
 -22867705.762    20308637.223   -17774199.1504   20308634.6714         54.000
        45.7504
  -6743334.691    23021750.901    -5202178.0064   23021749.2144         42.750
        33.0004
   -558348.418    25098086.767     -425059.7974   25098089.3874         37.500
        21.2504
 -25494498.637    20214948.330   -19794869.7804   20214945.4874         50.250
        45.5004
 -22563452.496    21130514.462   -17524972.8494   21130512.1434         47.250
        41.0004
 -15980148.926    21989499.841   -12425593.6884   21989498.7944         47.500
        38.0004
 11  3 11  0 19  0.0000000  0  7G 2G 4G 5G 7G10G13G17
 -12490883.578    21557503.720    -9711797.9284   21557498.8594         48.500
        41.2504
 -22877113.344    20306846.883   -17781529.7204   20306844.2134         54.500
        45.5004
  -6825766.891    23006064.147    -5266410.8524   23006063.3224         43.000
        33.5004
   -642199.605    25082129.552     -490398.1584   25082132.2054         38.000
        21.7504
 -25512604.695    20211502.659   -19808978.3934   20211500.1624         50.500
        45.7504
 -22550023.109    21133069.841   -17514508.3674   21133067.6404         49.500
        41.0004
 -15894511.145    22005796.815   -12358863.0294   22005795.0654         48.750
        38.2504
 11  3 11  0 19 30.0000000  0  7G 2G 4G 5G 7G10G13G17
 -12569121.363    21542615.618    -9772762.4244   21542610.7774         48.750
        41.0004
 -22886202.758    20305117.024   -17788612.3834   20305114.6684         54.250
        46.0004
  -6907966.754    22990422.220    -5330462.6564   22990421.1174         43.500
        33.0004
   -726045.410    25066175.404     -555732.3044   25066176.9804         39.250
        20.0004
 -25530320.117    20208131.576   -19822782.5994   20208129.0804         50.250
        45.5004
 -22535966.914    21135744.740   -17503555.4684   21135742.1614         49.250
        41.0004
 -15808545.004    22022155.656   -12291876.5024   22022153.4204         48.000
        37.5004
 11  3 11  0 20  0.0000000  0  7G 2G 4G 5G 7G10G13G17
 -12647215.871    21527754.721    -9833615.2614   21527750.0574         49.000
        41.0004
 -22894973.324    20303448.450   -17795446.5994   20303445.9374         54.000
        45.5004
  -6989934.059    22974823.370    -5394333.2604   22974823.8554         44.250
        33.2504
   -809883.152    25050220.227     -621060.1874   25050222.4224         37.500
        18.5004
 -25547646.305    20204834.630   -19836283.5094   20204831.7994         50.500
        45.7504
 -22521285.941    21138538.768   -17492115.7324   21138536.0064         50.250
        41.0004
 -15722253.246    22038576.445   -12224636.2344   22038574.4434         48.250
        37.5004
 11  3 11  0 20 30.0000000  0  7G 2G 4G 5G 7G10G13G17
 -12725167.234    21512920.992    -9894356.5694   21512916.5214         47.000
        41.2504
 -22903426.145    20301839.756   -17802033.2144   20301837.4264         53.750
        46.0004
  -7071670.797    22959269.653    -5458024.1924   22959269.3014         43.750
        33.5004
   -893711.863    25034268.295     -686381.0104   25034269.7064         36.750
        18.5004
 -25564585.969    20201611.174   -19849483.2464   20201608.1644         50.500
        45.5004
 -22505982.707    21141450.803   -17480191.1244   21141447.9264         50.500
        41.0004
 -15635640.648    22055058.196   -12157145.9574   22055055.8924         47.500
        37.0004
 11  3 11  0 21  0.0000000  0  7G 2G 4G 5G 7G10G13G17
 -12802973.344    21498115.029    -9954984.6724   21498110.5194         48.250
        41.2504
 -22911559.848    20300291.866   -17808371.1724   20300289.9124         52.250
        46.0004
  -7153175.875    22943760.278    -5521534.6474   22943759.2144         45.250
        33.7504
   -977528.062    25018318.670     -751692.0864   25018319.8574         36.250
        18.2504
 -25581139.316    20198460.929   -19862381.9474   20198458.3734         51.000
        45.5004
 -22490057.562    21144481.324   -17467781.9174   21144478.1404         50.500
        40.0004
 -15548709.043    22071600.635   -12089407.1114   22071598.8884         48.000
        36.5004
 11  3 11  0 21 30.0000000  0  7G 2G 4G 5G 7G10G13G17
 -12880632.680    21483336.880   -10015498.4314   21483332.3544         48.250
        41.0004
 -22919373.477    20298805.232   -17814459.7124   20298802.6124         54.500
        45.7504
  -7234448.836    22928294.900    -5584864.2104   22928293.6314         45.000
        32.7504
  -1061328.547    25002370.961     -816990.9474   25002373.3554         36.750
        19.2504
 -25597307.211    20195384.489   -19874980.2994   20195381.5834         52.000
        45.5004
 -22473511.398    21147629.707   -17454888.7974   21147627.0764         51.250
        40.5004
 -15461460.992    22088203.754   -12021421.6794   22088201.7864         47.000
        36.7504
 11  3 11  0 22  0.0000000  0  7G 2G 4G 5G 7G10G13G17
 -12958145.062    21468586.628   -10075897.6684   21468582.1774         47.750
        41.0004
 -22926867.914    20297378.848   -17820299.5334   20297376.2204         53.500
        45.5004
  -7315491.195    22912873.204    -5648014.0834   22912872.0454         45.000
        34.0004
  -1145112.059    24986426.830     -882276.5914   24986427.9584         32.500
        18.5004
 -25613092.164    20192380.671   -19887280.2414   20192377.5034         51.000
        45.5004
 -22456346.793    21150896.381   -17441513.7734   21150893.0304         51.250
        41.0004
 -15373900.254    22104866.614   -11953192.6024   22104864.2594         48.000
        37.5004
 11  3 11  0 22 30.0000000  0  7G 2G 4G 5G 7G10G13G17
 -13035509.105    21453864.554   -10136181.3304   21453860.2684         47.750
        40.5004
 -22934042.250    20296013.994   -17825889.9314   20296011.3754         53.250
        45.7504
  -7396302.523    22897494.337    -5710983.9124   22897493.8894         46.250
        34.0004
  -1228876.1211   24970487.961     -947547.1395   24970489.3424         35.5001
        20.0005
 -25628495.355    20189449.562   -19899282.7164   20189446.6764         51.000
        45.5004
 -22438564.930    21154279.984   -17427657.7704   21154276.7784         51.250
        40.5004
 -15286029.664    22121587.228   -11884722.0934   22121585.1994         47.500
        37.0004
 11  3 11  0 23  0.0000000  0  7G 2G 4G 5G 7G10G13G17
 -13112721.738    21439171.616   -10196346.9914   21439166.9474         48.750
        40.5004
 -22940894.293    20294709.680   -17831229.1814   20294707.3634         52.500
        45.7504
  -7476881.578    22882161.375    -5773772.7474   22882160.1644         45.000
        34.5004
  -1312616.023    24954551.740    -1012798.8264   24954554.8224         34.500
        20.0004
 -25643516.309    20186591.141   -19910987.3474   20186588.2054         52.000
        45.5004
 -22420165.559    21157781.215   -17413320.6014   21157778.3174         51.000
        40.5004
 -15197850.223    22138367.019   -11816010.9224   22138365.7054         47.000
        37.0004
 11  3 11  0 23 30.0000000  0  7G 2G 4G 5G 7G10G13G17
 -13189781.727    21424507.453   -10256393.7174   21424502.7994         50.000
        41.0004
 -22947423.730    20293467.215   -17836317.0404   20293464.9514         53.000
        46.0004
  -7557228.223    22866871.448    -5836380.4784   22866870.6804         46.000
        34.5004
  -1396328.980    24938622.133    -1078029.4764   24938624.8394         36.500
        21.5004
 -25658156.195    20183805.322   -19922395.0374   20183802.3884         51.750
        45.5004
 -22401149.938    21161399.555   -17398503.2404   21161396.1904         50.750
        40.5004
 -15109364.938    22155205.222   -11747061.4174   22155204.1344         47.250
        36.2504
 11  3 11  0 24  0.0000000  0  7G 2G 4G 5G 7G10G13G17
 -13266691.523    21409872.084   -10316323.4144   21409867.5324         49.000
        41.0004
 -22953634.090    20292285.736   -17841156.3054   20292283.1974         53.500
        46.0004
  -7637346.742    22851626.063    -5898810.4604   22851624.2684         45.250
        33.7504
  -1480016.824    24922697.168    -1143240.5784   24922699.9114         37.000
        25.7504
 -25672420.336    20181090.526   -19933509.9324   20181087.8764         51.750
        45.7504
 -22381523.766    21165134.660   -17383210.1174   21165131.4884         51.000
        41.5004
 -15020580.746    22172100.836   -11677879.0264   22172099.7724         46.250
        36.2504
 11  3 11  0 24 30.0000000  0  7G 2G 4G 5G 7G10G13G17
 -13343445.668    21395266.300   -10376131.8104   21395261.3884         49.500
        41.2504
 -22959520.324    20291165.478   -17845742.9744   20291163.0204         53.000
        45.7504
  -7717232.395    22836424.494    -5961058.9844   22836423.1014         46.250
        34.2504
  -1563671.906    24906777.406    -1208426.2294   24906780.4334         36.750
        22.7504
 -25686305.605    20178448.623   -19944329.5894   20178445.8054         52.500
        45.5004
 -22361283.887    21168986.253   -17367438.7674   21168982.9004         51.750
        40.5004
 -14931496.031    22189052.852   -11608462.4384   22189052.2234         47.250
        36.7504
 11  3 11  0 25  0.0000000  0  7G 2G 4G 5G 7G10G13G17
 -13420042.941    21380690.295   -10435817.9814   21380685.5704         50.500
        41.5004
 -22965081.953    20290107.049   -17850076.7084   20290104.9384         54.500
        45.7504
  -7796885.445    22821266.547    -6023126.2624   22821265.3494         46.000
        34.2504
  -1647291.977    24890865.844    -1273584.5594   24890867.0124         39.500
        24.0004
 -25699813.363    20175878.032   -19954855.1014   20175875.0004         53.500
        45.5004
 -22340431.484    21172954.190   -17351190.1254   21172951.4474         50.500
        40.5004
 -14842113.543    22206061.725   -11538813.8424   22206061.5464         47.000
        37.0004
 11  3 11  0 25 30.0000000  0  7G 2G 4G 5G 7G10G13G17
 -13496481.559    21366144.369   -10495380.5324   21366140.2274         50.000
        42.0004
 -22970318.246    20289110.741   -17854156.9284   20289108.4174         52.500
        45.7504
  -7876305.727    22806153.388    -6085012.1394   22806152.1114         45.750
        34.2504
  -1730873.910    24874959.668    -1338713.1924   24874960.8524         38.250
        22.0004
 -25712944.297    20173379.350   -19965086.9944   20173376.2344         52.750
        45.5004
 -22318967.996    21177038.372   -17334465.3134   21177035.6904         50.500
        40.5004
 -14752435.816    22223127.466   -11468935.1814   22223126.4884         47.000
        36.7504
 11  3 11  0 26  0.0000000  0  7G 2G 4G 5G 7G10G13G17
 -13572760.184    21351629.279   -10554818.4024   21351624.2884         50.500
        42.0004
 -22975228.980    20288176.377   -17857983.4674   20288173.7524         53.500
        45.7504
  -7955493.625    22791084.829    -6146716.9704   22791083.4094         45.000
        34.5004
  -1814415.207    24859062.996    -1403810.1424   24859062.4414         35.250
        20.5004
 -25725699.977    20170952.031   -19975026.4694   20170948.9074         52.500
        45.5004
 -22296895.336    21181238.323   -17317265.8154   21181235.6184         50.000
        40.5004
 -14662466.105    22240247.511   -11398828.9854   22240246.8984         46.000
        36.0004
 11  3 11  0 26 30.0000000  0  7G 2G 4G 5G 7G10G13G17
 -13648878.195    21337144.265   -10614131.1184   21337139.8704         50.750
        42.0004
 -22979814.121    20287303.729   -17861556.3234   20287300.9734         53.000
        45.5004
  -8034449.773    22776059.351    -6208241.2094   22776058.1774         45.750
        34.7504
  -1897913.879    24843172.788    -1468874.0154   24843172.5794         36.250
        19.5004
 -25738082.414    20168595.558   -19984675.0984   20168592.5784         52.000
        46.0004
 -22274215.363    21185554.609   -17299593.0974   21185552.0494         50.250
        40.2504
 -14572208.020    22257423.558   -11328498.1014   22257422.5214         45.750
        35.7504
 11  3 11  0 27  0.0000000  0  7G 2G 4G 5G 7G10G13G17
 -13724834.035    21322690.484   -10673317.4674   21322685.7314         50.000
        42.0004
 -22984072.859    20286493.399   -17864874.8184   20286490.9444         53.250
        45.5004
  -8113173.996    22761078.613    -6269584.7444   22761077.9964         46.000
        35.0004
  -1981366.703    24827293.157    -1533902.0644   24827292.7864         36.250
        21.7504
 -25750092.469    20166310.256   -19994033.5714   20166307.2814         52.250
        45.5004
 -22250929.387    21189986.041   -17281448.1764   21189982.7424         51.000
        40.0004
 -14481663.801    22274653.105   -11257944.2564   22274652.4694         45.000
        36.0004
 11  3 11  0 27 30.0000000  0  7G 2G 4G 5G 7G10G13G17
 -13800626.141    21308267.918   -10732376.2314   21308263.1124         50.750
        41.7504
 -22988004.570    20285744.985   -17867938.4484   20285742.8434         52.750
        45.5004
  -8191666.270    22746142.483    -6330747.5134   22746140.9984         46.000
        35.5004
  -2064771.168    24811421.472    -1598892.4514   24811421.9624         36.750
        21.0004
 -25761731.445    20164095.313   -20003102.9114   20164092.5094         52.500
        46.0004
 -22227038.812    21194531.758   -17262832.1374   21194529.4634         50.000
        40.5004
 -14390836.484    22291937.272   -11187169.8054   22291936.7924         45.000
        35.7504
 11  3 11  0 28  0.0000000  0  7G 2G 4G 5G 7G10G13G17
 -13876252.820    21293876.138   -10791306.0894   21293871.7774         51.000
        41.7504
 -22991608.520    20285059.217   -17870746.7154   20285057.2394         52.250
        45.5004
  -8269925.844    22731249.801    -6391728.9594   22731248.8014         47.000
        36.5004
  -2148123.781    24795559.710    -1663842.4534   24795559.3144         37.250
        21.0004
 -25773000.109    20161951.434   -20011883.6794   20161948.3384         52.000
        45.5004
 -22202544.902    21199192.824   -17243745.9714   21199190.2444         48.500
        40.7504
 -14299728.566    22309274.414   -11116176.7024   22309274.0774         45.000
        36.0004
 11  3 11  0 28 30.0000000  0  7G 2G 4G 5G 7G10G13G17
 -13951712.758    21279516.923   -10850106.0304   21279512.1944         50.500
        42.2504
 -22994884.707    20284435.691   -17873299.6024   20284433.3434         51.750
        45.5004
  -8347953.941    22716401.846    -6452530.0454   22716400.3334         46.750
        35.2504
  -2231422.953    24779708.954    -1728750.7634   24779709.0904         39.250
        22.2504
 -25783900.168    20159876.957   -20020377.2364   20159874.1454         52.250
        45.7504
 -22177449.793    21203968.337   -17224191.3384   21203965.7774         48.250
        40.7504
 -14208343.281    22326665.134   -11044967.4744   22326664.4064         47.000
        36.0004
 11  3 11  0 29  0.0000000  0  7G 2G 4G 5G 7G10G13G17
 -14027003.215    21265189.702   -10908773.9054   21265184.2174         50.500
        41.7504
 -22997831.355    20283875.026   -17875595.6844   20283872.7134         50.250
        45.7504
  -8425749.348    22701597.632    -6513149.8104   22701596.5834         47.750
        35.5004
  -2314663.852    24763868.670    -1793613.7034   24763869.4834         39.500
        23.7504
 -25794431.863    20157872.984   -20028583.7614   20157870.1274         52.250
        45.7504
 -22151754.172    21208858.271   -17204168.7804   21208855.0294         48.000
        40.2504
 -14116682.754    22344107.347   -10973543.8024   22344106.5194         46.500
        35.2504
 11  3 11  0 29 30.0000000  0  7G 2G 4G 5G 7G10G13G17
 -14102124.422    21250894.124   -10967309.8944   21250889.8324         49.250
        41.5004
 -23000448.887    20283377.130   -17877635.3124   20283374.6694         51.000
        45.7504
  -8503313.105    22686837.927    -6573589.0434   22686836.7294         44.250
        35.7504
  -2397845.312    24748039.151    -1858430.3504   24748040.8204         38.750
        22.2504
 -25804597.344    20155938.265   -20036504.9154   20155935.6254         53.000
        45.5004
 -22125460.336    21213861.182   -17183680.0604   21213858.5694         47.500
        40.2504
 -14024750.301    22361601.172   -10901908.2174   22361600.6954         46.000
        34.5004
 11  3 11  0 30  0.0000000  0  7G 2G 4G 5G 7G10G13G17
 -14177074.113    21236631.706   -11025712.2374   21236627.1334         51.250
        41.5004
 -23002736.531    20282941.628   -17879417.9174   20282939.2044         51.500
        45.7504
  -8580644.703    22672121.812    -6633847.3724   22672120.5194         48.250
        35.2504
  -2480964.184    24732221.607    -1923198.1414   24732223.4404         37.000
        22.2504
 -25814397.504    20154073.418   -20044141.4034   20154070.7664         53.500
        46.0004
 -22098569.312    21218978.700   -17162726.0064   21218976.1554         48.250
        40.0004
 -13932548.371    22379146.805   -10830062.6454   22379145.6424         45.750
        34.2504
 11  3 11  0 30 30.0000000  0  7G 2G 4G 5G 7G10G13G17
 -14251850.672    21222402.273   -11083979.6814   21222397.7224         51.250
        42.0004
 -23004693.426    20282569.009   -17880942.7504   20282566.5584         52.500
        45.5004
  -8657743.977    22657450.251    -6693924.6914   22657448.8414         45.500
        34.5004
  -2564017.250    24716417.624    -1987914.7894   24716419.3534         34.500
        22.0004
 -25823832.996    20152277.973   -20051493.7424   20152275.2324         53.500
        46.0004
 -22071082.801    21224209.596   -17141307.9484   21224205.9164         50.000
        40.5004
 -13840079.695    22396743.616   -10758009.2144   22396742.2124         45.500
        34.7504
 11  3 11  0 31  0.0000000  0  7G 2G 4G 5G 7G10G13G17
 -14326452.164    21208205.980   -11142110.7034   21208201.4324         50.750
        42.0004
 -23006318.840    20282259.786   -17882209.3054   20282257.4544         53.500
        45.5004
  -8734610.852    22642822.568    -6753820.9074   22642821.4434         46.000
        35.0004
  -2647001.215    24700625.315    -2052577.4334   24700627.5864         37.000
        20.5004
 -25832905.070    20150551.610   -20058562.9154   20150548.8374         52.500
        46.0004
 -22043001.867    21229553.301   -17119426.7024   21229549.5844         50.000
        40.5004
 -13747346.785    22414390.107   -10685749.8834   22414389.2164         45.250
        35.0004
 11  3 11  0 31 30.0000000  0  7G 2G 4G 5G 7G10G13G17
 -14400877.484    21194043.606   -11200104.4554   21194038.7414         51.500
        42.5004
 -23007612.441    20282013.633   -17883217.3164   20282011.2824         53.000
        45.5004
  -8811245.734    22628239.786    -6813536.3684   22628238.2774         46.250
        34.0004
  -2729913.656    24684847.509    -2117184.5084   24684850.2444         36.500
        20.0004
 -25841615.414    20148894.202   -20065350.2204   20148891.4394         53.250
        46.0004
 -22014329.289    21235009.245   -17097084.4364   21235006.2464         50.000
        40.5004
 -13654353.020    22432086.127   -10613287.3054   22432085.4294         43.750
        35.2504
 11  3 11  0 32  0.0000000  0  7G 2G 4G 5G 7G10G13G17
 -14475125.520    21179914.513   -11257960.0604   21179909.9394         51.750
        42.2504
 -23008574.000    20281830.803   -17883966.6214   20281828.3084         52.250
        45.5004
  -8887648.965    22613700.350    -6873071.3064   22613699.1614         46.000
        35.0004
  -2812752.496    24669084.732    -2181734.1164   24669086.3394         39.500
        22.2504
 -25849965.707    20147304.842   -20071856.9554   20147302.2054         53.250
        45.7504
 -21985066.734    21240577.558   -17074282.4574   21240574.8774         48.500
        39.2504
 -13561101.746    22449831.634   -10540624.0864   22449831.1984         44.000
        35.0004
 11  3 11  0 32 30.0000000  0  7G 2G 4G 5G 7G10G13G17
 -14549195.887    21165819.222   -11315677.2324   21165814.9364         51.500
        42.0004
 -23009204.246    20281711.113   -17884457.7554   20281708.9594         51.750
        45.7504
  -8963821.668    22599205.611    -6932426.6514   22599204.1034         46.000
        34.7504
  -2895515.625    24653335.498    -2246224.9114   24653337.2304         39.500
        23.0004
 -25857958.000    20145784.053   -20078084.7344   20145781.6374         52.500
        45.7504
 -21955217.094    21246257.901   -17051022.9994   21246254.9944         49.250
        39.7504
 -13467596.824    22467624.494   -10467763.1974   22467624.3284         43.000
        34.7504
 11  3 11  0 33  0.0000000  0  7G 2G 4G 5G 7G10G13G17
 -14623086.688    21151758.408   -11373254.4714   21151754.0154         49.000
        42.0004
 -23009502.449    20281654.271   -17884690.1224   20281652.0144         51.000
        46.0004
  -9039763.930    22584754.328    -6991602.3954   22584752.8124         43.000
        35.2504
  -2978199.922    24637600.779    -2310654.0904   24637603.0344         38.500
        22.0004
 -25865593.520    20144331.140   -20084034.4904   20144328.5174         53.500
        45.5004
 -21924781.570    21252049.486   -17027307.0034   21252046.1624         47.250
        39.2504
 -13373840.699    22485466.440   -10394706.5624   22485465.4544         43.500
        35.0004
 11  3 11  0 33 30.0000000  0  7G 2G 4G 5G 7G10G13G17
 -14696794.762    21137732.153   -11430689.3474   21137727.8654         49.250
        42.0004
 -23009466.367    20281660.752   -17884662.0174   20281658.4964         50.000
        45.5004
  -9115474.348    22570347.313    -7050597.4734   22570345.8304         44.250
        36.0004
  -3060801.629    24621881.642    -2375018.9214   24621884.6654         37.500
        22.2504
 -25872872.105    20142946.110   -20089706.1244   20142943.8214         53.500
        45.7504
 -21893760.781    21257952.365   -17003134.9524   21257949.2734         46.750
        39.7504
 -13279834.945    22503354.283   -10321455.4064   22503354.5544         43.250
        34.5004
 11  3 11  0 34  0.0000000  0  7G 2G 4G 5G 7G10G13G17
 -14770318.168    21123741.410   -11487980.2994   21123736.7034         51.000
        42.2504
 -23009095.129    20281731.750   -17884372.7374   20281729.5114         51.500
        45.7504
  -9190952.359    22555984.425    -7109411.4684   22555982.8424         47.500
        36.5004
  -3143316.995    24606178.685    -2439316.5434   24606182.7114         38.250
        23.0004
 -25879794.332    20141628.712   -20095100.0794   20141626.4124         52.000
        45.7504
 -21862155.762    21263966.922   -16978507.6754   21263964.2584         48.250
        39.7504
 -13185581.668    22521290.992   -10248011.3934   22521289.6894         44.000
        34.0004
 11  3 11  0 34 30.0000000  0  7G 2G 4G 5G 7G10G13G17
 -14843655.637    21109785.591   -11545126.3744   21109781.2274         51.250
        42.0004
 -23008388.492    20281866.006   -17883822.1164   20281864.1754         50.500
        45.5004
  -9266198.426    22541665.084    -7168044.7024   22541663.7244         47.500
        37.2504
  -3225743.633    24590494.640    -2503544.8784   24590496.3374         40.000
        24.7504
 -25886361.828    20140379.223   -20100217.6224   20140376.6754         52.250
        45.7504
 -21829968.867    21270091.595   -16953426.9864   21270089.3884         46.750
        40.0004
 -13091084.340    22539273.286   -10174377.2264   22539272.8914         43.000
        33.7504
 11  3 11  0 35  0.0000000  0  7G 2G 4G 5G 7G10G13G17
 -14916805.082    21095865.819   -11602125.9454   21095861.3604         50.250
        42.7504
 -23007345.539    20282064.683   -17883009.4264   20282062.2194         51.500
        45.7504
  -9341212.227    22527390.133    -7226496.9774   22527388.8284         47.250
        37.0004
  -3308078.090    24574826.622    -2567701.4264   24574828.4144         41.250
        24.5004
 -25892575.523    20139196.928   -20105059.4654   20139194.2574         52.500
        45.7504
 -21797201.449    21276326.931   -16927893.9374   21276324.7974         47.250
        39.5004
 -12996345.484    22557301.947   -10100554.8324   22557300.7904         42.500
        34.2504
 11  3 11  0 35 30.0000000  0  7G 2G 4G 5G 7G10G13G17
 -14989766.543    21081981.475   -11658979.0234   21081977.2354         51.500
        42.5004
 -23005967.035    20282326.938   -17881935.2694   20282324.7144         53.000
        45.5004
  -9415995.277    22513159.586    -7284769.4244   22513158.3294         47.750
        37.0004
  -3390319.250    24559177.074    -2631785.3244   24559177.6894         41.750
        24.2504
 -25898438.059    20138081.199   -20109627.6744   20138078.4564         53.000
        45.5004
 -21763856.742    21282672.213   -16901911.0414   21282669.8294         46.750
        39.5004
 -12901369.242    22575374.913   -10026547.4814   22575374.6224         42.000
        34.2504
 11  3 11  0 36  0.0000000  0  7G 2G 4G 5G 7G10G13G17
 -15062536.559    21068133.869   -11715682.9374   21068129.4774         51.000
        42.5004
 -23004250.906    20282653.499   -17880598.0474   20282651.3694         52.000
        45.5004
  -9490546.156    22498972.788    -7342860.9854   22498971.9184         45.750
        36.0004
  -3472462.457    24543544.948    -2695792.9324   24543545.1164         42.000
        21.7504
 -25903948.938    20137032.518   -20113921.8814   20137029.8914         53.250
        45.7504
 -21729934.949    21289127.837   -16875478.4944   21289124.9964         48.750
        39.5004
 -12806156.789    22593493.372    -9952356.0474   22593492.6474         41.750
        34.0004
 11  3 11  0 36 30.0000000  0  7G 2G 4G 5G 7G10G13G17
 -15135115.250    21054322.855   -11772237.7674   21054317.9484         50.500
        42.5004
 -23002198.234    20283044.156   -17878998.5574   20283041.6954         52.500
        45.5004
  -9564866.586    22484830.565    -7400772.9524   22484828.6684         45.000
        36.0004
  -3554506.363    24527932.760    -2759723.2044   24527932.5574         42.250
        22.5004
 -25909111.328    20136049.944   -20117944.5254   20136047.4314         53.000
        45.5004
 -21695439.527    21295691.912   -16848598.9314   21295689.0184         49.500
        39.0004
 -12710712.711    22611655.445    -9877984.1324   22611654.3664         42.250
        33.5004
 11  3 11  0 37  0.0000000  0  7G 2G 4G 5G 7G10G13G17
 -15207500.691    21040548.395   -11828642.0014   21040543.3664         50.250
        42.7504
 -22999808.238    20283498.881   -17877136.2614   20283496.6684         50.500
        45.5004
  -9638955.922    22470731.356    -7458504.8584   22470730.2394         43.250
        36.0004
  -3636447.969    24512339.728    -2823573.6504   24512340.4194         39.500
        22.5004
 -25913925.875    20135133.850   -20121696.0994   20135131.1454         52.750
        45.5004
 -21660372.031    21302364.794   -16821273.6264   21302362.0184         47.000
        39.2504
 -12615039.375    22629861.320    -9803433.5714   22629860.5714         41.250
        32.2504
 11  3 11  0 37 30.0000000  0  7G 2G 4G 5G 7G10G13G17
 -15279690.367    21026811.050   -11884893.7054   21026806.1274         50.250
        43.0004
 -22997079.727    20284018.240   -17875010.1314   20284015.8674         50.500
        45.5004
  -9712813.832    22456677.015    -7516056.4434   22456675.4654         46.000
        36.0004
  -3718283.531    24496766.671    -2887341.5914   24496767.8224         38.500
        24.0004
 -25918393.117    20134283.830   -20125177.0774   20134281.2674         54.250
        45.5004
 -21624733.836    21309146.422   -16793503.6104   21309143.6214         46.500
        39.5004
 -12519139.125    22648111.004    -9728706.2234   22648109.4124         44.000
        33.0004
 11  3 11  0 38  0.0000000  0  7G 2G 4G 5G 7G10G13G17
 -15351682.914    21013111.343   -11940991.8104   21013106.6184         52.250
        43.0004
 -22994012.273    20284601.605   -17872619.9214   20284599.7124         49.000
        45.5004
  -9786440.855    22442665.867    -7573428.1054   22442664.0754         48.000
        35.7504
  -3800010.449    24481214.381    -2951024.7734   24481215.4854         37.250
        22.2504
 -25922514.691    20133499.576   -20128388.6924   20133496.5394         52.750
        45.5004
 -21588527.078    21316036.758   -16765290.5564   21316033.3424         47.500
        39.0004
 -12423014.781    22666403.235    -9653804.2684   22666401.2714         43.000
        32.7504
 11  3 11  0 38 30.0000000  0  7G 2G 4G 5G 7G10G13G17
 -15423477.559    20999449.201   -11996935.6974   20999444.6694         51.250
        43.0004
 -22990606.309    20285250.110   -17869965.9544   20285247.6484         50.500
        45.5004
  -9859837.789    22428699.064    -7630620.4824   22428697.0504         48.000
        35.7504
  -3881626.527    24465682.594    -3014621.6224   24465684.1524         36.000
        22.5004
 -25926292.547    20132780.532   -20131332.4794   20132777.7314         52.750
        45.5004
 -21551754.387    21323034.312   -16736636.5254   21323031.1534         48.250
        38.5004
 -12326670.152    22684737.073    -9578730.6464   22684735.6464         44.250
        33.7504
 11  3 11  0 39  0.0000000  0  7G 2G 4G 5G 7G10G13G17
 -15495071.754    20985825.246   -12052723.3814   20985820.5784         48.500
        42.5004
 -22986860.379    20285962.605   -17867047.0714   20285960.4914         52.000
        45.5004
  -9933003.594    22414776.171    -7687632.7574   22414775.2494         42.750
        36.2504
  -3963128.195    24450173.800    -3078129.2344   24450175.1404         34.500
        24.7504
 -25929727.289    20132126.997   -20134008.9134   20132124.2784         52.250
        45.5004
 -21514416.879    21330139.245   -16707542.3634   21330136.8604         48.750
        39.0004
 -12230107.391    22703111.543    -9503487.0634   22703111.0194         41.750
        32.2504
 11  3 11  0 39 30.0000000  0  7G 2G 4G 5G 7G10G13G17
 -15566463.664    20972239.886   -12108353.4504   20972235.1824         50.750
        43.5004
 -22982773.930    20286740.374   -17863862.8354   20286737.8014         51.750
        45.5004
 -10005938.727    22400896.996    -7744465.2834   22400895.4924         47.750
        36.7504
  -4044512.457    24434687.142    -3141545.4654   24434688.2234         36.750
        25.5004
 -25932820.387    20131538.466   -20136419.1364   20131535.6674         53.250
        45.5004
 -21476516.719    21337351.463   -16678009.7884   21337348.3544         49.000
        38.5004
 -12133329.168    22721528.385    -9428075.5724   22721527.1604         42.250
        32.0004
 11  3 11  0 40  0.0000000  0  7G 2G 4G 5G 7G10G13G17
 -15637652.473    20958693.255   -12163825.2564   20958688.6364         52.500
        42.7504
 -22978347.289    20287582.751   -17860413.5034   20287580.2954         51.000
        45.5004
 -10078643.977    22387061.544    -7801118.6754   22387060.1354         48.500
        37.0004
  -4125777.160    24419222.718    -3204868.5704   24419222.0434         37.500
        22.5004
 -25935573.699    20131014.476   -20138564.5794   20131011.5004         53.500
        45.5004
 -21438056.469    21344670.364   -16648040.7774   21344667.5774         50.000
        39.2504
 -12036339.184    22739984.793    -9352499.0434   22739983.8784         43.250
        32.2504
 11  3 11  0 40 30.0000000  0  7G 2G 4G 5G 7G10G13G17
 -15708635.996    20945185.583   -12219137.1044   20945181.0154         51.500
        42.7504
 -22973578.957    20288490.279   -17856697.9004   20288488.0354         50.000
        45.5004
 -10151118.750    22373269.853    -7857592.4834   22373269.0054         48.500
        37.2504
  -4206918.547    24403782.709    -3268095.5404   24403781.3504         40.250
        25.7504
 -25937987.305    20130555.286   -20140445.3124   20130552.2044         52.500
        45.2504
 -21399037.359    21352095.073   -16617636.2804   21352092.9664         49.500
        38.0004
 -11939139.680    22758481.393    -9276759.2784   22758480.7324         42.000
        32.2504
 11  3 11  0 41  0.0000000  0  7G 2G 4G 5G 7G10G13G17
 -15779413.887    20931716.786   -12274288.7064   20931712.1924         50.750
        43.5004
 -22968470.645    20289462.423   -17852717.4424   20289460.0964         51.000
        45.7504
 -10223365.066    22359521.828    -7913888.2684   22359520.3234         49.000
        37.2504
  -4287935.859    24388366.026    -3331225.8444   24388364.6704         40.750
        23.0004
 -25940064.738    20130159.666   -20142064.0954   20130156.7694         52.250
        45.5004
 -21359463.457    21359625.829   -16586799.4824   21359623.4654         50.000
        39.7504
 -11841735.281    22777017.002    -9200859.8354   22777017.0024         42.750
        32.7504
 11  3 11  0 41 30.0000000  0  7G 2G 4G 5G 7G10G13G17
 -15849985.043    20918287.620   -12329279.2254   20918283.0364         51.250
        43.0004
 -22963021.852    20290499.280   -17848471.6554   20290497.0654         51.000
        45.2504
 -10295383.020    22345816.715    -7970006.0994   22345815.6724         48.500
        37.5004
  -4368825.953    24372971.672    -3394256.9984   24372970.7124         39.750
        22.5004
 -25941807.461    20129828.553   -20143422.0584   20129825.5214         53.000
        45.7504
 -21319336.906    21367261.823   -16555532.0454   21367259.1134         50.250
        39.0004
 -11744128.977    22795591.149    -9124803.0964   22795590.8134         42.500
        31.5004
 11  3 11  0 42  0.0000000  0  7G 2G 4G 5G 7G10G13G17
 -15920348.309    20904898.073   -12384107.7434   20904893.3714         51.250
        43.7504
 -22957232.988    20291600.951   -17843960.8404   20291598.7944         51.500
        45.5004
 -10367173.621    22332155.690    -8025946.7844   22332154.3484         48.750
        37.2504
  -4449586.930    24357602.849    -3457187.5094   24357604.0264         38.500
        24.7504
 -25943217.668    20129560.005   -20144520.9304   20129557.2474         53.000
        45.5004
 -21278660.691    21375002.540   -16523836.3194   21374999.5334         49.750
        38.5004
 -11646324.605    22814202.695    -9048592.0174   22814201.9804         42.000
        31.5004
 11  3 11  0 42 30.0000000  0  7G 2G 4G 5G 7G10G13G17
 -15990500.098    20891548.240   -12438771.4794   20891544.1024         51.500
        43.2504
 -22951101.289    20292767.487   -17839182.8764   20292765.4134         51.250
        45.5004
 -10438734.773    22318538.155    -8081708.6754   22318536.5874         48.000
        38.0004
  -4530213.773    24342260.568    -3520013.5874   24342262.1364         39.500
        22.5004
 -25944293.941    20129355.255   -20145359.6004   20129352.3514         52.250
        45.5004
 -21237434.527    21382847.012   -16491712.0574   21382844.4264         50.000
        38.5004
 -11548322.676    22832852.385    -8972227.0044   22832851.3004         40.750
        32.0004
 11  3 11  0 43  0.0000000  0  7G 2G 4G 5G 7G10G13G17
 -16060439.363    20878239.204   -12493269.6004   20878234.6504         52.000
        43.5004
 -22944627.059    20293999.667   -17834138.0234   20293997.1874         52.500
        45.7504
 -10510067.633    22304964.163    -8137292.6964   22304962.5604         48.000
        38.2504
  -4610704.301    24326944.237    -3582733.3494   24326945.5254         40.750
        25.2504
 -25945038.289    20129213.530   -20145939.6354   20129210.6194         53.000
        45.5004
 -21195661.500    21390796.194   -16459161.6764   21390793.7824         49.500
        38.2504
 -11450127.035    22851538.135    -8895711.0344   22851537.6644         43.000
        31.5004
 11  3 11  0 43 30.0000000  0  7G 2G 4G 5G 7G10G13G17
 -16130163.137    20864971.044   -12547599.8264   20864966.8334         51.750
        43.7504
 -22937809.113    20295297.034   -17828825.3734   20295294.9954         53.000
        45.5004
 -10581171.684    22291432.825    -8192698.4184   22291431.8934         47.250
        37.5004
  -4691054.754    24311654.099    -3645343.9624   24311655.7244         43.000
        28.0004
 -25945451.418    20129134.685   -20146261.5764   20129131.7864         52.000
        45.7504
 -21153342.707    21398849.679   -16426186.0074   21398846.8054         50.500
        38.2504
 -11351739.523    22870259.784    -8819045.5324   22870260.1974         41.750
        31.5004
 11  3 11  0 44  0.0000000  0  7G 2G 4G 5G 7G10G13G17
 -16199665.988    20851745.511   -12601757.8834   20851740.7674         52.250
        43.2504
 -22930642.938    20296661.068   -17823241.3354   20296658.6394         53.250
        45.5004
 -10652043.000    22277947.011    -8247922.7944   22277945.3924         47.750
        37.5004
  -4771258.457    24296391.560    -3707840.2204   24296392.7804         42.250
        28.0004
 -25945530.848    20129119.778   -20146323.4614   20129116.8994         52.500
        45.5004
 -21110476.793    21407006.517   -16392784.0024   21407003.9704         49.750
        38.5004
 -11253159.586    22889020.039    -8742230.1104   22889020.0044         42.000
        31.0004
 11  3 11  0 44 30.0000000  0  7G 2G 4G 5G 7G10G13G17
 -16268948.406    20838561.333   -12655744.1814   20838556.5244         51.250
        43.0004
 -22923130.289    20298090.233   -17817387.3604   20298088.1144         53.000
        45.5004
 -10722683.828    22264504.224    -8302967.5514   22264503.0614         47.000
        37.5004
  -4851314.355    24281158.157    -3770221.3484   24281157.9894         42.250
        27.0004
 -25945280.031    20129167.625   -20146128.0344   20129164.8934         52.250
        45.2504
 -21067067.555    21415267.157   -16358958.6664   21415264.5284         50.250
        39.0004
 -11154391.473    22907814.654    -8665268.0524   22907814.6914         41.250
        32.0004
 11  3 11  0 45  0.0000000  0  7G 2G 4G 5G 7G10G13G17
 -16338009.504    20825419.402   -12709558.0284   20825415.0134         48.250
        43.5004
 -22915271.566    20299586.092   -17811263.6794   20299583.5444         52.000
        45.5004
 -10793094.844    22251105.431    -8357833.2474   22251104.0654         43.000
        36.7504
  -4931220.426    24265952.304    -3832485.7304   24265951.6104         41.000
        25.0004
 -25944701.125    20129277.328   -20145676.9624   20129274.7454         52.750
        45.5004
 -21023118.504    21423630.569   -16324712.6604   21423628.0364         50.500
        38.5004
 -11055439.008    22926645.347    -8588162.3254   22926645.4854         41.000
        32.0004
 11  3 11  0 45 30.0000000  0  7G 2G 4G 5G 7G10G13G17
 -16406848.785    20812319.592   -12763199.0144   20812315.1244         48.250
        43.0004
 -22907067.289    20301147.108   -17804870.7634   20301145.2244         52.500
        45.5004
 -10863277.457    22237749.815    -8412520.9654   22237748.8284         43.250
        37.7504
  -5010974.988    24250774.173    -3894631.9974   24250775.5984         38.000
        25.0004
 -25943796.078    20129449.820   -20144971.7604   20129447.1174         53.000
        45.5004
 -20978632.434    21432095.829   -16290048.2294   21432093.2894         50.000
        38.5004
 -10956306.594    22945509.564    -8510916.3904   22945509.9374         39.750
        31.2504
 11  3 11  0 46  0.0000000  0  7G 2G 4G 5G 7G10G13G17
 -16475462.945    20799263.019   -12816664.5944   20799258.4794         48.000
        43.7504
 -22898515.906    20302774.367   -17798207.3464   20302772.5794         52.000
        45.5004
 -10933230.918    22224438.998    -8467030.1264   22224436.7924         43.000
        36.2504
  -5090574.023    24235627.092    -3956657.1284   24235627.6984         38.500
        24.5004
 -25942565.500    20129683.981   -20144012.8894   20129681.2444         52.500
        45.5004
 -20933610.738    21440663.344   -16254966.3784   21440660.2774         51.000
        38.2504
 -10856996.059    22964407.229    -8433531.6634   22964407.1284         40.000
        30.7504
 11  3 11  0 46 30.0000000  0  7G 2G 4G 5G 7G10G13G17
 -16543851.820    20786249.199   -12869954.6264   20786244.7294         51.250
        43.7504
 -22889618.402    20304467.308   -17791274.2194   20304465.2204         52.250
        45.2504
 -11002956.852    22211170.089    -8521361.9734   22211168.9194         45.250
        38.2504
  -5170015.730    24220509.423    -4018559.6264   24220509.2614         39.000
        23.7504
 -25941011.984    20129979.612   -20142802.3744   20129976.9004         51.000
        45.5004
 -20888056.512    21449331.828   -16219469.5954   21449328.9774         51.000
        38.0004
 -10757511.453    22983338.743    -8356011.2924   22983337.9294         41.000
        30.2504
 11  3 11  0 47  0.0000000  0  7G 2G 4G 5G 7G10G13G17
 -16612012.379    20773278.558   -12923066.7504   20773274.1574         52.000
        44.0004
 -22880373.086    20306226.636   -17784070.0804   20306224.6764         52.000
        45.2504
 -11072453.805    22197944.976    -8575515.4234   22197943.3144         48.000
        37.7504
  -5249296.234    24205423.036    -4080336.5014   24205422.7774         39.000
        25.7504
 -25939135.410    20130336.984   -20141340.1464   20130334.2454         49.500
        45.5004
 -20841971.379    21458101.763   -16183559.1224   21458098.8814         50.000
        38.2504
 -10657854.367    23002303.516    -8278356.5394   23002302.5634         40.000
        31.5004
 11  3 11  0 47 29.9990000  0  7G 2G 4G 5G 7G10G13G17
 -16679940.730    20760352.301   -12975997.9274   20760347.7764         51.750
        44.2504
 -22870780.008    20308052.248   -17776594.9714   20308050.1264         52.000
        45.2504
 -11141720.109    22184764.554    -8629489.1264   22184762.8134         48.500
        37.5004
  -5328410.137    24190368.089    -4141983.6244   24190368.9584         38.000
        28.2504
 -25936937.527    20130754.973   -20139627.5234   20130752.3314         50.000
        45.5004
 -20795359.590    21466971.528   -16147238.2684   21466969.2274         49.500
        38.2504
 -10558031.516    23021298.852    -8200572.6204   23021298.6774         41.500
        30.5004
 11  3 11  0 47 59.9990000  0  7G 2G 4G 5G 7G10G13G17
 -16747643.559    20747468.774   -13028753.3834   20747464.3194         52.000
        44.2504
 -22860842.035    20309943.558   -17768851.1074   20309941.3614         52.750
        45.5004
 -11210764.129    22171625.607    -8683289.6264   22171624.2214         48.500
        38.0004
  -5407363.496    24175343.927    -4203505.6614   24175343.8834         39.500
        27.5004
 -25934423.223    20131233.436   -20137668.3504   20131230.6584         48.500
        45.5004
 -20748223.613    21475941.086   -16110508.9734   21475938.8354         50.000
        38.0004
 -10458042.465    23040326.006    -8122659.2134   23040326.1444         40.500
        29.5004
 11  3 11  0 48 29.9990000  0  7G 2G 4G 5G 7G10G13G17
 -16815120.145    20734628.323   -13081332.5414   20734623.9764         51.500
        44.0004
 -22850562.637    20311899.762   -17760841.2014   20311897.6694         52.750
        45.2504
 -11279587.973    22158529.097    -8736918.5414   22158527.2154         49.250
        38.5004
  -5486154.723    24160350.160    -4264901.2934   24160349.7094         38.500
        26.5004
 -25931597.484    20131771.371   -20135466.4954   20131768.9054         52.500
        45.5004
 -20700570.934    21485009.556   -16073377.0534   21485006.7804         50.000
        37.7504
 -10357897.312    23059383.100    -8044624.1744   23059383.7964         39.250
        29.0004
 11  3 11  0 48 59.9990000  0  7G 2G 4G 5G 7G10G13G17
 -16882367.219    20721831.456   -13133732.8594   20721826.8474         47.500
        43.5004
 -22839939.648    20313921.234   -17752563.5834   20313919.0244         52.250
        45.5004
 -11348189.609    22145474.186    -8790374.3254   22145472.4714         44.000
        38.0004
  -5564778.730    24145388.122    -4326166.6424   24145389.3194         36.750
        24.0004
 -25928459.859    20132368.463   -20133021.6064   20132365.8474         51.500
        45.5004
 -20652402.168    21494175.248   -16035842.9694   21494172.8224         49.750
        38.0004
 -10257596.734    23078469.898    -7966467.9874   23078469.3454         40.250
        29.0004
 11  3 11  0 49 29.9990000  0  7G 2G 4G 5G 7G10G13G17
 -16949381.559    20709079.399   -13185951.8054   20709074.5814         51.000
        44.0004
 -22828971.277    20316008.428   -17744016.8594   20316006.0004         52.500
        45.2504
 -11416568.051    22132462.849    -8843656.1964   22132460.6384         47.500
        38.2504
  -5643231.402    24130459.640    -4387298.5684   24130461.3114         39.000
        27.2504
 -25925010.078    20133024.963   -20130333.4804   20133022.4384         52.750
        45.5004
 -20603718.469    21503439.762   -15997907.6514   21503437.5784         49.750
        38.0004
 -10157143.152    23097586.136    -7888192.5714   23097585.8244         40.000
        30.0004
 11  3 11  0 49 59.9990000  0  7G 2G 4G 5G 7G10G13G17
 -17016165.414    20696370.736   -13237991.1774   20696365.8764         50.750
        44.0004
 -22817661.203    20318160.597   -17735203.8404   20318158.3674         53.000
        45.0004
 -11484727.355    22119492.213    -8896767.2984   22119490.5034         48.500
        38.5004
  -5721513.719    24115562.208    -4448297.6754   24115564.2784         38.000
        24.2504
 -25921253.527    20133739.752   -20127406.3234   20133737.4664         52.000
        45.5004
 -20554526.070    21512800.658   -15959575.9564   21512797.8494         49.000
        37.5004
 -10056543.016    23116730.147    -7809802.9814   23116729.4304         41.750
        31.2504
 11  3 11  0 50 29.9990000  0  8G 2G 4G 5G 7G 8G10G13G17
 -17082713.418    20683707.232   -13289846.7524   20683702.6184         49.500
        44.5004
 -22806005.285    20320378.618   -17726121.3214   20320376.4864         52.500
        45.2504
 -11552664.379    22106563.741    -8949705.2034   22106562.1534         45.250
        38.0004
  -5799619.262    24100700.038    -4509159.1114   24100700.7864         37.250
        25.2504
   -180858.5271   25255449.648      -22812.6605   25255455.3774         32.0001
        19.5005
 -25917187.984    20134513.571   -20124238.3764   20134511.0334         50.000
        45.5004
 -20504823.953    21522258.803   -15920847.0584   21522256.5404         48.250
        37.5004
  -9955795.625    23135901.109    -7731298.6474   23135900.5694         41.500
        29.5004
 11  3 11  0 50 59.9990000  0  8G 2G 4G 5G 7G 8G10G13G17
 -17149021.891    20671088.911   -13341515.6874   20671084.3564         50.500
        44.0004
 -22794001.152    20322662.999   -17716767.4574   20322660.5954         53.000
        45.2504
 -11620377.312    22093678.436    -9002468.4924   22093677.2724         45.000
        38.2504
  -5877543.293    24085871.340    -4569879.0864   24085872.7814         39.250
        25.2504
   -269406.484    25238600.164      -91810.8984   25238603.5834         36.250
        17.7504
 -25912813.152    20135346.082   -20120829.4264   20135343.2124         50.000
        45.5004
 -20454612.238    21531813.703   -15881721.0924   21531810.8124         48.500
        37.2504
  -9854901.957    23155100.815    -7652680.3284   23155100.5334         41.000
        29.7504
 11  3 11  0 51 29.9990000  0  8G 2G 4G 5G 7G 8G10G13G17
 -17215086.035    20658517.587   -13392994.2414   20658512.8084         52.000
        45.0004
 -22781645.945    20325014.097   -17707140.0564   20325011.6634         52.500
        45.0004
 -11687863.555    22080836.234    -9055055.1394   22080835.0294         47.000
        38.2504
  -5955279.801    24071079.263    -4630452.9274   24071080.2234         40.250
        27.5004
   -358068.391    25221727.650     -160897.8594   25221731.0404         34.000
        15.5004
 -25908127.375    20136237.684   -20117178.1694   20136235.2734         51.500
        45.5004
 -20403890.613    21541465.760   -15842197.7754   21541463.2794         49.250
        37.0004
  -9753861.953    23174328.294    -7573947.9954   23174327.8614         41.500
        28.5004
 11  3 11  0 51 59.9990000  0  8G 2G 4G 5G 7G 8G10G13G17
 -17280902.797    20645992.853   -13444280.0224   20645988.2134         51.000
        44.0004
 -22768937.859    20327432.199   -17697237.6724   20327430.0974         53.000
        45.2504
 -11755122.082    22068037.782    -9107464.3464   22068036.1814         44.750
        38.2504
  -6032825.098    24056322.418    -4690877.7324   24056322.3714         40.500
        28.0004
   -446840.500    25204835.151     -230070.6994   25204838.3904         34.750
        17.0004
 -25903130.570    20137188.431   -20113284.5704   20137185.9274         51.000
        45.5004
 -20352660.391    21551214.765   -15802278.1624   21551212.1304         48.250
        36.7504
  -9652677.371    23193583.167    -7495102.9934   23193583.1754         42.250
        29.2504
 11  3 11  0 52 29.9990000  0  8G 2G 4G 5G 7G 8G10G13G17
 -17346469.859    20633515.977   -13495371.2474   20633511.1564         51.000
        44.5004
 -22755876.121    20329918.070   -17687059.6644   20329915.8234         52.500
        45.5004
 -11822152.559    22055282.194    -9159695.8494   22055280.4664         45.000
        38.5004
  -6110175.527    24041602.819    -4751150.7084   24041602.9074         39.250
        27.5004
   -535719.422    25187921.024     -299326.8164   25187924.6264         37.000
        16.2504
 -25897823.613    20138198.319   -20109149.2934   20138195.7644         51.250
        45.5004
 -20300923.332    21561059.668   -15761963.5954   21561057.2484         47.000
        36.7504
  -9551350.441    23212865.130    -7416147.0544   23212865.9324         43.000
        29.7504
 11  3 11  0 52 59.9990000  0  8G 2G 4G 5G 7G 8G10G13G17
 -17411784.926    20621086.966   -13546266.1094   20621082.4944         49.000
        44.5004
 -22742459.562    20332471.148   -17676605.2274   20332468.9454         53.250
        45.2504
 -11888954.484    22042570.005    -9211749.2494   22042568.4754         44.000
        38.5004
  -6187327.332    24026920.870    -4811268.9444   24026921.8534         38.500
        25.7504
   -624702.465    25170988.277     -368664.0564   25170992.1134         37.500
        19.0004
 -25892206.871    20139267.348   -20104772.6184   20139264.7474         52.750
        45.5004
 -20248681.449    21571001.322   -15721255.6564   21570998.7194         47.250
        37.5004
  -9449883.777    23232173.775    -7337082.2834   23232174.3544         43.250
        29.7504
 11  3 11  0 53 29.9990000  0  8G 2G 4G 5G 7G 8G10G13G17
 -17476846.109    20608706.058   -13596963.1264   20608701.6114         50.750
        44.5004
 -22728688.324    20335091.864   -17665874.4464   20335089.7504         53.250
        45.2504
 -11955528.512    22029901.519    -9263625.0784   22029899.7474         46.250
        38.5004
  -6264278.184    24012277.347    -4871230.5134   24012277.0954         38.750
        26.7504
   -713787.039    25154037.125     -438080.3694   25154040.1904         39.500
        20.0004
 -25886282.059    20140394.765   -20100155.8914   20140392.0034         53.500
        45.7504
 -20195937.180    21581038.121   -15680156.2754   21581035.8044         47.250
        37.2504
  -9348280.027    23251508.464    -7257910.6954   23251510.0404         42.750
        30.0004
 11  3 11  0 53 59.9990000  0  8G 2G 4G 5G 7G 8G10G13G17
 -17541651.289    20596374.144   -13647460.6644   20596369.4214         50.000
        44.2504
 -22714561.488    20337779.888   -17654866.5424   20337777.8494         52.250
        45.0004
 -12021874.617    22017275.992    -9315323.3144   22017274.2764         45.250
        39.0004
  -6341024.465    23997673.515    -4931032.7384   23997673.5094         38.500
        28.2504
   -802970.621    25137064.406     -507573.8054   25137069.6574         37.250
        18.5004
 -25880050.363    20141580.730   -20095300.0364   20141578.3624         53.000
        45.5004
 -20142692.500    21591170.501   -15638666.9414   21591167.9554         48.000
        37.2504
  -9246542.105    23270869.049    -7178634.5214   23270870.0524         44.000
        31.2504
 11  3 11  0 54 29.9990000  0  8G 2G 4G 5G 7G 8G10G13G17
 -17606196.727    20584091.862   -13697755.8214   20584087.2744         48.750
        44.2504
 -22700076.871    20340536.224   -17643579.8214   20340534.1814         53.000
        45.0004
 -12087990.883    22004694.507    -9366842.4424   22004692.9054         44.500
        38.7504
  -6417561.648    23983109.039    -4990671.9934   23983109.7794         39.500
        28.0004
   -892248.312    25120075.088     -577140.5614   25120080.3684         36.500
        19.2504
 -25873510.969    20142825.106   -20090204.4004   20142822.6124         53.250
        45.5004
 -20088948.297    21601397.503   -15596788.3704   21601394.3924         48.000
        37.0004
  -9144670.945    23290254.773    -7099254.5434   23290254.0694         45.000
        27.7504
 11  3 11  0 54 59.9990000  0  8G 2G 4G 5G 7G 8G10G13G17
 -17670482.891    20571858.534   -13747848.9294   20571853.5714         50.500
        45.0004
 -22685236.219    20343360.379   -17632015.6974   20343358.4454         52.750
        45.0004
 -12153879.762    21992156.281    -9418184.4074   21992154.7914         48.500
        39.0004
  -6493888.637    23968584.204    -5050147.4074   23968583.8174         38.500
        27.5004
   -981619.613    25103068.216     -646780.3104   25103073.4164         35.250
        19.0004
 -25866667.418    20144127.011   -20084871.7754   20144124.4724         53.000
        45.2504
 -20034709.203    21611719.148   -15554524.1884   21611716.1534         46.500
        36.7504
  -9042671.398    23309663.910    -7019774.5214   23309663.7264         42.500
        27.0004
 11  3 11  0 55 29.9990000  0  8G 2G 4G 5G 7G 8G10G13G17
 -17734507.242    20559674.917   -13797738.0454   20559670.2744         50.500
        44.5004
 -22670038.934    20346252.478   -17620173.7204   20346250.3394         53.500
        45.0004
 -12219541.012    21979661.658    -9469348.9714   21979659.8294         48.250
        39.2504
  -6570002.449    23954099.548    -5109456.7254   23954100.9634         38.500
        26.7504
  -1071082.035    25086044.715     -716490.9614   25086048.9444         37.750
        20.0004
 -25859520.555    20145487.392   -20079302.8034   20145484.6224         52.500
        45.5004
 -19979977.062    21622134.064   -15511875.7924   21622130.8794         45.750
        36.5004
  -8940546.031    23329097.499    -6940196.4564   23329098.0004         41.500
        28.0004
 11  3 11  0 55 59.9990000  0  8G 2G 4G 5G 7G 8G10G13G17
 -17798266.656    20547541.837   -13847420.7154   20547537.1734         51.000
        44.5004
 -22654483.031    20349212.845   -17608052.2624   20349210.7184         53.000
        45.0004
 -12284973.621    21967209.630    -9520335.3974   21967208.3564         46.750
        38.7504
  -6645898.555    23939657.406    -5168596.3974   23939656.7944         39.500
        26.0004
  -1160631.352    25069003.819     -786269.4164   25069007.7184         38.000
        20.0004
 -25852070.035    20146904.956   -20073497.2144   20146902.1504         52.750
        45.2504
 -19924752.973    21632642.806   -15468844.0724   21632639.8454         45.500
        36.2504
  -8838296.094    23348556.123    -6860521.3494   23348556.1434         43.000
        28.5004
 11  3 11  0 56 29.9990000  0  8G 2G 4G 5G 7G 8G10G13G17
 -17861760.258    20535459.101   -13896896.2504   20535454.5154         49.000
        44.5004
 -22638569.148    20352240.547   -17595651.8184   20352238.4264         52.500
        45.0004
 -12350178.977    21954801.739    -9571144.7374   21954799.9994         44.250
        39.2504
  -6721575.203    23925257.187    -5227565.1114   23925255.8604         41.250
        26.5004
  -1250266.188    25051947.074     -856114.3624   25051950.4854         40.500
        20.5004
 -25844318.270    20148380.117   -20067456.8934   20148377.4764         52.000
        45.2504
 -19869040.395    21643244.275   -15425431.7074   21643242.5154         45.250
        36.7504
  -8735925.730    23368036.735    -6780752.4284   23368037.3634         44.000
        29.7504
 11  3 11  0 56 59.9990000  0  8G 2G 4G 5G 7G 8G10G13G17
 -17924987.633    20523427.727   -13946164.3534   20523422.9944         50.750
        44.5004
 -22622298.891    20355337.067   -17582973.6864   20355334.7094         53.000
        44.7504
 -12415158.602    21942436.106    -9621778.1854   21942435.0814         45.500
        39.2504
  -6797030.938    23910897.797    -5286361.5894   23910897.2884         40.500
        26.0004
  -1339985.230    25034873.394     -926025.1254   25034876.0124         39.000
        20.0004
 -25836268.391    20149912.066   -20061184.2844   20149909.3514         53.000
        45.5004
 -19812843.676    21653938.319   -15381642.1004   21653936.2994         46.500
        36.5004
  -8633439.121    23387539.047    -6700892.8744   23387540.5674         43.250
        29.7504
 11  3 11  0 57 29.9990000  0  8G 2G 4G 5G 7G 8G10G13G17
 -17987946.625    20511447.035   -13995223.3194   20511442.6634         48.250
        44.7504
 -22605671.348    20358501.108   -17570017.2214   20358499.1224         52.250
        45.0004
 -12479912.250    21930114.109    -9672235.5544   21930112.8854         44.250
        39.0004
  -6872262.590    23896580.610    -5344983.5334   23896581.0914         40.500
        27.0004
  -1429785.504    25017784.197     -995999.1524   25017785.3694         38.750
        17.7504
 -25827920.969    20151500.490   -20054679.7974   20151497.6864         52.750
        45.7504
 -19756164.973    21664724.417   -15337476.8934   21664721.5654         48.000
        36.5004
  -8530838.855    23407062.247    -6620944.8004   23407064.8794         42.000
        28.5004
 11  3 11  0 57 59.9990000  0  8G 2G 4G 5G 7G 8G10G13G17
 -18050634.957    20499517.533   -14044071.3874   20499513.2394         48.500
        45.0004
 -22588685.785    20361733.637   -17556781.7634   20361731.2414         53.000
        44.7504
 -12544439.906    21917835.093    -9722516.8154   21917833.4724         44.750
        38.5004
  -6947266.785    23882308.203    -5403428.1574   23882309.5844         41.000
        28.2504
  -1519664.320    25000681.006    -1066034.3284   25000683.3074         36.750
        17.7504
 -25819277.043    20153145.296   -20047944.2724   20153142.5934         52.250
        45.7504
 -19699006.289    21675601.496   -15292937.6864   21675598.7734         47.750
        36.5004
  -8428127.328    23426608.941    -6540909.9754   23426608.8144         43.250
        28.0004
 11  3 11  0 58 29.9990000  0  8G 2G 4G 5G 7G 8G10G13G17
 -18113049.742    20487640.780   -14092706.2904   20487636.1844         50.750
        44.7504
 -22571340.887    20365034.149   -17543266.3044   20365031.9554         53.500
        44.7504
 -12608740.871    21905599.196    -9772621.4354   21905597.4034         48.500
        39.0004
  -7022039.629    23868079.820    -5461692.5604   23868080.4144         41.250
        28.5004
  -1609617.730    24983561.262    -1136127.5594   24983565.3164         34.250
        17.7504
 -25810336.750    20154846.770   -20040977.8104   20154843.8414         53.000
        45.2504
 -19641369.098    21686569.523   -15248025.6284   21686566.5514         47.250
        36.5004
  -8325306.434    23446174.832    -6460789.9524   23446175.6614         43.500
        28.0004
 11  3 11  0 58 59.9990000  0  8G 2G 4G 5G 7G 8G10G13G17
 -18175186.406    20475816.525   -14141124.4924   20475811.7284         52.250
        45.0004
 -22553633.902    20368403.683   -17529468.6544   20368401.7304         53.000
        44.7504
 -12672812.734    21893406.564    -9822547.5314   21893404.7624         49.000
        39.0004
  -7096575.469    23853895.226    -5519772.2794   23853896.5034         41.500
        28.7504
  -1699640.301    24966432.354    -1206274.7504   24966434.4094         36.250
        19.2504
 -25801099.082    20156604.550   -20033779.6474   20156602.0854         53.000
        45.0004
 -19583253.395    21697628.444   -15202740.6804   21697626.0594         47.750
        36.0004
  -8222376.410    23465762.343    -6380584.9094   23465762.0344         43.250
        28.2504
 11  3 11  0 59 29.9990000  0  8G 2G 4G 5G 7G 8G10G13G17
 -18237041.078    20464045.992   -14189322.9444   20464041.2494         50.500
        45.0004
 -22535562.633    20371842.426   -17515387.1914   20371840.2974         52.750
        44.7504
 -12736653.887    21881258.049    -9872293.8584   21881256.3504         49.000
        39.5004
  -7170869.672    23839758.339    -5577663.7134   23839758.1694         43.000
        28.0004
  -1789727.551    24949288.961    -1276472.3844   24949292.5224         37.250
        22.2504
 -25791563.059    20158419.094   -20026349.0104   20158416.5094         52.500
        45.5004
 -19524659.910    21708778.178   -15157083.4654   21708776.2024         46.500
        36.5004
  -8119338.391    23485370.261    -6300295.7374   23485369.8984         44.250
        29.7504
                            4  1
RINEX FILE SPLICE; other post-header comments skipped       COMMENT
 11  3 11  1  0  0.0000000  0  8G 2G 4G 5G 7G 8G10G13G17
 -18298612.992    20752121.397   -14237301.0684   20752117.1604         50.500
        44.5004
 -22517127.617    20675143.141   -17501022.2814   20675140.9684         52.750
        44.7504
 -12800265.688    22168945.592    -9921861.4644   22168943.5644         49.000
        39.2504
  -7244920.543    24125459.285    -5635365.5254   24125458.5504         44.000
        27.5004
  -1879878.133    25231926.215    -1346719.3294   25231930.1104         37.000
        21.7504
 -25781731.199    20460082.574   -20018687.8244   20460079.5254         52.750
        45.2504
 -19465592.371    22019811.128   -15111056.8504   22019808.2214         47.000
        36.2504
  -8016196.250    23804789.489    -6219925.4254   23804790.5594         43.250
        27.7504
 11  3 11  1  0 30.0000000  0  8G 2G 4G 5G 7G 8G10G13G17
 -18359903.781    20740458.201   -14285060.1424   20740453.7804         51.000
        45.0004
 -22498332.262    20678719.879   -17486376.5804   20678717.8394         53.000
        45.0004
 -12863651.602    22156883.559    -9971253.0564   22156881.8134         49.500
        39.2504
  -7318728.445    24111413.991    -5692878.0274   24111412.7914         43.000
        25.7504
  -1970092.746    25214758.793    -1417016.2144   25214762.2494         36.250
        21.5004
 -25771608.008    20462009.049   -20010799.6304   20462006.3534         52.250
        45.0004
 -19406056.781    22031140.522   -15064665.5104   22031137.6264         46.250
        35.2504
  -7912955.973    23824436.034    -6139478.6864   23824436.6254         43.750
        26.2504
 11  3 11  1  1  0.0000000  0  8G 2G 4G 5G 7G 8G10G13G17
 -18420912.148    20728849.106   -14332599.1504   20728844.3934         50.500
        45.5004
 -22479177.191    20682364.903   -17471450.6074   20682362.5244         52.000
        44.7504
 -12926813.051    22144864.111   -10020469.7544   22144862.0754         49.750
        39.0004
  -7392291.367    24097414.174    -5750199.7034   24097414.7214         41.750
        27.0004
  -2060369.992    25197578.470    -1487361.8864   25197582.9984         36.000
        19.0004
 -25761195.754    20463990.223   -20002686.2004   20463987.7694         52.250
        45.2504
 -19346056.809    22042557.807   -15017912.3154   22042555.4724         45.750
        35.5004
  -7809621.754    23844099.477    -6058958.7064   23844100.5404         42.500
        27.0004
 11  3 11  1  1 30.0000000  0  8G 2G 4G 5G 7G 8G10G13G17
 -18481636.730    20717293.195   -14379917.0174   20717288.5884         49.750
        45.5004
 -22459662.367    20686078.184   -17456244.2884   20686076.3814         52.250
        44.7504
 -12989750.527    22132887.652   -10069511.9094   22132886.0314         49.000
        39.2504
  -7465607.230    24083463.341    -5807328.8444   24083463.2864         42.500
        28.5004
  -2150706.918    25180387.863    -1557754.1954   25180392.7074         34.750
        17.7504
 -25750496.121    20466026.566   -19994348.8354   20466023.5354         52.500
        45.0004
 -19285595.203    22054062.842   -14970799.4144   22054060.5724         44.500
        35.5004
  -7706196.105    23863781.242    -5978367.4534   23863781.7964         42.500
        27.5004
 11  3 11  1  2  0.0000000  0  8G 2G 4G 5G 7G 8G10G13G17
 -18542076.602    20705792.154   -14427013.0324   20705787.3264         50.750
        45.0004
 -22439788.383    20689860.379   -17440758.0884   20689858.2384         53.500
        45.0004
 -13052465.234    22120953.301   -10118380.5124   22120951.4164         49.500
        39.7504
  -7538673.434    24069559.893    -5864263.4204   24069558.8104         43.750
        28.0004
  -2241102.062    25163186.412    -1628191.7224   25163190.8574         35.500
        18.5004
 -25739511.527    20468116.839   -19985789.4244   20468114.1144         53.500
        45.0004
 -19224675.480    22065656.243   -14923329.5254   22065653.4154         45.000
        35.5004
  -7602683.262    23883479.543    -5897708.3354   23883481.0854         42.750
        28.0004
 11  3 11  1  2 30.0000000  0  9G 2G 4G 5G 7G 8G10G13G17G26
 -18602231.535    20694345.237   -14473887.0214   20694340.8504         49.000
        45.0004
 -22419556.930    20693710.420   -17424993.3404   20693708.5844         54.000
        44.7504
 -13114959.141    22109060.989   -10167077.0274   22109059.5434         45.500
        39.7504
  -7611489.051    24055702.586    -5921002.7374   24055701.4584         45.250
        28.2504
  -2331554.477    25145974.255    -1698674.0884   25145978.5884         33.500
        19.2504
 -25728244.637    20470261.081   -19977010.0594   20470257.9614         54.750
        45.5004
 -19163302.066    22077334.911   -14875506.1294   22077332.3854         44.250
        35.2504
  -7499087.719    23903192.108    -5816984.7124   23903194.7004         42.500
        26.2504
   -310522.8441   24728146.089

 11  3 11  1  3  0.0000000  0  9G 2G 4G 5G 7G 8G10G13G17G26
 -18662099.504    20682952.534   -14520537.4064   20682947.5094         49.750
        45.0004
 -22398967.668    20697628.413   -17408949.7794   20697626.1054         53.500
        44.5004
 -13177232.500    22097211.234   -10215601.7074   22097209.2444         48.000
        39.0004
  -7684051.168    24041894.572    -5977544.6214   24041893.7674         44.000
        27.7504
  -2422061.582    25128751.154    -1769198.9254   25128755.0004         35.000
        20.5004
 -25716696.715    20472458.510   -19968011.6974   20472455.5694         52.500
        45.2504
 -19101477.754    22089099.273   -14827331.3854   22089097.6814         44.000
        36.0004
  -7395412.184    23922922.163    -5736198.8254   23922923.1504         41.500
        27.5004
   -445094.121    24702536.839

 11  3 11  1  3 30.0000000  0  9G 2G 4G 5G 7G 8G10G13G17G26
 -18721679.207    20671615.018   -14566963.1714   20671610.2954         50.250
        45.0004
 -22378020.742    20701614.286   -17392627.5104   20701612.4294         53.000
        44.5004
 -13239286.156    22085402.265   -10263955.1894   22085400.7374         48.750
        38.7504
  -7756357.328    24028134.793    -6033887.0154   24028135.3464         44.250
        29.2504
  -2512620.609    25111518.041    -1839764.3284   25111522.1304         36.500
        22.0004
 -25704869.496    20474708.956   -19958795.7194   20474706.2204         52.500
        45.0004
 -19039205.234    22100949.852   -14778807.3894   22100947.7464         44.750
        35.0004
  -7291660.047    23942664.935    -5655353.2054   23942666.0344         40.750
        25.7504
   -579623.949    24676937.289

 11  3 11  1  4  0.0000000  0  9G 2G 4G 5G 7G 8G10G13G17G26
 -18780966.703    20660332.920   -14613161.2444   20660328.6184         50.250
        45.5004
 -22356714.008    20705668.917   -17376024.8954   20705666.8254         53.000
        44.5004
 -13301118.211    22073635.832   -10312135.9984   22073634.3814         47.750
        39.5004
  -7828402.840    24014425.631    -6090026.3204   24014426.3764         45.500
        31.0004
  -2603227.234    25094276.451    -1910366.7584   25094280.0524         35.000
        21.5004
 -25692762.312    20477012.653   -19949361.5574   20477010.2794         52.000
        45.0004
 -18976485.566    22112885.370   -14729934.9614   22112883.2544         46.250
        35.0004
  -7187832.113    23962423.278    -5574448.5524   23962424.2874         40.500
        27.5004
   -714107.602    24651345.554

 11  3 11  1  4 30.0000000  0  9G 2G 4G 5G 7G 8G10G13G17G26
 -18839961.758    20649106.809   -14659131.4394   20649102.1294         50.250
        45.5004
 -22335049.508    20709791.682   -17359143.5124   20709789.8524         53.000
        44.5004
 -13362731.082    22061911.786   -10360146.0024   22061909.9984         46.250
        39.0004
  -7900186.680    24000764.902    -6145961.7034   24000765.0014         43.750
        30.5004
  -2693880.848    25077024.126    -1981005.8094   25077029.5494         32.500
        18.5004
 -25680378.480    20479369.557   -19939711.8434   20479366.9084         52.750
        45.0004
 -18913323.289    22124904.515   -14680717.6404   22124902.2884         46.250
        35.2504
  -7083933.145    23982195.077    -5493488.5574   23982195.2064         39.750
        25.2504
   -848544.727    24625762.483

 11  3 11  1  5  0.0000000  0  9G 2G 4G 5G 7G 8G10G13G17G26
 -18898661.852    20637936.495   -14704871.7774   20637932.0594         48.000
        45.5004
 -22313025.812    20713982.507   -17341982.2284   20713980.3744         52.000
        44.5004
 -13424124.191    22050228.855   -10407984.7584   22050227.1314         49.000
        39.2504
  -7971705.328    23987154.929    -6201690.4684   23987155.1744         41.500
        27.0004
  -2784577.562    25059765.489    -2051678.3764   25059769.8764         33.750
        18.2504
 -25667718.258    20481778.398   -19929846.7534   20481775.9754         52.500
        45.0004
 -18849720.246    22137008.037   -14631156.8744   22137005.9224         46.500
        35.5004
  -6979965.223    24001979.338    -5412474.8144   24001980.8294         40.250
        24.7504
   -982932.230    24600189.237

 11  3 11  1  5 30.0000000  0  9G 2G 4G 5G 7G 8G10G13G17G26
 -18957064.008    20626822.877   -14750379.9774   20626818.1514         50.000
        45.5004
 -22290641.945    20718242.197   -17324540.3114   20718240.1654         52.500
        44.5004
 -13485296.793    22038588.518   -10455651.7204   22038586.3164         48.250
        39.7504
  -8042954.555    23973596.814    -6257209.2744   23973596.8534         42.500
        28.5004
  -2875313.758    25042498.985    -2122381.8124   25042502.1084         34.250
        17.7504
 -25654781.836    20484240.345   -19919766.4524   20484238.1184         52.000
        45.2504
 -18785678.180    22149194.644   -14581254.0084   22149192.1634         46.000
        35.0004
  -6875930.102    24021776.580    -5331408.7334   24021778.0874         39.500
        26.2504
  -1117266.230    24574626.341     -705543.7295   24574627.5814         37.750
        18.2505
 11  3 11  1  6  0.0000000  0  9G 2G 4G 5G 7G 8G10G13G17G26
 -19015165.840    20615766.022   -14795654.1494   20615762.1524         50.500
        45.5004
 -22267896.855    20722570.365   -17306816.8924   20722568.3884         52.500
        44.2504
 -13546248.562    22026989.303   -10503146.5744   22026987.5354         48.000
        39.7504
  -8113931.172    23960090.213    -6312515.6464   23960090.3684         41.750
        28.5004
  -2966085.938    25025226.573    -2193113.3394   25025227.3674         37.750
        19.5004
 -25641570.164    20486754.358   -19909471.6644   20486752.6524         53.000
        45.0004
 -18721199.258    22161464.762   -14531010.7454   22161462.2014         46.500
        34.7504
  -6771829.992    24041586.675    -5250292.0464   24041588.5034         40.250
        27.5004
  -1251543.676    24549074.539     -810175.3954   24549074.5104         37.750
        19.0004
 11  3 11  1  6 30.0000000  0  9G 2G 4G 5G 7G 8G10G13G17G26
 -19072966.156    20604767.289   -14840693.3704   20604762.6854         52.250
        45.7504
 -22244791.691    20726967.412   -17288812.9264   20726965.4674         53.000
        44.5004
 -13606980.648    22015432.780   -10550470.2574   22015430.6264         48.750
        38.7504
  -8184633.461    23946637.286    -6367608.2864   23946635.8614         43.750
        29.2504
  -3056892.758    25007946.510    -2263871.8844   25007949.0904         38.250
        20.5004
 -25628085.141    20489320.700   -19898963.8654   20489318.3654         53.250
        45.0004
 -18656287.051    22173816.814   -14480429.8814   22173815.2144         47.500
        34.7504
  -6667668.559    24061408.790    -5169127.5184   24061410.0024         41.250
        25.7504
  -1385763.047    24523533.138     -914761.7244   24523534.1734         37.500
        21.7504
 11  3 11  1  7  0.0000000  0  9G 2G 4G 5G 7G 8G10G13G17G26
 -19130463.898    20593825.668   -14885496.8244   20593821.5274         51.500
        45.7504
 -22221326.977    20731432.423   -17270528.7714   20731430.4724         52.250
        44.7504
 -13667494.297    22003917.436   -10597623.7314   22003915.2204         48.500
        39.5004
  -8255059.449    23933235.094    -6422485.6404   23933233.5454         44.500
        28.5004
  -3147732.402    24990660.205    -2334655.9414   24990662.4314         40.000
        21.7504
 -25614329.055    20491938.272   -19888244.8544   20491936.2084         52.500
        45.0004
 -18590945.320    22186251.590   -14429514.2684   22186248.8044         48.500
        34.5004
  -6563449.859    24081240.239    -5087918.3634   24081242.8474         39.500
        27.0004
  -1519922.723    24498003.156    -1019301.5864   24498004.9854         39.250
        22.7504
 11  3 11  1  7 30.0000000  0  9G 2G 4G 5G 7G 8G10G13G17G26
 -19187657.773    20582942.335   -14930063.4834   20582937.4384         49.750
        45.5004
 -22197503.055    20735965.975   -17251964.7124   20735964.0314         52.750
        44.5004
 -13727790.484    21992442.842   -10644607.7564   21992441.1924         47.000
        39.2504
  -8325206.605    23919885.724    -6477145.6834   23919886.1524         42.750
        28.0004
  -3238602.223    24973368.963    -2405463.5014   24973369.4494         39.250
        21.7504
 -25600303.785    20494607.551   -19877316.0864   20494604.6934         53.750
        45.0004
 -18525177.160    22198766.526   -14378266.4064   22198764.5794         46.500
        34.2504
  -6459176.938    24101083.402    -5006667.0214   24101086.0864         40.500
        22.5004
  -1654020.734    24472485.429    -1123793.4574   24472486.7904         39.500
        23.5004
 11  3 11  1  8  0.0000000  0  9G 2G 4G 5G 7G 8G10G13G17G26
 -19244541.203    20572117.939   -14974388.2504   20572113.1704         49.000
        45.5004
 -22173315.098    20740568.943   -17233116.9864   20740567.2874         52.500
        44.7504
 -13787864.398    21981011.605   -10691418.5884   21981009.7824         48.000
        39.5004
  -8395067.434    23906592.099    -6531582.6234   23906591.3034         42.500
        27.7504
  -3329494.570    24956073.078    -2476288.5544   24956073.4794         38.250
        22.2504
 -25586005.723    20497328.122   -19866174.7624   20497325.6704         52.250
        45.0004
 -18458980.680    22211363.126   -14326684.7884   22211360.8904         47.000
        34.0004
  -6354847.793    24120936.573    -4925371.8474   24120939.4844         38.750
        25.0004
  -1788049.590    24446980.255    -1228231.4524   24446981.4434         39.500
        23.0004
 11  3 11  1  8 30.0000000  0  9G 2G 4G 5G 7G 8G10G13G17G26
 -19301107.609    20561353.615   -15018465.9784   20561349.0104         49.500
        45.7504
 -22148758.184    20745242.129   -17213981.7324   20745240.1384         52.500
        44.5004
 -13847711.926    21969623.034   -10738052.9964   21969620.7904         48.250
        40.0004
  -8464634.680    23893354.179    -6585790.8214   23893353.4074         44.500
        29.5004
  -3420402.207    24938772.539    -2547125.4284   24938774.0154         38.000
        21.0004
 -25571431.570    20500101.480   -19854818.2974   20500099.1184         52.500
        45.0004
 -18392353.613    22224042.126   -14274767.7014   22224039.7434         47.250
        34.5004
  -6250460.895    24140801.377    -4844031.6844   24140802.9344         40.500
        26.0004
  -1922002.438    24421489.877    -1332610.2144   24421491.5824         39.500
        22.7504
 11  3 11  1  9  0.0000000  0  9G 2G 4G 5G 7G 8G10G13G17G26
 -19357357.992    20550649.776   -15062297.4514   20550644.8374         50.750
        46.0004
 -22123835.562    20749984.292   -17194561.5374   20749982.5714         52.250
        44.5004
 -13907336.961    21958276.666   -10784514.0464   21958274.5164         46.250
        39.5004
  -8533908.391    23880171.755    -6639770.2054   23880171.8874         44.250
        30.7504
  -3511325.957    24921470.020    -2617974.9504   24921471.7774         40.000
        21.0004
 -25556585.777    20502926.705   -19843250.1634   20502924.1004         52.500
        45.0004
 -18325302.469    22236801.352   -14222520.0874   22236799.4804         47.750
        35.0004
  -6146021.965    24160675.595    -4762650.9964   24160676.8184         40.000
        27.7504
  -2055879.664    24396013.660    -1436930.0584   24396015.2744         38.250
        21.7504
 11  3 11  1  9 30.0000000  0  9G 2G 4G 5G 7G 8G10G13G17G26
 -19413291.770    20540005.625   -15105882.2244   20540001.0514         50.500
        46.0004
 -22098548.371    20754796.858   -17174857.2384   20754794.8414         52.750
        44.2504
 -13966740.754    21946972.063   -10830802.7034   21946970.7004         47.500
        40.0004
  -8602887.367    23867045.071    -6693519.9664   23867045.2364         43.500
        29.5004
  -3602263.941    24904165.139    -2688835.6474   24904166.1994         40.500
        20.0004
 -25541470.980    20505802.905   -19831472.4034   20505800.3194         52.000
        45.0004
 -18257831.156    22249640.895   -14169945.1024   22249638.9114         47.000
        34.5004
  -6041535.273    24180558.802    -4681233.1114   24180560.7384         39.000
        25.2504
  -2189680.363    24370551.394    -1541190.3104   24370553.4174         39.000
        21.2504
 11  3 11  1 10  0.0000000  0  9G 2G 4G 5G 7G 8G10G13G17G26
 -19468909.688    20529422.029   -15149220.8844   20529417.1614         52.500
        46.0004
 -22072898.836    20759677.514   -17154870.5984   20759675.7354         52.000
        44.5004
 -14025925.863    21935709.398   -10876920.9464   21935708.0174         47.750
        39.2504
  -8671571.227    23853974.882    -6747039.7824   23853974.4084         42.750
        28.7504
  -3693215.820    24886857.803    -2759707.1334   24886857.6734         38.500
        19.2504
 -25526090.508    20508729.433   -19819487.6264   20508726.8264         52.500
        45.0004
 -18189944.680    22262559.921   -14117046.6174   22262556.6974         48.000
        34.2504
  -5937005.824    24200449.707    -4599781.8774   24200451.5484         36.500
        22.5004
  -2323403.992    24345105.479    -1645390.5084   24345105.8934         38.000
        22.2504
 11  3 11  1 10 30.0000000  0  9G 2G 4G 5G 7G 8G10G13G17G26
 -19524210.270    20518898.771   -15192312.2674   20518893.9684         51.250
        46.0004
 -22046887.508    20764627.172   -17134602.0554   20764625.3414         52.000
        44.2504
 -14084893.254    21924488.653   -10922869.5544   21924486.6124         46.250
        40.2504
  -8739957.605    23840961.742    -6800327.7794   23840961.7314         44.000
        29.5004
  -3784179.047    24869547.056    -2830587.3214   24869549.5174         38.750
        20.5004
 -25510446.371    20511706.676   -19807297.4104   20511703.9244         52.500
        45.0004
 -18121646.406    22275555.788   -14063827.2384   22275553.2594         47.250
        33.7504
  -5832436.883    24220349.225    -4518299.9114   24220351.5344         39.000
        26.0004
  -2457048.531    24319673.699    -1749528.9994   24319675.0444         39.000
        24.5004
 11  3 11  1 11  0.0000000  0  9G 2G 4G 5G 7G 8G10G13G17G26
 -19579192.332    20508435.842   -15235155.4454   20508430.9804         52.000
        46.2504
 -22020515.012    20769645.867   -17114052.0874   20769643.8884         52.500
        44.2504
 -14143644.234    21913308.224   -10968649.5134   21913306.7244         49.000
        39.5004
  -8808044.695    23828005.239    -6853382.5604   23828004.4764         44.500
        30.0004
  -3875152.309    24852236.419    -2901475.5324   24852238.3494         37.500
        20.0004
 -25494540.562    20514733.284   -19794903.2964   20514731.1184         52.750
        45.0004
 -18052939.828    22288630.345   -14010289.7014   22288628.3324         47.000
        34.0004
  -5727832.457    24240255.147    -4436790.3274   24240258.0234         40.000
        27.0004
  -2590612.352    24294258.403    -1853604.7524   24294257.8674         38.750
        22.5004
 11  3 11  1 11 30.0000000  0  9G 2G 4G 5G 7G 8G10G13G17G26
 -19633853.473    20498034.034   -15277748.5474   20498029.5954         52.500
        45.7504
 -21993780.957    20774733.430   -17093220.4024   20774731.3454         52.000
        44.2504
 -14202178.602    21902169.960   -11014260.6884   21902168.1284         46.750
        40.5004
  -8875829.176    23815106.165    -6906201.5174   23815104.9574         44.250
        30.7504
  -3966132.262    24834921.277    -2972368.7614   24834926.4114         34.250
        20.5004
 -25478374.027    20517809.839   -19782306.0044   20517807.2364         52.500
        44.7504
 -17983827.617    22301782.469   -13956436.1144   22301780.2554         48.500
        34.0004
  -5623194.699    24260167.254    -4355254.7144   24260170.5874         39.500
        22.5004
  -2724092.723    24268856.526    -1957615.3544   24268857.6134         39.000
        21.7504
 11  3 11  1 12  0.0000000  0  9G 2G 4G 5G 7G 8G10G13G17G26
 -19688192.371    20487693.987   -15320090.5484   20487689.2834         52.750
        46.2504
 -21966685.754    20779889.287   -17072107.2974   20779887.1234         52.500
        44.0004
 -14260497.066    21891072.635   -11059703.6244   21891070.5184         48.000
        40.7504
  -8943308.879    23802264.344    -6958782.9614   23802264.1174         43.750
        28.5004
  -4057116.707    24817608.092    -3043265.4354   24817612.2884         37.000
        21.2504
 -25461948.488    20520935.310   -19769506.8904   20520932.6944         52.750
        45.0004
 -17914313.090    22315010.235   -13902269.0274   22315007.8054         48.000
        33.0004
  -5518527.109    24280085.492    -4273695.8934   24280088.3564         37.000
        20.5004
  -2857487.230    24243471.988    -2061559.0034   24243473.8554         38.500
        22.5004
 11  3 11  1 12 30.0000000  0  9G 2G 4G 5G 7G 8G10G13G17G26
 -19742206.047    20477415.499   -15362179.1384   20477410.9214         51.250
        46.5004
 -21939228.523    20785114.011   -17050712.0774   20785112.4594         52.000
        44.0004
 -14318599.203    21880015.936   -11104978.0024   21880014.1504         47.750
        40.5004
  -9010479.992    23789481.491    -7011124.0374   23789481.0854         44.000
        28.7504
  -4148101.074    24800295.369    -3114162.1584   24800298.6134         39.000
        24.7504
 -25445264.551    20524110.568   -19756506.4394   20524107.7214         53.000
        45.0004
 -17844398.047    22328315.097   -13847789.8434   22328312.7054         47.500
        34.2504
  -5413831.078    24300008.484    -4192114.9924   24300011.3724         33.500
        15.5004
  -2990792.574    24218105.466    -2165433.2334   24218106.1764         39.000
        22.0004
 11  3 11  1 13  0.0000000  0  9G 2G 4G 5G 7G 8G10G13G17G26
 -19795894.121    20467198.831   -15404013.9974   20467194.5294         51.250
        46.2504
 -21911410.207    20790407.743   -17029035.4884   20790405.9654         51.250
        44.0004
 -14376486.527    21869000.291   -11150084.9944   21868998.2954         48.500
        40.5004
  -9077341.348    23776759.088    -7063223.7434   23776758.1914         44.000
        29.0004
  -4239084.363    24782981.756    -3185058.0254   24782984.4734         37.000
        25.0004
 -25428324.070    20527334.063   -19743306.0764   20527331.2854         52.250
        45.0004
 -17774086.590    22341694.327   -13793001.7574   22341692.2274         46.500
        33.2504
  -5309110.926    24319936.589

  -3124007.410    24192756.080    -2269237.0234   24192756.2124         38.500
        22.5004
 11  3 11  1 13 30.0000000  0  9G 2G 4G 5G 7G 8G10G13G17G26
 -19849254.801    20457044.683   -15445593.7614   20457040.0364         52.500
        46.5004
 -21883231.184    20795769.886   -17007077.8434   20795768.1114         50.500
        44.2504
 -14434159.512    21858025.558   -11195024.9504   21858023.7254         48.500
        40.2504
  -9143890.164    23764095.162    -7115079.8504   23764093.8814         44.250
        29.7504
  -4330064.086    24765668.810    -3255951.0804   24765671.7034         37.500
        22.2504
 -25411128.637    20530606.060   -19729907.0634   20530603.4594         52.750
        45.0004
 -17703381.512    22355149.631   -13737906.9844   22355147.6504         47.500
        32.5004
  -5204369.5001   24339870.984

  -3257129.383    24167422.414    -2372968.4284   24167423.0934         37.500
        23.2504
 11  3 11  1 14  0.0000000  0  8G 2G 4G 5G 7G 8G10G13G26
 -19902285.680    20446953.471   -15486916.5264   20446948.7844         52.500
        46.5004
 -21854691.055    20801201.336   -16984838.8154   20801199.6784         52.000
        44.0004
 -14491618.270    21847091.557   -11239797.9834   21847089.6234         47.500
        40.5004
  -9210123.547    23751490.985    -7166690.1974   23751489.2374         43.250
        28.7504
  -4421037.125    24748356.385    -3326838.9334   24748359.4014         38.000
        21.2504
 -25393679.039    20533926.848   -19716309.9804   20533924.0084         52.750
        44.5004
 -17632285.625    22368678.963   -13682507.6494   22368676.7834         47.250
        33.2504
  -3390155.773    24142108.589    -2476625.1624   24142109.6904         38.250
        22.7504
 11  3 11  1 14 30.0000000  0  8G 2G 4G 5G 7G 8G10G13G26
 -19954993.410    20436923.309   -15527987.4934   20436918.5674         52.500
        46.2504
 -21825798.344    20806699.587   -16962325.0534   20806697.5254         52.000
        44.2504
 -14548871.605    21836196.420   -11284410.9484   21836194.5294         48.000
        40.5004
  -9276047.258    23738946.397    -7218059.2664   23738945.0544         44.000
        29.5004
  -4512009.047    24731044.481    -3397725.9214   24731048.2744         37.000
        20.0004
 -25375985.383    20537293.760   -19702522.7324   20537291.2574         53.000
        44.7504
 -17560810.160    22382280.856   -13626812.5444   22382277.9264         48.000
        33.5004
  -3523092.531    24116811.948    -2580212.1834   24116812.3814         37.500
        24.0004
 11  3 11  1 15  0.0000000  0  8G 2G 4G 5G 7G 8G10G13G26
 -20007372.207    20426955.899   -15568802.1444   20426951.3924         52.500
        46.7504
 -21796548.840    20812265.321   -16939533.2364   20812263.4934         52.250
        44.0004
 -14605915.844    21825341.195   -11328860.9894   21825339.3184         48.750
        40.5004
  -9341654.492    23726461.800    -7269181.7004   23726461.3014         43.250
        29.5004
  -4602973.191    24713733.487    -3468606.7814   24713737.7384         36.000
        20.5004
 -25358044.949    20540707.447   -19688543.1944   20540705.0544         53.500
        44.7504
 -17488953.992    22395954.324   -13570820.7924   22395951.7694         47.750
        33.0004
  -3655932.820    24091532.992    -2683724.0104   24091534.0104         39.250
        24.7504
 11  3 11  1 15 30.0000000  0  8G 2G 4G 5G 7G 8G10G13G26
 -20059415.590    20417052.386   -15609355.4434   20417047.8334         53.000
        46.7504
 -21766938.391    20817899.764   -16916460.1894   20817898.0664         50.000
        44.0004
 -14662746.887    21814526.356   -11373144.8854   21814524.7794         47.250
        40.0004
  -9406938.398    23714038.692    -7320052.1694   23714038.6504         44.000
        31.0004
  -4693922.273    24696427.770    -3539475.9324   24696430.3114         38.250
        21.2504
 -25339854.391    20544169.440   -19674368.7434   20544166.7894         53.000
        44.7504
 -17416715.461    22409700.169   -13514531.0764   22409698.4094         47.500
        32.5004
  -3788670.055    24066274.118    -2787155.5724   24066274.7364         41.000
        22.7504
 11  3 11  1 16  0.0000000  0  8G 2G 4G 5G 7G 8G10G13G26
 -20111120.488    20407213.214   -15649644.9834   20407208.8094         53.250
        46.7504
 -21736965.465    20823603.419   -16893104.6924   20823602.0224         49.750
        44.2504
 -14719363.766    21803752.619   -11417261.9334   21803750.7814         47.750
        40.2504
  -9471894.594    23701677.636    -7370667.2834   23701677.0904         44.500
        31.2504
  -4784852.035    24679124.138    -3610330.0394   24679126.0114         37.500
        22.7504
 -25321413.320    20547678.508   -19659999.0794   20547676.0334         53.000
        44.7504
 -17344096.074    22423519.499   -13457944.6214   22423516.9634         47.250
        33.2504
  -3921300.078    24041035.021    -2890503.5424   24041035.9764         39.000
        24.7504
 11  3 11  1 16 30.0000000  0  8G 2G 4G 5G 7G 8G10G13G26
 -20162482.867    20397439.349   -15689667.6284   20397434.9654         52.500
        46.7504
 -21706628.258    20829376.942   -16869465.3474   20829374.7754         50.750
        44.0004
 -14775765.234    21793019.813   -11461211.1124   21793017.9384         48.250
        40.5004
  -9536518.824    23689380.300    -7421023.7444   23689378.7954         44.000
        31.0004
  -4875757.996    24661824.799    -3681165.6054   24661827.1304         37.500
        25.2504
 -25302721.547    20551235.739   -19645434.0814   20551232.8644         52.500
        45.0004
 -17271097.039    22437410.744   -13401062.3244   22437408.9194         46.750
        32.7504
  -4053818.426    24015818.301    -2993764.5364   24015819.6794         38.500
        23.2504
 11  3 11  1 17  0.0000000  0  8G 2G 4G 5G 7G 8G10G13G26
 -20213503.219    20387730.448   -15729423.7484   20387726.2104         52.500
        46.7504
 -21675929.047    20835218.628   -16845543.9214   20835216.7584         50.500
        43.7504
 -14831953.316    21782327.665   -11504993.9984   21782325.6314         49.500
        40.2504
  -9600810.566    23677145.588    -7471121.1914   23677144.7754         43.250
        30.0004
  -4966639.363    24644530.671    -3751981.9874   24644531.7074         36.250
        22.7504
 -25283782.410    20554839.743   -19630676.3324   20554837.0384         51.750
        45.0004
 -17197723.246    22451373.817   -13343887.9784   22451371.2674         47.750
        32.5004
  -4186224.836    23990621.773    -3096938.2594   23990623.1104         39.500
        26.0004
 11  3 11  1 17 30.0000000  0  8G 2G 4G 5G 7G 8G10G13G26
 -20264177.008    20378087.670   -15768909.8464   20378082.7314         53.250
        46.7504
 -21644865.598    20841129.536   -16821338.6644   20841128.1494         50.250
        44.0004
 -14887926.090    21771676.449   -11548609.1264   21771674.3804         48.000
        40.5004
  -9664764.438    23664975.777    -7520955.2974   23664975.0424         43.250
        29.0004
  -5057490.465    24627241.577    -3822774.8254   24627243.2064         37.250
        21.5004
 -25264594.449    20558490.802   -19615724.6824   20558488.2424         52.750
        44.7504
 -17123975.039    22465407.382   -13286421.9134   22465405.5314         47.000
        33.5004
  -4318514.188    23965447.338    -3200020.7744   23965449.2644         40.250
        25.7504
 11  3 11  1 18  0.0000000  0  8G 2G 4G 5G 7G 8G10G13G26
 -20314503.008    20368511.059   -15808124.9294   20368506.2574         53.000
        46.7504
 -21613438.414    20847110.275   -16796850.0004   20847108.4874         51.000
        44.0004
 -14943684.730    21761065.409   -11592057.3974   21761063.9724         50.000
        40.5004
  -9728378.883    23652869.721    -7570524.9274   23652869.2604         43.000
        30.5004
  -5148309.621    24609959.317    -3893542.7104   24609960.3084         38.000
        20.0004
 -25245159.617    20562189.226   -19600580.6764   20562186.6364         52.000
        45.0004
 -17049856.289    22479512.293   -13228667.1024   22479509.7784         47.500
        32.5004
  -4450684.688    23940297.012    -3303010.6934   23940297.6334         40.500
        25.7504
 11  3 11  1 18 30.0000000  0  8G 2G 4G 5G 7G 8G10G13G26
 -20364479.488    20359000.674   -15847067.6504   20358996.1794         53.000
        46.5004
 -21581647.695    20853159.751   -16772078.0584   20853158.5854         50.000
        44.0004
 -14999229.562    21750496.248   -11635339.0554   21750494.2544         49.000
        40.5004
  -9791650.992    23640829.661    -7619827.8374   23640829.1024         43.250
        30.5004
  -5239093.715    24592682.654    -3964283.3244   24592684.7024         38.500
        21.0004
 -25225479.055    20565934.389   -19585245.1884   20565931.8574         52.000
        44.7504
 -16975369.520    22493686.194   -13170625.5264   22493683.7554         47.500
        32.0004
  -4582733.805    23915168.084    -3405906.0034   23915169.2654         40.000
        23.7504
 11  3 11  1 19  0.0000000  0  8G 2G 4G 5G 7G 8G10G13G26
 -20414105.902    20349557.203   -15885737.5954   20349552.5004         53.000
        46.7504
 -21549494.711    20859278.198   -16747023.8124   20859276.5534         48.750
        43.7504
 -15054562.504    21739966.759   -11678455.5984   21739964.6424         48.750
        40.5004
  -9854579.707    23628854.720    -7668863.1634   23628853.6094         44.000
        31.0004
  -5329841.777    24575414.237    -4034995.9374   24575415.0834         39.000
        21.0004
 -25205555.574    20569725.549   -19569720.4134   20569723.0014         51.750
        44.7504
 -16900518.984    22507930.030   -13112300.5084   22507927.8464         46.750
        32.5004
  -4714660.527    23890063.111    -3508705.9654   23890063.6924         39.000
        22.2504
 11  3 11  1 19 30.0000000  0  8G 2G 4G 5G 7G 8G10G13G26
 -20463378.316    20340181.005   -15924131.7064   20340176.1864         52.750
        47.0004
 -21516977.562    20865466.399   -16721685.8404   20865464.8964         49.000
        43.2504
 -15109681.211    21729477.437   -11721405.2144   21729476.0374         49.250
        40.2504
  -9917160.465    23616945.702    -7717627.3084   23616944.7994         44.500
        30.2504
  -5420548.262    24558153.949    -4105676.0714   24558153.8864         40.000
        23.0004
 -25185388.223    20573563.616   -19554005.6184   20573560.7244         52.750
        44.7504
 -16825306.016    22522242.469   -13053693.0534   22522240.0084         46.500
        33.0004
  -4846459.855    23864982.209    -3611406.6524   23864982.9094         40.000
        22.5004
 11  3 11  1 20  0.0000000  0  8G 2G 4G 5G 7G 8G10G13G26
 -20512295.590    20330872.475   -15962249.0784   20330867.8714         53.250
        47.0004
 -21484097.070    20871723.136   -16696064.7024   20871721.7314         49.250
        43.5004
 -15164587.461    21719029.280   -11764189.2904   21719027.5724         49.000
        41.0004
  -9979391.168    23605103.938    -7766118.6764   23605102.9134         44.000
        30.7504
  -5511211.336    24540901.209    -4176322.4284   24540901.7254         41.000
        22.7504
 -25164978.957    20577447.481   -19538102.3044   20577444.7694         52.250
        44.7504
 -16749733.863    22536623.698   -12994805.7464   22536621.3574         46.750
        32.5004
  -4978129.980    23839927.090    -3714006.6984   23839926.7844         42.000
        26.0004
 11  3 11  1 20 30.0000000  0  8G 2G 4G 5G 7G 8G10G13G26
 -20560854.070    20321631.842   -16000086.8744   20321627.5514         53.000
        47.0004
 -21450851.633    20878049.344   -16670159.2074   20878048.0604         49.000
        43.5004
 -15219279.496    21708621.891   -11806806.4334   21708620.0364         48.000
        40.7504
 -10041267.496    23593328.941    -7814333.9654   23593328.0494         43.000
        31.0004
  -5601826.191    24523657.880    -4246931.1734   24523658.2764         39.750
        24.0004
 -25144327.332    20581377.020   -19522010.1474   20581374.5164         51.750
        44.5004
 -16673803.988    22551072.265   -12935639.6744   22551070.2014         45.750
        31.0004
  -5109666.891    23814896.251    -3816502.8944   23814896.4444         42.500
        25.2504
 11  3 11  1 21  0.0000000  0  8G 2G 4G 5G 7G 8G10G13G26
 -20609053.117    20312460.105   -16037644.5984   20312455.7094         53.000
        47.0004
 -21417242.715    20884444.911   -16643970.4344   20884443.4734         50.250
        43.2504
 -15273758.965    21698254.702   -11849257.9454   21698253.1224         48.500
        41.0004
 -10102788.121    23581621.597    -7862272.0574   23581620.4154         44.250
        28.5004
  -5692391.785    24506422.217    -4317501.5484   24506423.8944         37.750
        22.2504
 -25123435.387    20585352.789   -19505730.7244   20585350.1754         52.500
        44.5004
 -16597520.293    22565588.543   -12876197.8934   22565587.0344         45.750
        32.0004
  -5241069.219    23789890.923    -3918894.2304   23789891.7294         41.500
        25.0004
 11  3 11  1 21 30.0000000  0  8G 2G 4G 5G 7G 8G10G13G26
 -20656890.695    20303356.684   -16074920.6604   20303352.1264         52.750
        47.0004
 -21383270.188    20890909.784   -16617498.3814   20890908.2484         51.000
        43.5004
 -15328026.391    21687927.680   -11891544.2224   21687926.1774         48.500
        40.5004
 -10163950.602    23569983.565    -7909931.0794   23569982.2734         43.500
        32.0004
  -5782904.641    24489199.987    -4388030.8584   24489199.5524         39.500
        22.2504
 -25102304.512    20589373.730   -19489265.1324   20589371.4934         53.000
        44.5004
 -16520885.469    22580172.152   -12816482.5094   22580170.1524         45.750
        32.0004
  -5372334.082    23764911.830    -4021178.4144   23764912.4414         40.750
        25.0004
 11  3 11  1 22  0.0000000  0  8G 2G 4G 5G 7G 8G10G13G26
 -20704363.605    20294322.992   -16111912.5564   20294318.5834         52.750
        47.2504
 -21348932.871    20897444.209   -16590742.0854   20897442.5234         49.500
        43.2504
 -15382080.789    21677641.135   -11933664.5144   21677639.7694         46.000
        40.5004
 -10224750.801    23558413.923    -7957307.8244   23558412.1454         45.000
        32.0004
  -5873360.340    24471986.688    -4458515.6844   24471986.1364         37.500
        22.2504
 -25080934.555    20593440.101   -19472613.2484   20593438.2184         52.000
        44.5004
 -16443901.246    22594821.755   -12756494.8684   22594818.9934         45.750
        31.0004
  -5503457.805    23739960.359    -4123352.7274   23739961.2814         41.500
        27.5004
 11  3 11  1 22 30.0000000  0  8G 2G 4G 5G 7G 8G10G13G26
 -20751472.172    20285358.356   -16148620.5664   20285354.1134         53.250
        47.2504
 -21314233.117    20904047.529   -16563703.3494   20904045.7204         50.500
        43.7504
 -15435924.719    21667395.198   -11975620.8014   21667393.5534         48.250
        40.2504
 -10285188.531    23546912.644    -8004402.1344   23546911.2094         44.000
        32.0004
  -5963758.812    24454783.574    -4528955.8904   24454782.7204         40.000
        22.2504
 -25059328.824    20597551.676   -19455777.6194   20597549.4564         51.500
        45.0004
 -16366572.605    22609536.801   -12696238.8814   22609535.6124         44.500
        32.0004
  -5634439.934    23715034.712    -4225416.6594   23715035.6384         41.500
        27.0004
 11  3 11  1 23  0.0000000  0  8G 2G 4G 5G 7G 8G10G13G26
 -20798213.336    20276463.935   -16185042.2794   20276459.5454         53.250
        47.5004
 -21279169.758    20910719.642   -16536381.2464   20910718.1824         50.750
        43.2504
 -15489556.422    21657189.400   -12017411.7224   21657187.5414         48.000
        40.7504
 -10345259.684    23535481.588    -8051210.7934   23535480.8244         41.500
        31.7504
  -6054095.555    24437592.981    -4599348.0474   24437592.9514         39.000
        23.0004
 -25037487.164    20601708.052   -19438758.1574   20601705.4394         51.500
        44.5004
 -16288901.109    22624317.443   -12635715.6724   22624315.5194         46.000
        31.5004
  -5765276.422    23690137.434    -4327367.0794   23690137.9064         42.750
        27.5004
 11  3 11  1 23 30.0000000  0  8G 2G 4G 5G 7G 8G10G13G26
 -20844583.879    20267640.026   -16221175.1774   20267635.4814         53.000
        47.2504
 -21243741.676    20917461.318   -16508774.9904   20917459.6774         50.250
        43.0004
 -15542975.656    21647024.227   -12059037.0814   21647022.2984         46.750
        40.5004
 -10404960.730    23524120.579    -8097731.0594   23524119.2204         41.000
        31.2504
  -6144366.215    24420414.349    -4669688.6654   24420415.2564         37.500
        24.5004
 -25015409.645    20605909.522   -19421554.9414   20605907.0754         52.500
        44.5004
 -16210888.539    22639162.278   -12574926.7284   22639161.1194         45.000
        31.5004
  -5895963.660    23665268.514    -4429201.1574   23665268.9404         40.750
        26.5004
 11  3 11  1 24  0.0000000  0  8G 2G 4G 5G 7G 8G10G13G26
 -20890582.535    20258886.857   -16257018.3094   20258882.3694         54.000
        47.5004
 -21207949.777    20924271.975   -16480885.2334   20924270.6794         50.000
        43.2504
 -15596183.531    21636898.627   -12100497.7424   21636897.0804         46.750
        40.5004
 -10464289.562    23512830.270    -8143961.2654   23512829.8184         41.250
        30.7504
  -6234568.465    24403248.705    -4739976.0044   24403250.6784         37.750
        25.0004
 -24993098.242    20610155.282   -19404169.4434   20610152.6144         52.000
        45.0004
 -16132538.516    22654072.039   -12513874.8074   22654070.6404         45.250
        31.5004
  -6026499.590    23640428.598    -4530917.4224   23640428.8594         42.500
        27.7504
 11  3 11  1 24 30.0000000  0  8G 2G 4G 5G 7G 8G10G13G26
 -20936208.055    20250204.367   -16292570.6794   20250199.9804         53.750
        47.7504
 -21171794.727    20931152.625   -16452712.5044   20931151.0204         49.500
        43.5004
 -15649181.047    21626813.680   -12141794.4854   21626812.4754         46.250
        40.7504
 -10523244.375    23501611.814    -8189900.0674   23501610.9294         41.750
        31.0004
  -6324700.469    24386097.488    -4810208.5664   24386099.5724         37.500
        25.5004
 -24970554.355    20614444.993   -19386602.8094   20614442.6254         52.000
        44.0004
 -16053854.359    22669045.712   -12452562.5974   22669043.5844         46.750
        31.0004
  -6156882.051    23615617.353    -4632514.0364   23615617.0584         42.500
        26.7504
 11  3 11  1 25  0.0000000  0  8G 2G 4G 5G 7G 8G10G13G26
 -20981457.793    20241593.975   -16327830.2274   20241589.3844         53.000
        47.5004
 -21135276.195    20938101.826   -16424256.5464   20938100.2874         51.000
        43.0004
 -15701967.562    21616769.136   -12182926.8104   21616767.4834         49.000
        41.2504
 -10581822.289    23490464.372    -8235545.1214   23490463.2914         43.500
        31.0004
  -6414758.719    24368960.499    -4880383.6984   24368962.1234         37.500
        24.5004
 -24947778.625    20618779.087   -19368855.5134   20618776.7174         52.250
        44.7504
 -15974838.629    22684081.645   -12390991.9344   22684079.4434         45.500
        31.5004
  -6287108.133    23590835.800    -4733988.8234   23590836.0134         42.250
        25.0004
 11  3 11  1 25 30.0000000  0  8G 2G 4G 5G 7G 8G10G13G26
 -21026330.953    20233054.857   -16362796.3374   20233050.2444         52.500
        47.5004
 -21098395.117    20945120.217   -16395518.0584   20945118.7334         50.500
        43.7504
 -15754544.680    21606763.691   -12223895.9744   21606762.0934         48.250
        41.2504
 -10640021.379    23479390.439    -8280895.0494   23479388.8944         42.000
        30.5004
  -6504740.691    24351837.272    -4950499.4184   24351838.4704         37.000
        24.0004
 -24924773.109    20623156.920   -19350929.1584   20623154.5984         52.250
        44.2504
 -15895494.926    22699180.298   -12329165.7584   22699178.4324         45.000
        30.2504
  -6417175.992    23566084.289    -4835340.3144   23566084.7334         41.500
        25.5004
 11  3 11  1 26  0.0000000  0  8G 2G 4G 5G 7G 8G10G13G26
 -21070824.102    20224588.019   -16397466.3274   20224583.5204         53.500
        47.7504
 -21061150.340    20952207.571   -16366496.2024   20952206.2874         51.000
        43.0004
 -15806910.809    21596799.315   -12264700.7234   21596797.3634         49.000
        41.2504
 -10697837.676    23468388.008    -8325946.6704   23468386.3364         43.500
        32.2504
  -6594642.289    24334729.736    -5020552.5314   24334730.1664         40.750
        24.5004
 -24901537.191    20627578.549   -19332823.2744   20627576.0304         51.500
        44.5004
 -15815824.375    22714341.114   -12267084.8644   22714339.8314         45.250
        30.5004
  -6547081.301    23541364.452    -4936565.0984   23541364.5694         43.000
        27.2504
 11  3 11  1 26 30.0000000  0  8G 2G 4G 5G 7G 8G10G13G26
 -21114935.621    20216193.886   -16431838.9554   20216189.4064         53.500
        47.7504
 -21023542.363    20959363.774   -16337191.3374   20959362.7354         51.500
        43.0004
 -15859066.953    21586874.215   -12305341.8684   21586872.1074         49.750
        41.2504
 -10755268.883    23457458.662    -8370698.1874   23457457.2524         42.000
        31.7504
  -6684460.883    24317637.750    -5090541.0354   24317637.6894         38.250
        24.2504
 -24878072.438    20632043.572   -19314539.0664   20632041.2504         51.750
        44.5004
 -15735830.191    22729563.387   -12204751.8214   22729561.7944         45.500
        31.5004
  -6676822.391    23516674.405    -5037661.9304   23516676.2384         42.000
        27.0004
 11  3 11  1 27  0.0000000  0  8G 2G 4G 5G 7G 8G10G13G26
 -21158664.922    20207872.531   -16465913.7674   20207867.8994         53.250
        48.0004
 -20985572.219    20966589.594   -16307604.2634   20966588.0214         52.250
        43.0004
 -15911014.574    21576988.755   -12345820.5124   21576986.9354         50.250
        42.0004
 -10812313.867    23446603.592    -8415148.7984   23446602.1184         43.250
        32.5004
  -6774194.363    24300562.617    -5160463.0964   24300562.5854         39.000
        23.0004
 -24854380.852    20636552.375   -19296078.1224   20636549.9114         52.750
        44.5004
 -15655517.309    22744846.651   -12142170.4244   22744845.1344         45.000
        29.7504
  -6806397.238    23492018.004    -5138629.2054   23492018.7904         43.000
        28.0004
 11  3 11  1 27 30.0000000  0  8G 2G 4G 5G 7G 8G10G13G26
 -21202012.223    20199623.963   -16499690.8924   20199619.6474         52.500
        48.0004
 -20947242.469    20973883.760   -16277736.9754   20973882.2394         52.500
        43.2504
 -15962755.773    21567142.634   -12386138.3174   21567140.6064         50.250
        41.5004
 -10868972.121    23435821.941    -8459298.0464   23435820.7234         44.000
        31.7504
  -6863842.078    24283502.116    -5230318.3404   24283503.4074         37.000
        24.5004
 -24830465.949    20641103.330   -19277443.1654   20641100.7714         53.250
        44.2504
 -15574889.941    22760189.467   -12079343.9944   22760187.8894         45.500
        30.5004
  -6935805.594    23467392.905    -5239466.7534   23467393.5644         44.000
        29.0004
 11  3 11  1 28  0.0000000  0  8G 2G 4G 5G 7G 8G10G13G26
 -21244968.547    20191449.793   -16533163.3504   20191445.2684         53.750
        48.0004
 -20908546.363    20981247.233   -16247584.2054   20981245.8214         51.500
        42.7504
 -16014284.242    21557336.958   -12426290.3574   21557335.0524         49.500
        41.0004
 -10925234.387    23425115.442    -8503138.7054   23425114.5704         45.500
        32.5004
  -6953394.152    24266460.499    -5300099.0784   24266461.9704         39.500
        23.0004
 -24806321.879    20645697.819   -19258629.6274   20645694.9674         52.000
        44.2504
 -15493943.789    22775592.806   -12016269.1564   22775591.2324         45.500
        29.5004
  -7065037.738    23442800.415    -5340166.9854   23442800.4934         43.000
        27.5004
 11  3 11  1 28 30.0000000  0  8G 2G 4G 5G 7G 8G10G13G26
 -21287536.691    20183349.451   -16566333.3424   20183344.7914         53.250
        48.0004
 -20869488.320    20988679.762   -16217149.3444   20988677.8484         50.250
        42.5004
 -16065604.594    21547571.149   -12466280.2304   21547569.2604         49.250
        41.2504
 -10981102.645    23414483.278    -8546672.3674   23414483.9734         44.000
        31.7504
  -7042851.996    24249437.488    -5369806.4384   24249438.1414         39.250
        25.2504
 -24781954.027    20650334.678   -19239641.7334   20650332.2294         52.000
        44.0004
 -15412686.621    22791055.487   -11952951.9434   22791054.2304         45.500
        29.7504
  -7194095.629    23418241.737    -5440731.4654   23418241.5674         43.000
        27.0004
 11  3 11  1 29  0.0000000  0  8G 2G 4G 5G 7G 8G10G13G26
 -21329714.281    20175322.717   -16599199.0114   20175318.8094         53.500
        48.2504
 -20830068.645    20996180.959   -16186432.8044   20996179.5114         51.250
        42.7504
 -16116716.688    21537844.770   -12506107.8244   21537842.9924         49.000
        42.0004
 -11036573.980    23403928.025    -8589896.7304   23403927.3294         44.750
        32.0004
  -7132212.141    24232432.851    -5439437.6564   24232434.0614         41.000
        27.0004
 -24757363.094    20655013.944   -19220479.9774   20655011.4494         51.500
        44.0004
 -15331120.832    22806577.412   -11889394.2584   22806575.4284         45.500
        30.5004
  -7322976.395    23393715.908    -5541157.9224   23393716.0114         43.250
        27.0004
 11  3 11  1 29 30.0000000  0  8G 2G 4G 5G 7G 8G10G13G26
 -21371498.137    20167371.863   -16631757.8784   20167367.4594         53.500
        48.2504
 -20790285.895    21003751.539   -16155433.3204   21003749.9274         50.250
        42.7504
 -16167619.699    21528158.147   -12545772.4884   21528156.4404         48.500
        41.2504
 -11091645.035    23393448.557    -8632809.2084   23393447.0954         45.000
        32.5004
  -7221470.840    24215447.674    -5508989.8304   24215448.9334         41.250
        23.5004
 -24732549.062    20659736.223   -19201144.4114   20659733.4374         52.000
        44.0004
 -15249248.203    22822157.349   -11825597.4804   22822155.2824         44.750
        30.5004
  -7451675.824    23369225.614    -5641443.0094   23369225.2044         44.250
        28.0004
 11  3 11  1 30  0.0000000  0  8G 2G 4G 5G 7G 8G10G13G26
 -21412888.371    20159495.583   -16664010.0344   20159491.2174         53.750
        48.0004
 -20750142.422    21011390.496   -16124152.7644   21011389.1004         50.500
        42.5004
 -16218315.766    21518510.839   -12585275.8994   21518509.2794         48.000
        42.0004
 -11146314.965    23383045.199    -8675409.0914   23383044.0994         44.250
        32.0004
  -7310626.648    24198482.027    -5578461.7914   24198483.2234         40.000
        25.0004
 -24707514.980    20664499.971   -19181637.3544   20664497.4954         52.000
        44.0004
 -15167073.375    22837794.986   -11761565.2494   22837792.8654         44.000
        29.5004
  -7580193.340    23344769.078    -5741586.4194   23344769.4484         42.500
        28.5004
 11  3 11  1 30 30.0000000  0  8G 2G 4G 5G 7G 8G10G13G26
 -21453881.414    20151694.819   -16695952.6614   20151690.2404         53.000
        48.0004
 -20709636.781    21019098.839   -16092589.9674   21019097.1594         49.250
        42.5004
 -16268803.734    21508903.706   -12624617.1524   21508901.7004         48.750
        41.5004
 -11200579.910    23372718.907    -8717693.3994   23372718.1904         44.500
        32.5004
  -7399674.430    24181536.623    -5647849.5874   24181538.0494         40.500
        24.7504
 -24682259.977    20669305.628   -19161958.1674   20669303.1724         51.250
        44.0004
 -15084597.465    22853489.670   -11697298.3734   22853487.6354         44.500
        29.7504
  -7708524.891    23320348.402    -5841584.8844   23320348.8594         43.000
        29.2504
 11  3 11  1 31  0.0000000  0  8G 2G 4G 5G 7G 8G10G13G26
 -21494474.066    20143970.102   -16727583.3054   20143965.8194         52.000
        48.2504
 -20668767.863    21026875.476   -16060744.0914   21026874.2814         50.000
        43.0004
 -16319082.492    21499335.731   -12663795.3844   21499333.8354         48.250
        41.7504
 -11254435.848    23362471.167    -8759659.0194   23362467.9054         45.500
        32.2504
  -7488610.652    24164612.110    -5717150.4794   24164614.0004         40.000
        25.0004
 -24656783.613    20674153.861   -19142106.4864   20674151.3034         52.000
        43.7504
 -15001821.992    22869241.192   -11632798.1304   22869239.1054         44.250
        28.2504
  -7836666.191    23295963.346    -5941435.1114   23295964.1124         40.250
        28.0004
 11  3 11  1 31 30.0000000  0  8G 2G 4G 5G 7G 8G10G13G26
 -21534660.539    20136323.073   -16758897.4374   20136318.5134         53.500
        48.2504
 -20627531.910    21034722.589   -16028612.2194   21034721.2314         49.250
        42.7504
 -16369147.945    21489808.488   -12702807.4064   21489806.7204         47.500
        42.0004
 -11307876.520    23352301.240    -8801301.0614   23352299.3844         45.000
        30.5004
  -7577428.164    24147710.014    -5786358.8344   24147712.3154         41.250
        22.7504
 -24631083.156    20679044.487   -19122080.1884   20679042.3544         51.750
        44.0004
 -14918745.844    22885049.899   -11568063.5374   22885048.3844         43.750
        28.5004
  -7964610.785    23271616.140    -6041132.0654   23271616.5554         41.500
        28.2504
 11  3 11  1 32  0.0000000  0  8G 2G 4G 5G 7G 8G10G13G26
 -21574439.359    20128753.500   -16789893.9394   20128749.0354         53.500
        48.5004
 -20585929.465    21042639.702   -15996194.7844   21042637.9174         50.500
        42.2504
 -16419001.273    21480321.731   -12741654.1394   21480319.9444         48.500
        42.0004
 -11360900.020    23342211.175    -8842618.0374   23342209.8344         46.000
        32.0004
  -7666124.164    24130832.329    -5855472.5554   24130834.1424         41.250
        26.0004
 -24605160.031    20683977.629   -19101880.3674   20683975.0004         51.250
        44.2504
 -14835372.145    22900915.815   -11503097.1154   22900913.8874         44.250
        29.5004
  -8092356.262    23247307.108    -6140673.9194   23247307.4004         41.000
        28.7504
 11  3 11  1 32 30.0000000  0  8G 2G 4G 5G 7G 8G10G13G26
 -21613810.469    20121261.414   -16820572.7294   20121256.9294         53.000
        48.5004
 -20543962.828    21050625.539   -15963493.5524   21050624.2634         50.000
        42.0004
 -16468644.488    21470875.185   -12780337.1514   21470873.1404         49.000
        41.7504
 -11413505.902    23332199.783    -8883609.5844   23332199.4634         44.500
        31.2504
  -7754697.578    24113977.300    -5924490.6744   24113979.5684         40.500
        27.2504
 -24579016.945    20688952.613   -19081509.1444   20688949.9574         51.500
        44.0004
 -14751705.930    22916836.956   -11437902.7224   22916835.7014         45.250
        30.7504
  -8219902.004    23223035.338    -6240060.1074   23223037.0084         40.000
        28.2504
 11  3 11  1 33  0.0000000  0  8G 2G 4G 5G 7G 8G10G13G26
 -21652775.438    20113846.441   -16850935.0594   20113842.0424         53.750
        48.5004
 -20501635.543    21058679.979   -15930511.3264   21058678.7344         50.500
        42.2504
 -16518081.012    21461467.534   -12818859.0924   21461465.8984         49.000
        41.5004
 -11465694.820    23322268.630    -8924276.2574   23322268.3084         42.750
        30.7504
  -7843148.715    24097145.400    -5993413.5914   24097147.1644         39.000
        26.7504
 -24552658.090    20693968.295   -19060969.8084   20693965.8614         50.750
        43.5004
 -14667752.824    22932813.050   -11372484.8304   22932810.9864         43.750
        28.2504
  -8347248.352    23198803.265    -6339290.9444   23198803.8854         41.250
        30.0004
 11  3 11  1 33 30.0000000  0  8G 2G 4G 5G 7G 8G10G13G26
 -21691333.086    20106508.951   -16880979.9904   20106504.6854         52.250
        48.5004
 -20458948.984    21066803.245   -15897249.1414   21066801.5834         51.000
        42.0004
 -16567312.312    21452099.106   -12857221.1284   21452097.5944         49.000
        42.0004
 -11517465.723    23312417.731    -8964617.2084   23312416.2644         45.250
        32.0004
  -7931475.168    24080337.453    -6062239.2714   24080338.6094         38.500
        25.5004
 -24526085.930    20699024.700   -19040264.2544   20699022.5984         50.500
        43.5004
 -14583517.059    22948842.529   -11306846.6654   22948841.6384         44.500
        29.0004
  -8474394.070    23174607.688    -6438365.4344   23174609.2074         40.000
        29.7504
 11  3 11  1 34  0.0000000  0  8G 2G 4G 5G 7G 8G10G13G26
 -21729481.863    20099249.961   -16910706.3064   20099245.0894         52.500
        48.5004
 -20415903.020    21074994.718   -15863706.8414   21074993.1184         52.000
        42.2504
 -16616338.531    21442769.638   -12895423.3614   21442768.2234         49.250
        42.5004
 -11568815.844    23302645.481    -9004630.2504   23302644.5734         42.750
        31.5004
  -8019674.359    24063553.940    -6130965.7834   24063554.1794         39.500
        25.2504
 -24499301.238    20704121.612   -19019393.0774   20704119.4634         50.250
        43.5004
 -14499001.445    22964925.536   -11240990.4074   22964923.7364         43.000
        29.0004
  -8601336.184    23150451.572    -6537281.3084   23150451.7374         40.500
        28.0004
 11  3 11  1 34 30.0000000  0  8G 2G 4G 5G 7G 8G10G13G26
 -21767222.762    20092068.017   -16940114.8214   20092063.4454         52.000
        48.5004
 -20372500.848    21083253.853   -15829886.9954   21083252.5144         52.000
        42.5004
 -16665162.434    21433478.773   -12933467.9464   21433476.8444         49.000
        42.0004
 -11619745.637    23292953.986    -9044315.7844   23292952.7884         44.000
        33.0004
  -8107745.605    24046794.040    -6199592.6424   24046794.1274         39.250
        24.2504
 -24472307.750    20709258.430   -18998359.2264   20709256.4214         51.750
        44.0004
 -14414211.098    22981060.517   -11174920.1734   22981059.0754         43.250
        29.5004
  -8728074.867    23126333.595    -6636038.5944   23126334.0944         40.250
        29.2504
 11  3 11  1 35  0.0000000  0  8G 2G 4G 5G 7G 8G10G13G26
 -21804551.211    20084964.505   -16969201.9464   20084960.1134         52.500
        48.7504
 -20328740.344    21091581.548   -15795787.9474   21091580.0564         52.000
        42.2504
 -16713782.043    21424226.889   -12971353.3414   21424225.0564         51.000
        42.2504
 -11670250.473    23283343.456    -9083670.2134   23283342.2054         46.250
        34.0004
  -8195683.469    24030060.406    -6268115.5444   24030059.7984         39.500
        24.0004
 -24445103.488    20714435.452   -18977161.1354   20714433.4374         51.000
        44.0004
 -14329146.723    22997248.166   -11108636.3434   22997246.6354         44.500
        30.0004
  -8854605.086    23102255.990    -6734633.5154   23102255.8894         40.750
        28.7504
 11  3 11  1 35 30.0000000  0  8G 2G 4G 5G 7G 8G10G13G26
 -21841466.801    20077939.949   -16997967.3484   20077935.3134         53.500
        48.7504
 -20284623.410    21099976.232   -15761411.1974   21099974.8124         51.750
        42.0004
 -16762199.160    21415013.290   -13009080.9524   21415011.3654         50.500
        43.0004
 -11720329.727    23273813.835    -9122692.9704   23273812.3524         46.750
        33.7504
  -8283486.621    24013352.283    -6336533.4814   24013352.1824         40.000
        24.7504
 -24417691.027    20719651.973   -18955800.8004   20719649.4264         51.000
        44.2504
 -14243812.770    23013485.925   -11042142.4204   23013485.1324         42.500
        27.7504
  -8980925.473    23078217.612    -6833064.9394   23078217.6294         40.500
        28.5004
 11  3 11  1 36  0.0000000  0  8G 2G 4G 5G 7G 8G10G13G26
 -21877965.371    20070994.316   -17026407.8064   20070989.6814         52.750
        48.7504
 -20240147.633    21108439.500   -15726754.7694   21108438.3844         52.000
        41.7504
 -16810411.535    21405838.903   -13046649.0194   21405837.0384         50.250
        42.2504
 -11769978.277    23264365.763    -9161380.1454   23264363.6794         46.500
        32.5004
  -8371149.340    23996669.933    -6404841.9724   23996670.6874         40.750
        27.0004
 -24390069.148    20724908.142   -18934277.2984   20724905.8214         51.000
        43.7504
 -14158209.262    23029776.049   -10975438.4784   23029775.0674         40.500
        28.2504
  -9107031.039    23054220.737    -6931328.9104   23054221.2444         40.500
        29.0004
 11  3 11  1 36 30.0000000  0  8G 2G 4G 5G 7G 8G10G13G26
 -21914045.219    20064128.834   -17054521.9894   20064124.3184         53.500
        49.0004
 -20195313.836    21116971.719   -15691819.3744   21116970.1674         51.750
        42.0004
 -16858419.617    21396703.470   -13084057.9024   21396701.2714         49.500
        42.0004
 -11819194.414    23255000.406    -9199730.4054   23254998.5274         41.500
        32.2504
  -8458668.676    23980016.197    -6473038.7654   23980016.5824         41.250
        27.0004
 -24362239.207    20730203.818   -18912591.6544   20730201.7734         52.000
        43.2504
 -14072339.293    23046116.733   -10908526.9234   23046115.2544         40.000
        28.0004
  -9232919.605    23030264.938    -7029423.8384   23030265.4944         41.250
        30.2504
 11  3 11  1 37  0.0000000  0  8G 2G 4G 5G 7G 8G10G13G26
 -21949706.121    20057342.595   -17082309.7314   20057338.6294         53.000
        49.0004
 -20150123.707    21125571.103   -15656606.3324   21125569.5944         52.000
        41.7504
 -16906225.309    21387606.272   -13121309.0824   21387604.0204         49.750
        42.2504
 -11867977.215    23245717.065    -9237742.9694   23245716.8544         42.750
        33.7504
  -8546043.309    23963388.446    -6541122.7814   23963389.9774         39.750
        25.5004
 -24334203.254    20735539.035   -18890745.4714   20735536.6344         50.000
        43.5004
 -13986207.156    23062507.163   -10841411.0554   23062505.7344         40.750
        28.2504
  -9358589.473    23006350.397    -7127348.3334   23006351.2824         41.500
        31.0004
 11  3 11  1 37 30.0000000  0  8G 2G 4G 5G 7G 8G10G13G26
 -21984945.730    20050636.913   -17109769.1874   20050632.0444         52.750
        49.0004
 -20104577.270    21134238.311   -15621115.6814   21134236.8124         52.000
        42.0004
 -16953827.910    21378547.637   -13158402.0094   21378545.6174         51.500
        42.5004
 -11916323.727    23236517.031    -9275415.6044   23236515.3224         45.750
        32.7504
  -8633269.613    23946789.224    -6609091.1824   23946791.4624         39.750
        25.7504
 -24305961.906    20740913.343   -18868739.2454   20740911.0744         50.250
        43.5004
 -13899814.871    23078947.352   -10774092.5184   23078945.9634         41.750
        30.0004
  -9484037.734    22982478.691    -7225100.1824   22982479.2644         41.000
        31.2504
 11  3 11  1 38  0.0000000  0  8G 2G 4G 5G 7G 8G10G13G26
 -22019763.117    20044011.399   -17136899.6354   20044007.1654         52.500
        49.2504
 -20058675.430    21142973.090   -15585348.0634   21142971.8384         51.250
        41.7504
 -17001228.863    21369527.564   -13195337.8114   21369525.5734         51.500
        42.2504
 -11964232.949    23227400.949    -9312747.4874   23227398.9014         46.500
        32.5004
  -8720345.637    23930219.516    -6676942.4704   23930220.1954         39.500
        24.0004
 -24277516.918    20746326.103   -18846574.3354   20746323.9364         49.500
        43.7504
 -13813166.754    23095435.734   -10706574.6154   23095434.2844         41.250
        29.5004
  -9609262.727    22958649.114    -7322678.0314   22958648.4874         41.500
        29.7504
 11  3 11  1 38 30.0000000  0  8G 2G 4G 5G 7G 8G10G13G26
 -22054157.277    20037466.140   -17163700.2884   20037461.6784         52.750
        49.0004
 -20012419.617    21151775.064   -15549304.6114   21151773.9794         51.250
        42.0004
 -17048429.266    21360545.958   -13232117.3204   21360543.5194         50.500
        43.0004
 -12011702.926    23218367.262    -9349737.0674   23218366.0154         46.750
        33.2504
  -8807268.805    23913678.548    -6744674.6994   23913679.4384         41.250
        26.5004
 -24248869.977    20751777.144   -18824252.0504   20751775.4224         49.500
        43.2504
 -13726266.051    23111972.253   -10638859.8624   23111971.2344         41.000
        28.0004
  -9734262.582    22934861.975    -7420080.4914   22934862.6604         42.000
        30.0004
 11  3 11  1 39  0.0000000  0  8G 2G 4G 5G 7G 8G10G13G26
 -22088125.039    20031002.310   -17190168.6854   20030997.7564         51.250
        49.0004
 -19965808.484    21160644.638   -15512984.3314   21160643.5784         51.000
        42.0004
 -17095427.535    21351601.919   -13268739.3444   21351600.3264         51.250
        42.7504
 -12058730.316    23209417.900    -9386381.7814   23209417.4914         46.000
        33.0004
  -8894034.523    23897167.109    -6812284.2034   23897168.5304         41.250
        25.5004
 -24220020.414    20757267.154   -18801771.9064   20757265.1714         48.500
        43.5004
 -13639114.020    23128557.471   -10570949.2764   23128555.4884         39.250
        25.2504
  -9859032.664    22911119.580    -7517303.8634   22911118.7464         42.000
        31.0004
 11  3 11  1 39 30.0000000  0  8G 2G 4G 5G 7G 8G10G13G26
 -22121662.664    20024620.478   -17216301.9004   20024616.0874         51.750
        49.0004
 -19918840.594    21169582.879   -15476385.9884   21169581.6084         52.000
        41.7504
 -17142222.473    21342697.185   -13305202.9154   21342695.2604         50.750
        42.2504
 -12105311.309    23200553.925    -9422678.6594   23200553.3154         47.250
        33.7504
  -8980638.301    23880687.604    -6879767.5774   23880685.7654         42.750
        25.5004
 -24190967.062    20762796.370   -18779132.9504   20762794.0414         49.750
        43.0004
 -13551711.508    23145189.017   -10502843.5144   23145187.5474         37.750
        22.5004
  -9983568.793    22887421.135    -7614344.9464   22887420.9684         41.500
        30.0004
 11  3 11  1 40  0.0000000  0  8G 2G 4G 5G 7G 8G10G13G26
 -22154772.152    20018320.002   -17242101.5164   20018315.5534         51.750
        49.2504
 -19871520.281    21178587.608   -15439513.0804   21178586.5404         52.250
        41.2504
 -17188817.652    21333830.723   -13341510.8504   21333828.7184         50.500
        43.0004
 -12151447.035    23191774.754    -9458628.5984   23191773.7144         47.500
        33.2504
  -9067080.547    23864238.065    -6947125.0014   23864236.8284         42.250
        25.5004
 -24161715.023    20768362.221   -18756339.1684   20768360.6084         48.500
        43.2504
 -13464065.164    23161868.631   -10434547.7764   23161866.4724         36.500
        20.5004
 -10107872.410    22863767.283    -7711204.8554   22863766.7534         43.000
        31.2504
 11  3 11  1 40 30.0000000  0  8G 2G 4G 5G 7G 8G10G13G26
 -22187449.773    20012101.423   -17267564.6254   20012097.1534         52.750
        49.2504
 -19823846.012    21187659.935   -15402364.3494   21187658.1564         51.000
        41.7504
 -17235211.820    21325001.882   -13377662.1324   21324999.8744         50.750
        42.5004
 -12197133.785    23183080.532    -9494228.6514   23183078.7994         45.500
        32.7504
  -9153356.266    23847820.135    -7014352.7204   23847819.0624         42.750
        28.0004
 -24132263.066    20773967.155   -18733389.5724   20773964.9334         48.250
        43.5004
 -13376176.016    23178593.096   -10366062.8014   23178592.0164         35.000
        17.7504
 -10231938.754    22840158.103    -7807879.8734   22840157.5364         44.500
        31.0004
 11  3 11  1 41  0.0000000  0  8G 2G 4G 5G 7G 8G10G13G26
 -22219694.699    20005965.616   -17292690.5484   20005961.2654         51.750
        49.5004
 -19775819.031    21196798.853   -15364940.7644   21196797.3374         50.500
        41.2504
 -17281406.078    21316211.672   -13413657.6514   21316209.7064         48.750
        42.2504
 -12242370.039    23174472.779    -9529477.7184   23174470.6954         41.000
        32.2504
  -9239463.082    23831433.604    -7081448.8304   23831434.0654         41.500
        25.5004
 -24102613.371    20779609.416   -18710285.9454   20779606.9024         48.000
        43.2504
 -13288047.488    23195363.539   -10297391.3954   23195361.9334         34.250
        16.2504
 -10355766.070    22816593.966    -7904368.6474   22816594.5834         41.500
        31.5004
 11  3 11  1 41 30.0000000  0  8G 2G 4G 5G 7G 8G10G13G26
 -22251504.668    19999912.265   -17317477.5464   19999908.1894         50.750
        49.5004
 -19727439.176    21206005.273   -15327242.2054   21206003.9244         51.000
        41.5004
 -17327399.840    21307459.689   -13449496.9324   21307457.4394         51.250
        43.5004
 -12287153.508    23165950.337    -9564373.8934   23165949.1574         45.000
        31.2504
  -9325397.980    23815081.280    -7148410.9664   23815082.6594         42.250
        27.0004
 -24072765.852    20785289.344   -18687028.1714   20785286.5824         47.750
        43.0004
                  23212177.542

 -10479351.082    22793076.116    -8000668.5954   22793076.6724         43.500
        31.0004
 11  3 11  1 42  0.0000000  0  8G 2G 4G 5G 7G 8G10G13G26
 -22282877.125    19993942.117   -17341923.6254   19993938.1724         52.000
        49.5004
 -19678706.023    21215279.168   -15289268.4284   21215277.8094         51.500
        42.2504
 -17373192.262    21298744.847   -13485179.3334   21298743.1874         50.500
        43.0004
 -12331480.828    23157515.316    -9598914.6954   23157514.1044         47.250
        32.7504
  -9411156.754    23798761.638    -7215235.8574   23798763.4774         42.500
        29.0004
 -24042720.152    20791006.791   -18663615.9654   20791004.4894         48.250
        43.5004
                  23229040.098

 -10602690.168    22769605.327    -8096776.9474   22769606.0504         43.250
        31.5004
 11  3 11  1 42 30.0000000  0  7G 2G 4G 5G 7G 8G10G26
 -22313808.930    19988056.024   -17366026.3464   19988051.9584         51.500
        49.7504
 -19629618.871    21224620.152   -15251018.7784   21224618.7694         50.250
        41.7504
 -17418782.848    21290069.549   -13520704.4704   21290067.4574         51.250
        42.7504
 -12375348.652    23149167.808    -9633097.4304   23149165.9454         46.000
        32.7504
  -9496734.945    23782477.198    -7281920.0314   23782478.1744         42.250
        28.2504
 -24012476.453    20796761.676   -18640049.4754   20796759.9044         47.250
        43.5004
 -10725779.559    22746182.570    -8192690.6994   22746182.3224         44.000
        30.5004
 11  3 11  1 43  0.0000000  0  7G 2G 4G 5G 7G 8G10G26
 -22344300.016    19982254.064   -17389785.6434   19982249.9664         52.250
        49.7504
 -19580179.293    21234028.133   -15212494.4644   21234027.1044         50.500
        41.5004
 -17464173.000    21281432.371   -13556073.4024   21281430.3804         49.750
        42.5004
 -12418756.422    23140907.436    -9666921.7024   23140905.0504         41.500
        31.7504
  -9582131.156    23766226.365    -7348462.4324   23766227.2084         42.500
        27.0004
 -23982037.043    20802554.236   -18616330.4804   20802552.5414         48.000
        43.0004
 -10848618.258    22722806.704    -8288409.1004   22722807.1774         43.500
        31.5004
 11  3 11  1 43 30.0000000  0  8G 2G 4G 5G 7G 8G10G26G29
 -22374348.637    19976536.178   -17413200.1704   19976531.7734         53.500
        49.7504
 -19530387.867    21243503.287   -15173696.0184   21243502.0564         49.500
        41.5004
 -17509363.297    21272832.620   -13591286.6254   21272830.7524         50.750
        42.7504
 -12461702.168    23132734.853    -9700385.8884   23132734.2684         44.000
        32.0004
  -9667341.734    23750011.438    -7414860.2064   23750011.1744         42.000
        26.5004
 -23951402.531    20808383.663   -18592459.4404   20808381.8544         49.250
        43.0004
 -10971203.578    22699479.252    -8383930.0654   22699479.9074         43.500
        30.0004
    -89000.2381   24230905.541

 11  3 11  1 44  0.0000000  0  8G 2G 4G 5G 7G 8G10G26G29
 -22403952.547    19970902.285   -17436268.1684   19970898.0994         53.250
        49.5004
 -19480244.957    21253045.169   -15134623.6764   21253044.2064         50.750
        41.0004
 -17554352.918    21264271.280   -13626343.4704   21264269.4564         51.750
        42.5004
 -12504183.488    23124651.455    -9733488.2294   23124650.9014         46.500
        34.0004
  -9752363.852    23733831.725    -7481111.1074   23733832.5634         42.250
        26.7504
 -23920573.488    20814250.190   -18568436.8254   20814248.1984         49.250
        43.2504
 -11093532.246    22676201.599    -8479251.0404   22676201.3534         43.750
        31.2504
   -172037.645    24215103.648

 11  3 11  1 44 30.0000000  0  8G 2G 4G 5G 7G 8G10G26G29
 -22433111.828    19965353.671   -17458989.7014   19965349.5044         54.000
        49.5004
 -19429752.289    21262653.562   -15095278.7854   21262652.4934         50.500
        41.2504
 -17599143.895    21255747.809   -13661245.5254   21255746.2894         50.250
        42.7504
 -12546199.824    23116655.643    -9766228.2204   23116654.4504         43.500
        32.0004
  -9837195.750    23717688.934    -7547213.7804   23717689.8934         42.500
        28.7504
 -23889552.270    20820153.326   -18544264.4504   20820151.0434         49.750
        43.0004
 -11215603.426    22652972.333    -8574371.3644   22652971.6244         44.000
        31.5004
   -254689.375    24199375.207     -175587.5005   24199375.0374         36.000
        16.2505
 11  3 11  1 45  0.0000000  0  8G 2G 4G 5G 7G 8G10G26G29
 -22461821.410    19959890.483   -17481360.8224   19959886.1824         53.750
        50.0004
 -19378907.332    21272329.326   -15055659.4074   21272328.0324         50.500
        41.5004
 -17643733.422    21247263.004   -13695990.6094   21247260.9364         51.750
        43.0004
 -12587746.113    23108748.957    -9798601.9184   23108748.6734         45.000
        33.2504
  -9921831.324    23701582.861    -7613163.4614   23701583.4574         43.500
        28.0004
 -23858336.578    20826093.615   -18519940.5654   20826091.9024         48.000
        43.0004
 -11337411.219    22629792.717    -8669286.4964   22629792.8794         45.250
        31.0004
   -336950.531    24183722.423     -239687.0774   24183721.3934         36.750
        18.2504
 11  3 11  1 45 30.0000000  0  8G 2G 4G 5G 7G 8G10G26G29
 -22490081.348    19954512.588   -17503381.5594   19954508.6624         52.250
        50.0004
 -19327712.367    21282071.208   -15015767.2994   21282070.3704         50.250
        41.2504
 -17688123.359    21238815.751   -13730580.1714   21238813.7304         51.000
        43.0004
 -12628821.859    23100932.544    -9830608.9874   23100931.8514         45.000
        32.5004
 -10006269.242    23685515.017    -7678959.1724   23685516.0754         42.750
        28.5004
 -23826928.754    20832070.650   -18495466.9484   20832067.9534         48.500
        43.2504
 -11458954.762    22606663.356    -8763995.7034   22606663.9294         43.750
        32.2504
   -418820.395    24168141.411     -303481.7934   24168142.2544         36.250
        19.0004
 11  3 11  1 46  0.0000000  0  8G 2G 4G 5G 7G 8G10G26G29
 -22517891.715    19949220.894   -17525051.9694   19949216.6934         53.250
        50.0004
 -19276169.527    21291879.536   -14975604.0914   21291878.2774         50.250
        41.5004
 -17732315.711    21230406.417   -13765015.7774   21230404.3034         51.250
        42.7504
 -12669426.809    23093205.549    -9862249.2144   23093205.6694         44.000
        33.0004
 -10090507.797    23669485.262    -7744599.5464   23669484.7384         42.750
        27.7504
 -23795331.684    20838083.474   -18470845.8764   20838080.9914         48.000
        43.0004
 -11580233.332    22583584.961    -8858498.4064   22583585.4364         44.250
        32.2504
   -500298.328    24152637.692     -366971.1414   24152636.9944         38.500
        20.0004
 11  3 11  1 46 30.0000000  0  8G 2G 4G 5G 7G 8G10G26G29
 -22545250.508    19944014.384   -17546370.5104   19944010.2844         50.250
        49.7504
 -19224278.594    21301754.318   -14935169.6294   21301752.8244         50.000
        41.2504
 -17776309.973    21222034.475   -13799297.0074   21222032.6064         51.000
        43.0004
 -12709558.465    23085569.685    -9893520.6544   23085568.4074         43.750
        32.2504
 -10174543.891    23653493.618    -7810082.1634   23653493.9464         42.500
        28.0004
 -23763545.797    20844131.500   -18446077.6844   20844129.5354         47.250
        43.0004
 -11701243.508    22560557.578    -8952791.9774   22560557.1504         42.750
        32.7504
   -581381.355    24137207.614     -430152.6444   24137207.5774         38.500
        22.0004
 11  3 11  1 47  0.0000000  0  8G 2G 4G 5G 7G 8G10G26G29
 -22572155.219    19938894.779   -17567335.2294   19938890.4704         52.000
        50.0004
 -19172039.504    21311695.050   -14894463.9074   21311693.6244         49.500
        41.5004
 -17820105.824    21213700.518   -13833423.6434   21213698.3774         51.250
        43.2504
 -12749214.480    23078023.217    -9924421.4704   23078022.5914         44.000
        33.0004
 -10258373.668    23637541.934    -7875403.9994   23637542.1724         44.000
        28.7504
 -23731570.719    20850216.380   -18421162.0544   20850214.3654         48.000
        43.0004
 -11821982.215    22537581.536    -9046874.0114   22537581.5424         42.500
        32.0004
   -662066.816    24121853.851     -493024.4744   24121853.6464         40.000
        22.7504
 11  3 11  1 47 30.0000000  0  8G 2G 4G 5G 7G 8G10G26G29
 -22598603.082    19933861.621   -17587943.9704   19933857.4834         52.750
        50.0004
 -19119451.770    21321701.947   -14853486.5124   21321701.0254         50.500
        41.2504
 -17863702.074    21205404.178   -13867394.7554   21205402.3204         50.750
        43.0004
 -12788391.520    23070568.068    -9954949.0054   23070567.4904         44.000
        33.2504
 -10341992.855    23621629.039    -7940561.7974   23621629.4954         42.500
        28.2504
 -23699406.387    20856337.314   -18396098.9554   20856335.1684         48.000
        42.7504
 -11942445.387    22514657.937    -9140741.3794   22514658.0244         41.500
        31.5004
   -742351.215    24106576.122     -555583.7674   24106575.3754         40.250
        23.0004
 11  3 11  1 48  0.0000000  0  8G 2G 4G 5G 7G 8G10G26G29
 -22624594.828    19928915.948   -17608197.2894   19928911.2384         52.750
        49.7504
 -19066518.176    21331775.240   -14812239.5814   21331774.3494         50.000
        41.0004
 -17907101.430    21197145.479   -13901212.4404   21197143.9544         51.250
        43.0004
 -12827090.418    23063204.100    -9985104.0184   23063203.6404         44.500
        33.2504
 -10425400.859    23605756.174    -8005554.9724   23605758.0684         42.250
        26.7504
 -23667055.883    20862493.269   -18370890.8034   20862491.1844         47.500
        42.7504
 -12062632.969    22491786.883    -9234393.9744   22491787.4704         41.500
        32.0004
   -822234.906    24091374.236     -617830.8214   24091374.9224         40.500
        22.2504
 11  3 11  1 48 30.0000000  0  8G 2G 4G 5G 7G 8G10G26G29
 -22650127.766    19924057.049   -17628093.1044   19924052.6474         52.500
        50.0004
 -19013238.148    21341913.798   -14770722.7244   21341913.4804         50.000
        41.0004
 -17950303.031    21188924.801   -13934876.0244   21188922.7304         51.250
        43.5004
 -12865307.703    23055931.249   -10014883.7204   23055930.8644         44.000
        34.0004
 -10508593.664    23589926.345    -8070380.5364   23589925.9544         41.250
        27.7504
 -23634518.727    20868685.257   -18345537.2134   20868683.0434         48.500
        42.7504
 -12182541.434    22468968.869    -9327829.1004   22468969.6074         42.250
        32.0004
   -901714.742    24076250.595     -679763.1614   24076249.8874         40.750
        22.5004
 11  3 11  1 49  0.0000000  0  8G 2G 4G 5G 7G 8G10G26G29
 -22675200.059    19919285.807   -17647629.9794   19919281.2994         53.000
        50.0004
 -18959612.293    21352118.183   -14728936.3894   21352117.5444         50.000
        40.5004
 -17993306.660    21180741.492   -13968385.3524   21180739.3794         51.250
        43.5004
 -12903041.492    23048751.299   -10044286.6954   23048749.7344         45.000
        33.7504
 -10591567.711    23574136.706    -8135035.6154   23574136.0914         41.500
        28.2504
 -23601795.609    20874912.306   -18320038.7034   20874910.1774         50.250
        42.5004
 -12302167.762    22446205.160    -9421044.3604   22446205.2144         42.000
        33.5004
   -980788.184    24061204.056     -741378.8234   24061202.7574         42.000
        23.0004
 11  3 11  1 49 30.0000000  0  8G 2G 4G 5G 7G 8G10G26G29
 -22699809.766    19914602.900   -17666806.3954   19914597.8804         53.000
        50.0004
 -18905640.656    21362389.370   -14686880.6334   21362387.7334         50.250
        40.5004
 -18036112.539    21172595.916   -14001740.5934   21172593.7114         51.000
        43.7504
 -12940289.535    23041663.235   -10073311.1424   23041661.7174         44.250
        31.2504
 -10674319.426    23558388.622    -8199517.4594   23558389.2964         41.500
        28.7504
 -23568886.996    20881174.251   -18294395.6584   20881172.2424         49.000
        42.7504
 -12421509.070    22423495.722    -9514037.5464   22423495.6284         42.500
        32.5004
  -1059452.809    24046234.050     -802675.8904   24046232.8034         42.500
        25.5004
 11  3 11  1 50  0.0000000  0  8G 2G 4G 5G 7G 8G10G26G29
 -22723955.309    19910008.112   -17685621.1264   19910003.8094         54.000
        50.2504
 -18851323.605    21372725.886   -14644555.7244   21372724.2134         50.500
        40.7504
 -18078720.223    21164487.567   -14034941.3834   21164485.6564         51.250
        43.0004
 -12977050.102    23034667.946   -10101955.7404   23034666.6254         45.250
        33.0004
 -10756845.920    23542684.746    -8263823.8634   23542685.6414         41.000
        29.0004
 -23535793.445    20887471.763   -18268608.5214   20887469.8494         50.250
        43.0004
 -12540562.613    22400840.225    -9606806.4694   22400839.6614         42.500
        34.0004
  -1137705.922    24031342.775     -863652.3354   24031341.8654         42.000
        22.5004
 11  3 11  1 50 30.0000000  0  8G 2G 4G 5G 7G 8G10G26G29
 -22747634.941    19905502.197   -17704072.8004   19905497.5144         54.000
        50.0004
 -18796661.898    21383127.620   -14601962.2334   21383125.9904         50.500
        40.7504
 -18121130.125    21156417.183   -14067988.0494   21156415.1494         51.250
        43.0004
 -13013321.234    23027765.444   -10130218.9654   23027764.3004         44.750
        31.7504
 -10839143.984    23527024.110    -8327952.1644   23527024.1274         40.500
        28.5004
 -23502515.844    20893803.787   -18242677.9364   20893802.1884         50.750
        42.5004
 -12659325.680    22378240.037    -9699349.0764   22378239.7584         42.000
        32.5004
  -1215545.938    24016530.095     -924306.8874   24016530.5194         42.000
        25.7504
 11  3 11  1 51  0.0000000  0  8G 2G 4G 5G 7G 8G10G26G29
 -22770847.297    19901084.907   -17722160.3884   19901080.3244         53.500
        50.0004
 -18741656.332    21393594.394   -14559100.7934   21393593.6204         50.250
        40.5004
 -18163342.742    21148384.448   -14100881.0154   21148382.3414         51.250
        43.2504
 -13049101.539    23020956.750   -10158099.7474   23020955.6394         44.500
        33.0004
 -10921210.848    23511407.380    -8391900.3454   23511408.3224         40.750
        29.5004
 -23469055.285    20900171.619   -18216604.8214   20900169.8494         49.500
        42.5004
 -12777796.262    22355695.953    -9791663.7574   22355695.5004         43.000
        32.7504
  -1292970.664    24001796.512     -984637.7934   24001796.4424         40.750
        25.7504
 11  3 11  1 51 30.0000000  0  8G 2G 4G 5G 7G 8G10G26G29
 -22793589.887    19896757.088   -17739881.9044   19896752.6974         53.250
        50.0004
 -18686306.219    21404127.485   -14515970.8834   21404126.2984         49.500
        40.5004
 -18205356.957    21140389.660   -14133619.3724   21140387.8524         51.500
        43.2504
 -13084387.797    23014241.593   -10185595.5114   23014240.4344         44.750
        32.5004
 -11003042.332    23495835.630    -8455665.1374   23495835.8184         40.750
        29.0004
 -23435411.223    20906574.148   -18190388.7234   20906572.2014         49.750
        42.5004
 -12895970.500    22333208.302    -9883747.5254   22333207.9634         42.500
        33.0004
  -1369977.074    23987143.645    -1044642.8184   23987142.5104         41.250
        24.7504
 11  3 11  1 52  0.0000000  0  8G 2G 4G 5G 7G 8G10G26G29
 -22815864.008    19892518.732   -17757238.3734   19892514.3004         53.000
        50.2504
 -18630615.074    21414724.824   -14472575.2464   21414724.1044         50.000
        40.0004
 -18247175.945    21132431.580   -14166205.5974   21132429.8814         51.250
        42.5004
 -13119181.102    23007621.106   -10212707.1814   23007619.4064         45.750
        33.0004
 -11084637.883    23480308.026    -8519246.1204   23480308.6984         40.000
        27.5004
 -23401587.105    20913010.536   -18164032.2944   20913008.2874         49.500
        42.2504
 -13013848.477    22310776.388    -9975600.4614   22310776.7314         43.250
        33.7504
  -1446565.508    23972568.860    -1104322.1004   23972568.3824         41.750
        26.5004
 11  3 11  1 52 30.0000000  0  8G 2G 4G 5G 7G 8G10G26G29
 -22837668.746    19888369.472   -17774229.0854   19888364.7744         53.750
        50.0004
 -18574584.426    21425387.380   -14428915.0754   21425386.7724         50.500
        40.5004
 -18288800.488    21124510.774   -14198640.3114   21124508.7014         51.000
        42.7504
 -13153480.680    23001093.561   -10239434.1234   23001092.4414         44.750
        33.0004
 -11165995.691    23464826.045    -8582641.8014   23464826.4834         40.500
        29.2504
 -23367584.227    20919481.021   -18137536.5904   20919479.4424         50.750
        42.7504
 -13131428.773    22288401.813   -10067221.4284   22288402.2434         44.750
        33.5004
  -1522734.906    23958074.000    -1163674.8764   23958073.9254         42.000
        26.2504
 11  3 11  1 53  0.0000000  0  8G 2G 4G 5G 7G 8G10G26G29
 -22859001.305    19884309.994   -17790851.9044   19884305.3704         53.250
        50.5004
 -18518213.238    21436114.332   -14384989.5154   21436113.4024         49.250
        39.5004
 -18330229.152    21116626.863   -14230922.3864   21116625.2734         50.750
        42.7504
 -13187282.977    22994661.356   -10265773.6294   22994661.1094         43.500
        33.0004
 -11247110.891    23449391.010    -8645848.4474   23449391.6274         41.000
        28.2504
 -23333402.191    20925985.488   -18110901.2874   20925983.8854         49.500
        42.0004
 -13248706.996    22266084.031   -10158606.9774   22266084.1904         44.000
        33.5004
  -1598481.656    23943659.663    -1222698.3234   23943659.9954         42.250
        28.2504
 11  3 11  1 53 30.0000000  0  8G 2G 4G 5G 7G 8G10G26G29
 -22879858.449    19880340.868   -17807104.2524   19880336.4494         53.500
        50.2504
 -18461500.566    21446906.600   -14340797.8334   21446905.2324         50.000
        40.7504
 -18371460.508    21108781.012   -14263050.7104   21108779.3694         51.250
        43.0004
 -13220585.145    22988324.424   -10291723.3894   22988323.4414         46.500
        33.5004
 -11327979.098    23434001.620    -8708862.6104   23434002.4064         38.500
        28.2504
 -23299040.180    20932524.608   -18084125.7354   20932522.7824         50.000
        42.7504
 -13365679.031    22243825.604   -10249753.9794   22243824.9974         44.500
        33.0004
  -1673801.953    23929327.481    -1281389.4694   23929326.8534         42.250
        29.0004
 11  3 11  1 54  0.0000000  0  8G 2G 4G 5G 7G 8G10G26G29
 -22900240.016    19876462.478   -17822986.0054   19876457.6624         53.500
        50.0004
 -18404448.625    21457763.145   -14296341.8354   21457762.3884         49.250
        41.0004
 -18412496.305    21100972.369   -14295026.6504   21100970.2174         51.250
        43.2504
 -13253386.703    22982082.851   -10317283.0544   22982080.9924         45.750
        32.7504
 -11408598.820    23418660.624    -8771683.2194   23418659.6234         40.500
        29.0004
 -23264499.922    20939097.344   -18057211.2754   20939095.4834         50.000
        42.2504
 -13482343.746    22221624.764   -10340661.5174   22221624.3874         44.000
        33.7504
  -1748695.023    23915074.532    -1339747.6834   23915075.4544         42.250
        28.5004
 11  3 11  1 54 30.0000000  0  8G 2G 4G 5G 7G 8G10G26G29
 -22920144.012    19872674.957   -17838495.6554   19872670.2444         53.500
        50.2504
 -18347057.363    21468684.697   -14251621.4564   21468683.8084         49.500
        40.0004
 -18453335.801    21093200.865   -14326849.6324   21093198.8944         51.500
        43.5004
 -13285685.473    22975935.953   -10342450.9204   22975934.9444         44.750
        32.2504
 -11488966.254    23403367.023    -8834307.1754   23403366.5594         41.000
        29.0004
 -23229781.668    20945703.869   -18030158.1364   20945701.8754         49.250
        41.7504
 -13598698.027    22199483.058   -10431327.1144   22199482.4584         45.000
        33.5004
  -1823158.355    23900904.774    -1397771.0444   23900905.5334         41.250
        28.5004
 11  3 11  1 55  0.0000000  0  8G 2G 4G 5G 7G 8G10G26G29
 -22939570.340    19868978.130   -17853633.0874   19868973.5874         54.000
        50.0004
 -18289328.988    21479669.594   -14206638.3914   21479669.4334         49.500
        40.0004
 -18493981.016    21085466.297   -14358521.2144   21085464.2924         51.000
        43.7504
 -13317481.051    22969885.656   -10367226.7084   22969885.1324         45.500
        33.5004
 -11569079.758    23388122.213    -8896733.2674   23388122.2744         41.750
        29.7504
 -23194887.742    20952343.987   -18002968.1324   20952342.1074         50.000
        42.0004
 -13714740.836    22177401.455   -10521750.0384   22177400.8704         45.750
        34.0004
  -1897191.527    23886817.114    -1455459.2284   23886817.1154         39.000
        27.0004
 11  3 11  1 55 30.0000000  0  8G 2G 4G 5G 7G 8G10G26G29
 -22958514.723    19865373.330   -17868394.9674   19865368.7154         54.000
        50.2504
 -18231261.164    21490719.854   -14161390.7764   21490719.3934         48.500
        40.0004
 -18534428.996    21077769.079   -14390039.1274   21077767.5124         51.000
        43.5004
 -13348768.980    22963932.105   -10391606.9114   22963930.9044         43.750
        34.7504
 -11648933.691    23372926.312    -8958957.1104   23372926.5524         41.500
        29.7504
 -23159815.684    20959017.730   -17975639.2904   20959016.2464         50.000
        42.0004
 -13830466.660    22155379.096   -10611925.9364   22155378.8764         45.250
        34.5004
  -1970789.383    23872812.245    -1512808.1954   23872812.2314         42.750
        28.7504
 11  3 11  1 56  0.0000000  0  8G 2G 4G 5G 7G 8G10G26G29
 -22976976.875    19861860.170   -17882781.0834   19861855.1604         53.750
        50.2504
 -18172855.715    21501833.962   -14115880.1034   21501833.2184         47.750
        39.5004
 -18574680.977    21070109.266   -14421404.3054   21070107.5594         51.250
        43.7504
 -13379549.016    22958074.378   -10415591.3554   22958073.3524         42.000
        34.2504
 -11728525.605    23357780.330    -9020976.7384   23357781.2904         41.500
        30.0004
 -23124567.574    20965725.745   -17948173.2614   20965723.7494         50.000
        42.5004
 -13945874.250    22133417.858   -10701853.8794   22133417.4824         45.750
        34.2504
  -2043951.027    23858889.671    -1569817.2624   23858890.3124         43.250
        28.0004
 11  3 11  1 56 30.0000000  0  8G 2G 4G 5G 7G 8G10G26G29
 -22994957.625    19858438.279   -17896792.0794   19858433.8554         54.000
        50.2504
 -18114115.539    21513011.929   -14070108.5854   21513010.9264         46.750
        39.2504
 -18614739.020    21062486.920   -14452618.3564   21062484.5954         51.250
        43.5004
 -13409821.770    22952313.543   -10439180.5264   22952312.7184         41.750
        33.5004
 -11807854.637    23342684.381    -9082791.5514   23342685.4824         41.500
        29.7504
 -23089145.965    20972466.500   -17920572.0354   20972464.4894         50.750
        43.0004
 -14060963.141    22111516.675   -10791533.4914   22111517.0454         45.750
        34.7504
  -2116676.977    23845050.773    -1626486.8294   23845050.7534         42.500
        28.5004
 11  3 11  1 57  0.0000000  0  8G 2G 4G 5G 7G 8G10G26G29
 -23012452.148    19855109.409   -17910424.2064   19855104.4824         53.500
        50.5004
 -18055038.078    21524254.014   -14024074.2814   21524253.1894         47.000
        39.2504
 -18654600.262    21054901.849   -14483679.0614   21054899.3964         50.500
        43.7504
 -13439581.980    22946650.655   -10462370.3284   22946649.0004         42.500
        32.7504
 -11886914.602    23327640.320    -9144396.7524   23327641.3564         42.500
        30.0004
 -23053548.125    20979240.631   -17892833.4754   20979238.4144         51.000
        42.5004
 -14175727.367    22089677.714   -10880960.1084   22089677.7074         45.500
        34.5004
  -2188961.520    23831295.668    -1682812.4324   23831295.6264         43.000
        29.5004
 11  3 11  1 57 30.0000000  0  8G 2G 4G 5G 7G 8G10G26G29
 -23029461.340    19851872.622   -17923678.1464   19851868.2354         54.250
        50.2504
 -17995626.453    21535559.684   -13977779.5994   21535558.8514         46.500
        39.0004
 -18694267.168    21047352.892   -14514588.3464   21047351.1214         50.250
        43.7504
 -13468830.711    22941084.822   -10485161.5654   22941083.8264         41.500
        33.5004
 -11965705.348    23312646.745    -9205792.1624   23312646.7424         41.750
        30.2504
 -23017777.605    20986047.638   -17864960.3784   20986045.3534         50.250
        41.7504
 -14290166.922    22067901.389   -10970133.7384   22067900.3004         47.250
        34.7504
  -2260805.203    23817624.577    -1738794.5294   23817624.7054         42.750
        28.5004
 11  3 11  1 58  0.0000000  0  8G 2G 4G 5G 7G 8G10G26G29
 -23045982.430    19848728.810   -17936551.7554   19848724.4004         55.000
        50.5004
 -17935879.938    21546929.525   -13931223.9154   21546928.1904         48.250
        38.7504
 -18733738.223    21039841.955   -14545344.9994   21039840.1264         49.500
        43.7504
 -13497565.164    22935617.379   -10507552.0284   22935616.0574         42.500
        34.0004
 -12044222.156    23297705.599    -9266974.0744   23297706.4864         43.250
        30.2504
 -22981833.152    20992887.469   -17836951.7344   20992885.3374         51.000
        41.7504
 -14404277.852    22046186.639   -11059051.2734   22046185.5584         47.000
        34.5004
  -2332204.539    23804037.254    -1794430.3394   23804037.2084         40.500
        27.5004
 11  3 11  1 58 30.0000000  0  8G 2G 4G 5G 7G 8G10G26G29
 -23062015.484    19845677.887   -17949045.0874   19845673.2644         54.500
        50.2504
 -17875800.516    21558362.581   -13884408.8424   21558361.3004         47.500
        39.5004
 -18773014.988    21032367.839   -14575950.2694   21032365.6394         51.750
        43.5004
 -13525784.926    22930247.323   -10529541.4674   22930245.8464         42.750
        35.2504
 -12122463.461    23282817.530    -9327941.3064   23282816.5444         46.000
        30.2504
 -22945717.035    20999759.942   -17808809.3534   20999758.1344         50.750
        42.2504
 -14518058.945    22024534.422   -11147711.8074   22024534.4184         46.750
        34.5004
  -2403158.855    23790534.868    -1849719.4084   23790534.9474         40.000
        28.0004
 11  3 11  1 59  0.0000000  0  8G 2G 4G 5G 7G 8G10G26G29
 -23077559.492    19842719.953   -17961157.3134   19842715.4204         54.000
        50.2504
 -17815389.402    21569857.611   -13837335.3014   21569857.2164         48.000
        39.2504
 -18812097.906    21024930.507   -14606404.4824   21024928.5304         50.250
        44.0004
 -13553489.031    22924974.900   -10551129.0704   22924974.0494         45.250
        34.0004
 -12200426.371    23267980.986    -9388691.6014   23267981.0114         45.250
        30.5004
 -22909430.199    21006665.129   -17780533.9174   21006663.3114         50.250
        41.7504
 -14631508.211    22002945.404   -11236113.7864   22002945.4284         46.750
        34.5004
  -2473666.613    23777117.538    -1904660.5324   23777117.9714         39.500
        26.7504
 11  3 11  1 59 30.0000000  0  8G 2G 4G 5G 7G 8G10G26G29
 -23092611.520    19839855.677   -17972886.1914   19839851.0064         55.000
        50.0004
 -17754645.777    21581416.737   -13790002.6634   21581416.5344         48.500
        39.2504
 -18850985.906    21017530.323   -14636706.8224   21017528.4574         51.000
        43.2504
 -13580674.641    22919802.028   -10572312.6844   22919801.1614         45.750
        34.7504
 -12278106.672    23253198.189    -9449221.6564   23253199.2644         44.750
        30.0004
 -22872971.562    21013603.292   -17752124.6294   21013601.2364         51.000
        41.5004
 -14744621.555    21981420.863   -11324254.0014   21981420.7684         47.000
        35.0004
  -2543724.758    23763785.908    -1959251.2654   23763785.7814         38.500
        24.7504
                            4  1
RINEX FILE SPLICE; other post-header comments skipped       COMMENT
 11  3 11  2  0  0.0000000  0  8G 2G 4G 5G 7G 8G10G26G29
 -23107169.930    19837085.362   -17984230.4304   19837081.0574         55.000
        50.2504
 -17693570.051    21593039.631   -13742411.2494   21593038.5154         47.750
        39.2504
 -18889678.398    21010167.246   -14666856.8144   21010165.6144         50.750
        44.0004
 -13607339.570    22914728.076   -10593090.5694   22914726.9664         45.750
        35.0004
 -12355500.566    23238470.771    -9509528.5534   23238471.3894         45.250
        30.7504
 -22836341.426    21020573.732   -17723581.6884   21020572.2194         50.000
        42.2504
 -14857396.125    21959960.895   -11412130.2414   21959960.1894         46.250
        35.0004
  -2613330.453    23750540.658    -2013489.4974   23750540.2924         40.000
        26.0004
 11  3 11  2  0 30.0000000  0  8G 2G 4G 5G 7G 8G10G26G29
 -23121234.504    19834408.538   -17995189.8654   19834404.1414         55.250
        50.5004
 -17632164.066    21604724.533   -13694562.4874   21604723.4124         46.750
        38.5004
 -18928176.648    21002841.195   -14696855.4524   21002839.1544         51.250
        43.7504
 -13633483.586    22909752.639   -10613462.5674   22909751.8044         46.000
        35.0004
 -12432606.391    23223798.579    -9569610.9954   23223799.2584         46.000
        31.7504
 -22799541.332    21027576.016   -17694906.3124   21027574.4174         50.500
        42.0004
 -14969830.547    21938565.060   -11499741.4274   21938565.0924         46.500
        36.0004
  -2682483.227    23737381.799    -2067374.7524   23737380.5824         39.000
        26.2504
 11  3 11  2  1  0.0000000  0  8G 2G 4G 5G 7G 8G10G26G29
 -23134802.969    19831826.917   -18005762.7204   19831822.0944         54.750
        50.2504
 -17570427.652    21616472.664   -13646456.2684   21616471.6584         48.000
        38.5004
 -18966479.602    20995552.800   -14726701.8984   20995550.6694         50.500
        43.7504
 -13659104.527    22904877.203   -10633426.9294   22904876.0354         43.500
        34.5004
 -12509420.266    23209181.643    -9629465.9194   23209182.3514         47.250
        31.7504
 -22762571.281    21034611.507   -17666098.4994   21034610.0264         49.500
        41.5004
 -15081921.430    21917234.891   -11587084.9134   21917234.9614         46.250
        35.0004
  -2751179.969    23724309.078    -2120904.7084   23724308.7944         41.500
        28.5004
 11  3 11  2  1 30.0000000  0  8G 2G 4G 5G 7G 8G10G26G29
 -23147876.203    19829339.085   -18015949.6774   19829334.7714         55.500
        50.2504
 -17508363.867    21628283.743   -13598094.9644   21628282.1724         49.500
        38.5004
 -19004589.664    20988300.229   -14756398.0464   20988298.5514         51.000
        43.5004
 -13684203.184    22900101.237   -10652984.3234   22900099.7664         45.000
        35.0004
 -12585941.457    23194619.246    -9689092.7614   23194619.7624         45.750
        30.5004
 -22725433.812    21041679.081   -17637160.2634   21041676.5314         50.000
        41.5004
 -15193668.422    21895970.014   -11674160.4464   21895969.9614         45.000
        36.0004
  -2819421.223    23711323.404    -2174079.7114   23711323.0814         41.000
        28.0004
 11  3 11  2  2  0.0000000  0  8G 2G 4G 5G 7G 8G10G26G29
 -23160452.629    19826945.995   -18025749.5234   19826941.4244         55.000
        50.5004
 -17445973.078    21640155.883   -13549478.8434   21640155.4184         47.500
        39.0004
 -19042506.602    20981085.423   -14785943.7154   20981083.1914         49.750
        43.5004
 -13708777.477    22895424.498   -10672133.1264   22895423.6794         44.250
        34.0004
 -12662166.758    23180114.557    -9748489.0594   23180114.2874         46.500
        30.5004
 -22688129.449    21048777.490   -17608091.9724   21048775.2664         49.250
        42.0004
 -15305068.844    21874770.800   -11760965.9104   21874770.8484         45.750
        35.2504
  -2887204.477    23698424.243    -2226897.8174   23698423.5994         39.500
        27.7504
 11  3 11  2  2 30.0000000  0  8G 2G 4G 5G 7G 8G10G26G29
 -23172533.152    19824647.267   -18035162.9514   19824642.5314         54.500
        50.2504
 -17383258.320    21652090.005   -13500610.2754   21652089.4444         49.500
        39.5004
 -19080232.875    20973906.069   -14815340.8104   20973904.3494         50.000
        43.7504
 -13732828.879    22890847.828   -10690874.4834   22890847.2864         45.000
        34.7504
 -12738094.926    23165665.358    -9807653.8374   23165665.3424         46.000
        30.5004
 -22650660.867    21055907.573   -17578895.7194   21055905.7604         49.500
        41.5004
 -15416122.418    21853638.419   -11847501.1344   21853637.7604         45.750
        35.2504
  -2954530.406    23685612.481    -2279359.5484   23685612.3344         40.750
        29.2504
 11  3 11  2  3  0.0000000  0  8G 2G 4G 5G 7G 8G10G26G29
 -23184114.172    19822443.552   -18044187.1524   19822438.9274         53.500
        50.5004
 -17320218.109    21664086.103   -13451488.1154   21664086.0894         49.250
        38.5004
 -19117765.996    20966763.552   -14844587.4034   20966761.5344         49.000
        44.0004
 -13756353.539    22886371.247   -10709205.4094   22886370.2864         45.500
        34.7504
 -12813721.449    23151274.981    -9866583.5624   23151273.7954         45.750
        29.5004
 -22613026.152    21063069.273   -17549569.9854   21063067.2874         48.500
        41.7504
 -15526824.270    21832572.583   -11933762.2744   21832572.2234         46.000
        36.0004
  -3021394.941    23672888.430    -2331461.7724   23672888.4504         41.000
        28.5004
 11  3 11  2  3 30.0000000  0  8G 2G 4G 5G 7G 8G10G26G29
 -23195194.195    19820335.049   -18052820.9724   19820330.5074         54.000
        50.5004
 -17256852.715    21676144.445   -13402112.5444   21676144.1744         49.000
        38.2504
 -19155105.609    20959658.672   -14873683.1984   20959656.2364         50.500
        43.5004
 -13779349.684    22881996.133   -10727124.5054   22881994.5224         46.250
        35.0004
 -12889042.473    23136941.496    -9925275.2354   23136941.0344         46.250
        30.7504
 -22575225.664    21070262.506   -17520115.0744   21070260.2454         49.500
        41.7504
 -15637171.648    21811574.124   -12019747.2064   21811573.6074         46.250
        36.7504
  -3087795.441    23660253.021    -2383202.4294   23660252.3504         40.500
        29.5004
 11  3 11  2  4  0.0000000  0  8G 2G 4G 5G 7G 8G10G26G29
 -23205772.012    19818322.069   -18061063.4494   19818317.7834         54.000
        50.5004
 -17193163.477    21688264.277   -13352484.6374   21688263.9124         49.500
        38.5004
 -19192252.258    20952589.322   -14902628.6494   20952587.7864         50.500
        44.2504
 -13801816.316    22877719.699   -10744630.9854   22877719.1494         44.500
        33.7504
 -12964054.977    23122667.505    -9983726.4904   23122667.4984         46.500
        31.5004
 -22537260.270    21077487.231   -17490531.7054   21077485.3224         50.250
        41.7504
 -15747162.371    21790643.691   -12105454.2284   21790642.6564         48.250
        36.2504
  -3153730.500    23647706.144    -2434580.3824   23647706.0244         41.250
        28.2504
 11  3 11  2  4 30.0000000  0  8G 2G 4G 5G 7G 8G10G26G29
 -23215845.820    19816405.281   -18068913.1994   19816400.7744         53.250
        50.5004
 -17129150.047    21700445.768   -13302604.1284   21700444.9194         49.750
        38.7504
 -19229204.852    20945557.848   -14931422.8664   20945555.7224         50.750
        44.5004
 -13823751.340    22873546.014   -10761723.2484   22873545.1114         46.000
        34.2504
 -13038755.105    23108451.568   -10041934.3534   23108452.3864         45.500
        32.0004
 -22499129.363    21084742.971   -17460819.3574   21084741.4644         50.250
        41.5004
 -15856793.098    21769781.096   -12190880.7294   21769780.7544         47.250
        36.2504
  -3219197.570    23635248.471    -2485593.7044   23635248.5554         41.000
        28.2504
 11  3 11  2  5  0.0000000  0  8G 2G 4G 5G 7G 8G10G26G29
 -23225416.238    19814583.918   -18076370.7044   19814579.2954         53.000
        50.5004
 -17064815.410    21712688.085   -13252473.3284   21712687.3684         50.000
        38.5004
 -19265965.062    20938562.541   -14960067.1964   20938560.4214         50.000
        43.5004
 -13845155.273    22869473.026   -10778401.6464   22869472.6234         46.250
        35.5004
 -13113142.410    23094296.489   -10099898.4594   23094296.7614         44.750
        32.0004
 -22460835.605    21092030.497   -17430980.1114   21092028.7134         51.500
        41.7504
 -15966063.254    21748987.952   -12276026.2814   21748987.4274         47.500
        36.0004
  -3284196.891    23622878.908    -2536242.5244   23622879.1134         40.500
        29.2504
 11  3 11  2  5 30.0000000  0  8G 2G 4G 5G 7G 8G10G26G29
 -23234481.789    19812858.938   -18083434.7834   19812854.3504         53.500
        50.5004
 -17000160.031    21724991.581   -13202092.6274   21724990.7404         49.500
        38.0004
 -19302533.301    20931603.832   -14988561.9294   20931601.9314         48.750
        44.0004
 -13866026.828    22865501.537   -10794665.2114   22865500.4244         45.000
        34.0004
 -13187213.645    23080200.571   -10157616.2444   23080201.0044         45.000
        31.0004
 -22422379.129    21099348.736   -17401014.0534   21099346.5984         50.750
        41.7504
 -16074970.230    21728263.818   -12360888.8394   21728262.6674         47.500
        36.5004
  -3348725.793    23610599.822    -2586524.7544   23610599.8014         41.000
        29.2504
 11  3 11  2  6  0.0000000  0  8G 2G 4G 5G 7G 8G10G26G29
 -23243038.316    19811230.712   -18090102.2434   19811225.9954         52.500
        50.5004
 -16935181.762    21737356.578   -13151460.2914   21737355.6954         49.000
        38.0004
 -19338906.312    20924682.235   -15016904.5354   20924680.4734         48.500
        43.7504
 -13886361.742    22861631.418   -10810510.6554   22861630.1414         44.500
        34.5004
 -13260962.312    23066167.271   -10215082.6924   23066166.4364         44.750
        29.5004
 -22383757.297    21106697.832   -17370919.1694   21106696.1414         50.000
        41.7504
 -16183508.703    21707609.073   -12445464.2394   21707609.1304         48.000
        36.0004
  -3412780.020    23598409.890    -2636437.1334   23598410.4724         40.000
        27.7504
 11  3 11  2  6 30.0000000  0  8G 2G 4G 5G 7G 8G10G26G29
 -23251089.098    19809698.635   -18096375.6104   19809693.9294         54.000
        50.5004
 -16869886.156    21749782.321   -13100580.6704   21749781.6604         49.000
        37.7504
 -19375088.848    20917797.109   -15045098.7344   20917794.9094         50.500
        44.2504
 -13906163.551    22857863.941   -10825940.6694   22857862.5834         45.000
        34.0004
 -13334390.574    23052194.000   -10272299.4554   23052193.0414         46.500
        32.0004
 -22344975.574    21114077.720   -17340699.6714   21114075.8784         50.000
        41.0004
 -16291680.758    21687024.856   -12529754.1364   21687024.2244         47.250
        36.7504
  -3476362.375    23586310.647    -2685981.8374   23586310.2194         40.250
        26.2504
 11  3 11  2  7  0.0000000  0  8G 2G 4G 5G 7G 8G10G26G29
 -23258636.094    19808262.601   -18102256.4334   19808258.2554         52.750
        50.5004
 -16804276.809    21762267.198   -13049456.5814   21762266.5644         48.500
        38.2504
 -19411083.703    20910947.245   -15073146.6874   20910945.2524         48.250
        44.2504
 -13925433.699    22854196.698   -10840956.3874   22854195.3404         45.000
        34.5004
 -13407497.992    23038282.215   -10329266.2244   23038282.0484         45.750
        31.2504
 -22306037.023    21121487.541   -17310357.9744   21121486.0914         50.250
        41.0004
 -16399486.895    21666510.022   -12613758.8954   21666509.5804         47.500
        37.0004
  -3539473.930    23574301.178    -2735159.6984   23574300.9474         41.750
        28.0004
 11  3 11  2  7 30.0000000  0  8G 2G 4G 5G 7G 8G10G26G29
 -23265680.840    19806922.000   -18107745.8824   19806917.7304         54.000
        50.5004
 -16738357.344    21774811.401   -12998090.8524   21774810.6824         49.000
        38.0004
 -19446893.578    20904132.973   -15101050.4744   20904130.7934         50.250
        44.2504
 -13944173.969    22850630.324   -10855559.2184   22850629.1974         45.500
        33.5004
 -13480284.781    23024431.700   -10385983.1984   23024431.6184         46.250
        32.0004
 -22266945.141    21128926.727   -17279896.8064   21128924.8194         50.500
        41.2504
 -16506927.586    21646064.779   -12697478.8924   21646064.0624         47.250
        36.5004
  -3602116.000    23562380.857    -2783971.7114   23562380.7584         41.750
        27.7504
 11  3 11  2  8  0.0000000  0  8G 2G 4G 5G 7G 8G10G26G29
 -23272219.613    19805677.847   -18112841.0624   19805673.4144         53.000
        50.5004
 -16672126.082    21787414.935   -12946482.1524   21787414.2754         49.000
        37.7504
 -19482515.629    20897354.429   -15128807.9334   20897352.4974         48.250
        44.2504
 -13962380.484    22847165.994   -10869746.1544   22847164.9454         45.750
        34.0004
 -13552745.039    23010642.814   -10442445.7124   23010642.7014         46.250
        31.5004
 -22227697.516    21136395.079   -17249314.2374   21136393.2544         51.000
        41.0004
 -16613997.492    21625689.808   -12780909.9824   21625689.1994         47.500
        36.5004
  -3664283.609    23550551.708    -2832414.0374   23550551.0554         42.500
        28.5004
 11  3 11  2  8 30.0000000  0  8G 2G 4G 5G 7G 8G10G26G29
 -23278245.504    19804531.070   -18117536.6054   19804526.7684         53.500
        50.5004
 -16605578.324    21800078.235   -12894626.8264   21800077.7444         49.500
        37.5004
 -19517944.555    20890612.169   -15156414.8964   20890610.1574         48.250
        44.2504
 -13980046.574    22843804.553   -10883511.9974   22843802.8194         46.250
        33.7504
 -13624870.406    22996917.913   -10498647.2764   22996917.4754         45.500
        31.2504
 -22188289.090    21143894.080   -17218606.4464   21143892.3874         50.250
        41.0004
 -16720688.848    21605387.120   -12864046.0944   21605386.7384         47.750
        36.5004
  -3725969.895    23538812.722    -2880481.2524   23538812.0124         39.000
        28.2504
 11  3 11  2  9  0.0000000  0  8G 2G 4G 5G 7G 8G10G26G29
 -23283757.461    19803482.339   -18121831.6834   19803477.8874         53.500
        50.5004
 -16538714.703    21812802.368   -12842525.4144   21812801.4834         49.750
        37.0004
 -19553180.496    20883906.915   -15183871.4914   20883905.3404         50.500
        44.0004
 -13997171.125    22840545.934   -10896855.8444   22840544.7774         46.000
        34.2504
 -13696657.945    22983256.644   -10554585.5694   22983256.7834         46.250
        32.0004
 -22148720.227    21151423.931   -17187773.6234   21151422.0304         50.500
        41.0004
 -16826999.301    21585157.137   -12946885.4004   21585156.4684         47.750
        37.2504
  -3787172.926    23527165.823    -2928171.9364   23527165.9404         37.500
        28.5004
 11  3 11  2  9 30.0000000  0  8G 2G 4G 5G 7G 8G10G26G29
 -23288754.504    19802531.405   -18125725.5284   19802527.1154         54.000
        50.2504
 -16471536.320    21825585.946   -12790178.7314   21825585.5964         50.250
        37.7504
 -19588222.867    20877238.771   -15211177.2534   20877236.8144         50.000
        44.5004
 -14013753.062    22837390.041   -10909776.9014   22837389.6884         46.500
        33.7504
 -13768104.484    22969660.470   -10610258.1504   22969660.9024         45.500
        31.5004
 -22108991.344    21158984.192   -17156816.0924   21158982.4624         51.000
        41.2504
 -16932926.137    21564999.752   -13029425.7914   21564999.0674         48.000
        38.0004
  -3847891.078    23515612.057    -2975484.8124   23515611.8144         39.000
        30.0004
 11  3 11  2 10  0.0000000  0  8G 2G 4G 5G 7G 8G10G26G29
 -23293234.383    19801678.861   -18129216.3904   19801674.7874         52.500
        50.2504
 -16404042.879    21838429.818   -12737586.5664   21838429.3904         49.000
        38.0004
 -19623070.707    20870607.736   -15238331.4274   20870605.4294         51.000
        44.0004
 -14029790.215    22834338.833   -10922273.4394   22834337.8524         46.500
        33.5004
 -13839206.230    22956130.237   -10665662.0454   22956131.1084         45.500
        31.7504
 -22069101.539    21166575.436   -17125733.1764   21166573.3164         51.250
        41.5004
 -17038465.961    21544916.266   -13111664.6084   21544915.9704         48.000
        37.5004
  -3908121.504    23504150.502    -3022417.5984   23504150.5564         41.500
        29.5004
 11  3 11  2 10 30.0000000  0  8G 2G 4G 5G 7G 8G10G26G29
 -23297196.836    19800924.828   -18132304.0504   19800920.8184         51.750
        50.2504
 -16336235.941    21851332.663   -12684750.1024   21851332.5764         48.500
        37.5004
 -19657724.746    20864013.013   -15265334.5894   20864011.1104         48.250
        44.0004
 -14045282.379    22831390.868   -10934345.2914   22831389.6734         46.750
        34.7504
 -13909960.848    22942666.109   -10720795.4884   22942667.1754         44.750
        32.5004
 -22029052.250    21174196.598   -17094525.9964   21174194.6164         51.000
        41.5004
 -17143617.227    21524906.936   -13193600.6464   21524906.0434         48.250
        37.7504
  -3967863.176    23492782.279    -3068969.5664   23492782.0514         40.500
        30.0004
 11  3 11  2 11  0.0000000  0  8G 2G 4G 5G 7G 8G10G26G29
 -23300642.793    19800269.508   -18134989.2644   19800264.9924         52.750
        50.2504
 -16268118.453    21864295.250   -12631671.6564   21864294.7604         48.250
        37.2504
 -19692187.004    20857455.276   -15292188.3204   20857453.0754         48.750
        43.7504
 -14060230.762    22828545.793   -10945993.4174   22828545.2184         46.000
        33.7504
 -13980367.766    22929268.708   -10775657.9864   22929269.8844         45.500
        33.5004
 -21988846.059    21181847.467   -17063196.5474   21181845.5884         49.750
        40.5004
 -17248379.691    21504970.895   -13275233.7404   21504970.4704         48.500
        37.5004
  -4027116.969    23481506.380    -3115141.3514   23481506.4874         40.250
        30.2504
 11  3 11  2 11 30.0000000  0  8G 2G 4G 5G 7G 8G10G26G29
 -23303571.750    19799711.727   -18137271.6204   19799707.8034         52.750
        50.5004
 -16199691.762    21877316.623   -12578352.2414   21877315.9414         48.000
        37.5004
 -19726457.691    20850933.742   -15318892.7704   20850931.8354         49.000
        44.0004
 -14074634.555    22825805.039   -10957217.1964   22825803.7434         47.250
        33.0004
 -14050424.109    22915937.328   -10830247.3074   22915937.2064         45.250
        32.5004
 -21948483.570    21189527.915   -17031745.2774   21189526.3844         49.750
        41.0004
 -17352751.402    21485109.770   -13356562.3404   21485109.1744         49.000
        38.0004
  -4085881.344    23470323.929    -3160931.7934   23470323.8824         40.750
        31.2504
 11  3 11  2 12  0.0000000  0  8G 2G 4G 5G 7G 8G10G26G29
 -23305980.020    19799253.766   -18139148.2414   19799249.4554         52.250
        50.5004
 -16130953.938    21890396.893   -12524790.3914   21890396.6614         47.500
        37.2504
 -19760534.102    20844449.533   -15345445.8304   20844447.2694         49.250
        44.2504
 -14088489.863    22823168.636   -10968013.5754   22823167.0074         47.000
        33.5004
 -14120124.609    22902674.296   -10884559.3354   22902672.2924         46.500
        32.0004
 -21907962.672    21197238.543   -17000170.6104   21197236.9964         49.000
        40.5004
 -17456727.398    21465323.626   -13437582.5924   21465323.3744         48.250
        37.7504
  -4144151.805    23459235.356    -3206337.3644   23459234.8454         41.500
        31.0004
 11  3 11  2 12 30.0000000  0  8G 2G 4G 5G 7G 8G10G26G29
 -23307867.203    19798894.746   -18140618.8194   19798890.4184         52.750
        50.5004
 -16061906.977    21903535.969   -12470987.6444   21903536.4064         47.500
        37.7504
 -19794417.254    20838001.826   -15371848.2954   20838000.0084         49.000
        44.2504
 -14101796.863    22820636.090   -10978382.7004   22820634.7864         45.500
        34.0004
 -14189467.020    22889477.991   -10938592.3654   22889477.4554         46.500
        31.7504
 -21867284.340    21204979.923   -16968473.2374   21204978.1364         50.500
        41.2504
 -17560305.984    21445613.236   -13518293.1774   21445613.0434         48.750
        37.5004
  -4201927.664    23448240.358    -3251357.5274   23448241.0844         41.000
        29.0004
 11  3 11  2 13  0.0000000  0  8G 2G 4G 5G 7G 8G10G26G29
 -23309233.789    19798634.442   -18141683.7344   19798630.3334         52.000
        50.2504
 -15992553.211    21916734.188   -12416945.8494   21916733.4324         47.500
        37.0004
 -19828108.168    20831590.247   -15398100.9824   20831588.5924         50.500
        44.2504
 -14114556.059    22818207.713   -10988324.9864   22818207.0184         45.500
        33.0004
 -14258450.008    22876351.189   -10992345.3064   22876350.4794         45.750
        32.0004
 -21826450.555    21212750.373   -16936654.7974   21212748.4974         50.250
        41.0004
 -17663486.309    21425979.004   -13598693.4244   21425978.3344         48.750
        37.7504
  -4259209.105    23437340.893    -3295992.4044   23437340.7824         42.000
        30.0004
 11  3 11  2 13 30.0000000  0  8G 2G 4G 5G 7G 8G10G26G29
 -23310077.414    19798474.184   -18142341.1424   19798469.8894         50.250
        50.2504
 -15922892.008    21929989.977   -12362664.5074   21929990.2064         47.000
        36.5004
 -19861605.199    20825216.021   -15424202.5764   20825214.0914         49.250
        44.5004
 -14126764.926    22815884.718   -10997838.4254   22815884.1314         45.750
        34.0004
 -14327068.953    22863293.463   -11045814.5934   22863293.7164         46.500
        32.5004
 -21785459.902    21220550.851   -16904714.0244   21220549.1204         49.750
        41.2504
 -17766264.539    21406420.696   -13678780.3484   21406420.5714         48.500
        38.2504
  -4315992.691    23426534.946    -3340239.3734   23426534.9164         42.750
        30.2504
 11  3 11  2 14  0.0000000  0  8G 2G 4G 5G 7G 8G10G26G29
 -23310400.629    19798412.499   -18142593.0514   19798408.8714         52.500
        50.2504
 -15852927.770    21943304.079   -12308147.0424   21943303.9284         48.000
        37.0004
 -19894912.012    20818877.931   -15450155.9614   20818876.0744         49.500
        44.7504
 -14138426.133    22813666.043   -11006925.0764   22813665.0954         45.250
        34.2504
 -14395324.602    22850304.367   -11099000.7924   22850305.7854         45.500
        33.0004
 -21744316.301    21228379.926   -16872654.1324   21228378.3924         49.500
        40.7504
 -17868641.840    21386938.634   -13758554.8614   21386938.6144         48.750
        38.5004
  -4372280.594    23415823.921    -3384100.1084   23415824.1064         42.000
        29.7504
 11  3 11  2 14 30.0000000  0  8G 2G 4G 5G 7G 8G10G26G29
 -23310200.582    19798450.547   -18142437.2234   19798446.5914         53.250
        50.2504
 -15782659.352    21956675.914   -12253392.5654   21956675.5814         48.000
        36.2504
 -19928026.008    20812576.593   -15475959.0854   20812574.8224         49.500
        44.5004
 -14149536.590    22811551.487   -11015582.6064   22811550.8944         46.000
        34.7504
 -14463211.961    22837385.891   -11151899.9934   22837387.4464         46.000
        32.2504
 -21703018.363    21236238.680   -16840473.9924   21236236.9024         50.000
        40.0004
 -17970613.672    21367534.213   -13838013.4204   21367534.0734         48.500
        39.0004
  -4428069.293    23405208.097    -3427571.8354   23405207.8924         43.250
        29.5004
 11  3 11  2 15  0.0000000  0  8G 2G 4G 5G 7G 8G10G26G29
 -23309477.434    19798588.130   -18141873.7804   19798584.1954         53.250
        50.2504
 -15712089.258    21970104.811   -12198403.0004   21970104.4144         48.000
        37.2504
 -19960948.965    20806311.385   -15501613.3524   20806309.5864         51.750
        44.5004
 -14160097.344    22809542.151   -11023811.7994   22809540.9464         45.750
        33.5004
 -14530730.066    22824537.804   -11204511.4644   22824537.1514         46.000
        32.0004
 -21661568.000    21244126.413   -16808175.0564   21244124.3834         50.000
        41.0004
 -18072179.695    21348207.162   -13917155.7654   21348206.7934         48.750
        38.7504
  -4483358.461    23394686.712    -3470654.3304   23394686.7054         43.500
        29.7504
 11  3 11  2 15 29.9990000  0  8G 2G 4G 5G 7G 8G10G26G29
 -23308229.496    19798825.967   -18140901.4194   19798822.2754         52.250
        50.2504
 -15641219.738    21983590.639   -12143180.1254   21983590.7354         48.000
        37.0004
 -19993678.445    20800083.173   -15527116.8694   20800081.6514         50.250
        45.0004
 -14170105.645    22807637.431   -11031610.5244   22807636.4324         44.500
        33.7504
 -14597872.625    22811761.229   -11256830.3354   22811760.3744         46.250
        32.5004
 -21619965.551    21252043.167   -16775757.6264   21252041.5754         49.250
        41.2504
 -18173332.691    21328958.159   -13995976.2784   21328958.2514         48.250
        39.0004
  -4538143.645    23384260.921    -3513344.1114   23384260.9574         43.000
        30.2504
 11  3 11  2 15 59.9990000  0  8G 2G 4G 5G 7G 8G10G26G29
 -23306456.508    19799163.224   -18139519.9074   19799159.6874         51.500
        50.2504
 -15570047.648    21997134.737   -12087721.4624   21997134.6294         48.750
        37.0004
 -20026217.312    20793891.592   -15552471.8254   20793889.5294         51.500
        44.7504
 -14179562.426    22805837.984   -11038979.4754   22805837.0254         46.250
        34.7504
 -14664642.172    22799055.967   -11308858.5344   22799054.5994         46.000
        32.5004
 -21578209.375    21259988.938   -16743220.3834   21259987.8804         49.750
        40.0004
 -18274078.117    21309787.007   -14074479.2044   21309786.6194         48.250
        38.7504
  -4592427.812    23373931.202    -3555643.4994   23373930.8534         44.000
        30.2504
 11  3 11  2 16 29.9990000  0  8G 2G 4G 5G 7G 8G10G26G29
 -23304158.203    19799600.562   -18137729.0714   19799596.6834         51.500
        50.0004
 -15498576.906    22010734.754   -12032030.0654   22010734.8214         48.750
        36.7504
 -20058564.820    20787736.192   -15577677.6924   20787733.9584         51.250
        44.5004
 -14188467.195    22804143.754   -11045918.2894   22804142.7154         45.500
        34.0004
 -14731033.445    22786421.312   -11360591.9614   22786421.7614         46.000
        33.7504
 -21536301.309    21267963.945   -16710564.7814   21267962.4424         49.750
        40.5004
 -18374410.719    21290694.918   -14152660.4424   21290693.4044         48.000
        38.7504
  -4646208.508    23363696.945    -3597550.5394   23363696.6204         45.000
        30.0004
 11  3 11  2 16 59.9990000  0  8G 2G 4G 5G 7G 8G10G26G29
 -23301334.289    19800138.056   -18135528.6504   19800134.1534         53.250
        50.0004
 -15426809.145    22024392.415   -11976107.2454   22024391.8984         48.750
        36.0004
 -20090721.531    20781616.949   -15602734.8894   20781614.9154         51.250
        44.5004
 -14196819.387    22802554.230   -11052426.5214   22802553.2804         45.000
        34.5004
 -14797044.863    22773859.814   -11412029.4024   22773860.3424         45.500
        33.0004
 -21494242.730    21275967.387   -16677791.9294   21275966.0034         49.500
        40.0004
 -18474329.113    21271680.772   -14230518.9294   21271679.9314         48.500
        39.2504
  -4699484.840    23353558.530    -3639064.6044   23353559.0194         44.000
        30.0004
 11  3 11  2 17 29.9990000  0  8G 2G 4G 5G 7G 8G10G26G29
 -23297983.668    19800775.539   -18132917.8234   19800771.9534         53.250
        50.0004
 -15354744.973    22038105.643   -11919953.4854   22038105.1014         50.250
        36.2504
 -20122686.750    20775534.138   -15627642.8834   20775532.0234         51.000
        44.7504
 -14204618.219    22801069.670   -11058503.5704   22801069.1994         44.750
        33.7504
 -14862673.047    22761370.665   -11463168.2264   22761371.4834         45.000
        33.0004
 -21452033.227    21283999.853   -16644901.4784   21283998.0554         51.000
        40.0004
 -18573830.477    21252746.095   -14308052.4654   21252745.3134         49.500
        38.2504
  -4752254.750    23343517.147    -3680184.0434   23343516.8644         44.500
        30.5004
 11  3 11  2 17 59.9990000  0  8G 2G 4G 5G 7G 8G10G26G29
 -23294105.430    19801513.876   -18129895.8764   19801509.7894         53.750
        50.0004
 -15282385.234    22051874.883   -11863569.3974   22051874.3104         49.000
        35.7504
 -20154460.270    20769487.793   -15652401.4774   20769486.0864         52.500
        44.5004
 -14211862.965    22799692.044   -11064148.8524   22799690.1624         45.000
        34.0004
 -14927914.848    22748955.540   -11514005.9794   22748955.6644         43.750
        32.5004
 -21409673.145    21292060.835   -16611893.6454   21292059.0634         50.250
        40.5004
 -18672912.652    21233891.108   -14385259.3494   21233890.9254         48.750
        39.0004
  -4804516.707    23333571.646    -3720907.6784   23333571.7584         44.750
        30.2504
 11  3 11  2 18 29.9990000  0  8G 2G 4G 5G 7G 8G10G26G29
 -23289699.586    19802352.224   -18126462.7934   19802348.1634         53.500
        50.0004
 -15209731.730    22065700.940   -11806956.3904   22065700.4494         49.000
        35.2504
 -20186042.840    20763477.504   -15677011.2974   20763476.0804         51.000
        44.7504
 -14218553.672    22798418.480   -11069362.3984   22798417.4684         44.750
        33.7504
 -14992768.555    22736615.231   -11564541.3004   22736614.3854         46.000
        32.5004
 -21367163.902    21300149.747   -16578769.6164   21300148.3784         50.250
        40.5004
 -18771574.062    21215116.700   -14462138.3684   21215116.2534         48.500
        39.0004
  -4856270.352    23323723.264    -3761235.2094   23323723.5634         44.000
        29.7504
 11  3 11  2 18 59.9990000  0  8G 2G 4G 5G 7G 8G10G26G29
 -23284766.465    19803290.907   -18122618.8374   19803287.0894         53.500
        50.0004
 -15136786.895    22079582.188   -11750116.3654   22079582.1914         47.500
        36.0004
 -20217435.773    20757503.915   -15701473.3384   20757502.2084         50.750
        44.5004
 -14224691.199    22797250.841   -11074144.8904   22797249.6674         47.000
        34.5004
 -15057232.613    22724348.123   -11614773.0144   22724347.2624         45.250
        32.5004
 -21324507.035    21308267.529   -16545530.5414   21308265.9714         48.250
        40.0004
 -18869814.008    21196422.070   -14538688.9804   21196421.8794         49.000
        39.5004
  -4907515.617    23313972.196    -3801166.5934   23313972.0534         44.000
        30.5004
 11  3 11  2 19 29.9990000  0  8G 2G 4G 5G 7G 8G10G26G29
 -23279306.559    19804330.078   -18118364.4174   19804325.7414         53.750
        50.0004
 -15063552.578    22093517.835   -11693050.7724   22093518.1944         47.000
        35.7504
 -20248639.293    20751565.980   -15725787.7704   20751564.3364         51.750
        44.7504
 -14230275.445    22796187.661   -11078496.2854   22796187.2164         46.000
        35.0004
 -15121305.352    22712154.930   -11664699.7944   22712155.5484         46.750
        33.7504
 -21281703.133    21316412.455   -16512176.9054   21316411.3174         49.500
        40.5004
 -18967630.969    21177808.133   -14614909.9904   21177807.9384         48.750
        39.2504
  -4958251.688    23304316.876    -3840701.2194   23304317.1654         43.750
        30.0004
 11  3 11  2 19 59.9990000  0  8G 2G 4G 5G 7G 8G10G26G29
 -23273316.137    19805469.843   -18113696.5904   19805465.9074         54.000
        49.7504
 -14990027.148    22107509.272   -11635758.3424   22107510.1224         48.250
        36.0004
 -20279650.793    20745664.779   -15749952.5924   20745663.0624         49.000
        44.5004
 -14235303.055    22795231.356   -11082413.9144   22795230.3754         45.750
        34.0004
 -15184981.504    22700037.376   -11714317.5894   22700038.0984         45.500
        34.0004
 -21238750.070    21324586.576   -16478707.0574   21324584.5794         50.000
        40.5004
 -19065020.105    21159275.867   -14690797.6214   21159275.2754         49.250
        39.0004
  -5008474.883    23294759.818    -3879836.2144   23294759.8164         43.750
        30.0004
 11  3 11  2 20 29.9990000  0  8G 2G 4G 5G 7G 8G10G26G29
 -23266795.395    19806710.697   -18108615.5464   19806707.1424         54.500
        49.5004
 -14916212.371    22121555.858   -11578240.4644   22121556.4984         47.250
        35.5004
 -20310471.070    20739799.754   -15773968.4054   20739797.7314         48.000
        44.5004
 -14239774.574    22794380.385   -11085898.2304   22794379.3204         44.750
        34.7504
 -15248259.137    22687996.221   -11763624.8294   22687996.4384         43.500
        33.0004
 -21195648.969    21332788.381   -16445121.8554   21332787.0704         49.000
        40.0004
 -19161980.031    21140824.852   -14766350.8064   21140824.3234         49.000
        39.0004
  -5058184.473    23285300.518    -3918570.9814   23285300.9444         43.750
        30.2504
 11  3 11  2 20 59.9990000  0  8G 2G 4G 5G 7G 8G10G26G29
 -23259743.797    19808052.624   -18103120.8424   19808048.4914         54.000
        49.7504
 -14842109.570    22135657.463   -11520498.1174   22135658.1604         47.750
        35.7504
 -20341100.281    20733971.406   -15797835.3484   20733969.3734         51.000
        44.7504
 -14243689.445    22793635.091   -11088948.7844   22793634.3694         45.500
        34.0004
 -15311135.188    22676031.603   -11812619.1894   22676031.6684         45.500
        34.2504
 -21152400.250    21341018.082   -16411421.6014   21341017.4204         49.750
        40.5004
 -19258508.977    21122456.157   -14841568.1654   21122455.2534         49.500
        39.7504
  -5107379.379    23275939.624    -3956904.6854   23275939.2334         43.250
        29.5004
 11  3 11  2 21 29.9990000  0  8G 2G 4G 5G 7G 8G10G26G29
 -23252158.852    19809495.844   -18097210.5274   19809492.2034         54.000
        49.7504
 -14767717.754    22149813.710   -11462530.5864   22149813.5924         47.750
        35.7504
 -20371536.016    20728179.718   -15821551.5264   20728177.7234         49.750
        44.7504
 -14247045.402    22792996.640   -11091563.8334   22792996.0434         45.500
        34.7504
 -15373605.383    22664143.929   -11861297.2944   22664143.9724         45.250
        33.2504
 -21109002.348    21349276.947   -16377605.1274   21349275.5274         49.000
        40.2504
 -19354602.781    21104170.153   -14916446.4504   21104169.6924         50.000
        40.0004
  -5156056.629    23266675.876    -3994835.0394   23266675.8884         41.000
        29.0004
 11  3 11  2 21 59.9990000  0  8G 2G 4G 5G 7G 8G10G26G29
 -23244039.719    19811040.980   -18090883.9724   19811037.2064         54.000
        49.5004
 -14693038.262    22164025.136   -11404338.8924   22164025.2124         46.000
        34.5004
 -20401777.863    20722424.594   -15845116.6184   20722422.8834         51.250
        44.7504
 -14249842.016    22792464.831   -11093743.0314   22792463.1034         45.000
        34.0004
 -15435667.109    22652333.389   -11909657.0934   22652333.8314         43.750
        33.2504
 -21065455.406    21357563.573   -16343672.4854   21357562.2764         48.250
        40.2504
 -19450259.309    21085967.041   -14990983.9954   21085966.6614         50.000
        39.7504
  -5204215.066    23257511.893    -4032361.1384   23257511.8064         41.500
        28.7504
 11  3 11  2 22 29.9990000  0  8G 2G 4G 5G 7G 8G10G26G29
 -23235389.891    19812687.227   -18084143.8904   19812683.3454         54.500
        49.5004
 -14618076.039    22178289.682   -11345926.9034   22178289.8694         47.250
        35.0004
 -20431830.117    20716706.256   -15868533.9764   20716704.1704         47.500
        44.7504
 -14252082.508    22792038.220   -11095488.8754   22792037.6464         45.500
        34.5004
 -15497321.602    22640601.262   -11957699.5464   22640601.8214         44.250
        34.0004
 -21021764.086    21365877.921   -16309627.3434   21365876.2874         49.750
        40.0004
 -19545480.496    21067847.249   -15065182.3084   21067846.3724         49.750
        40.2504
  -5251857.418    23248446.034    -4069485.0624   23248446.0374         41.250
        29.2504
 11  3 11  2 22 59.9990000  0  8G 2G 4G 5G 7G 8G10G26G29
 -23226209.543    19814434.190   -18076990.4154   19814430.5984         54.500
        49.5004
 -14542832.980    22192608.179   -11287296.1074   22192608.1364         44.750
        35.0004
 -20461693.496    20711023.591   -15891804.1624   20711021.2724         48.000
        45.0004
 -14253767.297    22791717.347   -11096801.7094   22791716.6414         45.250
        33.7504
 -15558566.918    22628947.117   -12005423.2064   22628947.5284         45.500
        34.2504
 -20977929.172    21374219.547   -16275470.3394   21374218.3084         48.750
        39.5004
 -19640265.125    21049810.545   -15139040.4604   21049809.4574         49.000
        40.0004
  -5298983.062    23239478.417    -4106206.3994   23239478.3594         42.250
        30.0004
 11  3 11  2 23 29.9990000  0  9G 2G 4G 5G 7G 8G10G15G26G29
 -23216498.500    19816281.967   -18069423.3984   19816278.3224         54.000
        49.2504
 -14467310.164    22206979.790   -11228447.2914   22206979.9064         47.000
        34.7504
 -20491367.582    20705376.700   -15914926.8484   20705374.8344         48.750
        45.2504
 -14254896.215    22791502.941   -11097681.3814   22791501.4754         43.500
        33.7504
 -15619400.449    22617370.864   -12052825.9794   22617370.8784         44.500
        33.5004
 -20933950.883    21382587.818   -16241201.5804   21382586.7934         48.000
        40.0004
   -151894.2891   24277591.643

 -19734610.988    21031856.781   -15212556.7004   21031856.2354         49.250
        39.7504
  -5345590.832    23230609.529    -4142524.1514   23230608.7884         41.750
        30.5004
 11  3 11  2 23 59.9990000  0  9G 2G 4G 5G 7G 8G10G15G26G29
 -23206253.023    19818231.704   -18061439.9604   19818227.7524         54.000
        49.2504
 -14391505.625    22221405.087   -11169378.9424   22221405.1324         46.500
        34.7504
 -20520849.039    20699766.815   -15937899.4134   20699764.4814         50.250
        45.5004
 -14255465.832    22791394.236   -11098125.2694   22791393.6794         42.750
        34.0004
 -15679816.766    22605874.073   -12099903.6364   22605873.9474         43.500
        33.7504
 -20889826.352    21390984.508   -16206818.8724   21390983.3084         48.000
        39.2504
   -263394.797    24256374.690     -116525.9175   24256378.3284         33.750
        18.2505
 -19828512.965    21013987.481   -15285727.0694   21013987.5934         50.000
        39.7504
  -5391676.777    23221840.003    -4178435.3144   23221839.6344         43.500
        31.5004
 11  3 11  2 24 29.9990000  0  9G 2G 4G 5G 7G 8G10G15G26G29
 -23195474.461    19820282.861   -18053041.1254   19820279.1574         53.250
        49.2504
 -14315423.004    22235883.416   -11110093.9184   22235883.8654         46.750
        34.7504
 -20550139.805    20694192.909   -15960723.4064   20694190.9054         51.000
        45.0004
 -14255477.945    22791391.896   -11098134.7044   22791391.6894         43.750
        33.2504
 -15739815.246    22594455.955   -12146655.6934   22594455.7454         42.500
        33.0004
 -20845558.148    21399408.702   -16172324.2234   21399407.1074         48.750
        39.2504
   -374735.797    24235187.615     -203284.9924   24235191.3264         36.000
        20.5004
 -19921971.492    20996203.797   -15358551.8844   20996202.6424         49.000
        40.0004
  -5437241.699    23213169.207    -4213940.4894   23213168.5874         42.500
        31.5004
 11  3 11  2 24 59.9990000  0  9G 2G 4G 5G 7G 8G10G15G26G29
 -23184161.824    19822435.750   -18044226.1284   19822432.1204         53.750
        49.5004
 -14239062.652    22250414.318   -11050592.4944   22250415.1404         47.250
        34.5004
 -20579239.516    20688655.225   -15983398.5194   20688653.5374         52.250
        45.0004
 -14254931.469    22791496.252   -11097708.9154   22791495.2894         43.750
        34.0004
 -15799392.883    22583119.287   -12193079.8534   22583119.2704         43.500
        34.0004
 -20801145.840    21407860.336   -16137717.2924   21407858.9534         49.000
        39.7504
   -485914.895    24214030.623     -289917.9234   24214035.1624         39.250
        24.7504
 -20014983.773    20978503.554   -15431028.9644   20978503.1884         49.500
        40.5004
  -5482284.098    23204597.419    -4249038.5004   23204597.8024         41.750
        31.2504
 11  3 11  2 25 29.9990000  0  9G 2G 4G 5G 7G 8G10G15G26G29
 -23172315.383    19824690.062   -18034995.1964   19824686.5684         53.000
        49.2504
 -14162426.109    22264997.686   -10990875.8534   22264998.2174         46.000
        35.0004
 -20608148.363    20683153.893   -16005924.9204   20683152.0144         50.750
        44.7504
 -14253826.875    22791705.729   -11096848.1994   22791705.6014         42.500
        34.0004
 -15858547.566    22571862.407   -12239174.4314   22571862.3634         42.750
        34.0004
 -20756590.062    21416339.232   -16102998.5564   21416337.5304         48.500
        39.5004
   -596930.703    24192905.046     -376423.6594   24192909.7454         40.500
        25.5004
 -20107548.461    20960889.186   -15503157.2884   20960888.4714         50.750
        40.0004
  -5526803.516    23196125.701    -4283728.9904   23196126.1234         42.750
        32.7504
 11  3 11  2 25 59.9990000  0  9G 2G 4G 5G 7G 8G10G15G26G29
 -23159936.145    19827045.756   -18025349.1104   19827041.9934         53.000
        49.2504
 -14085516.496    22279633.318   -10930946.4204   22279633.7884         47.250
        34.7504
 -20636867.887    20677688.794   -16028303.7904   20677687.2854         50.750
        45.0004
 -14252165.137    22792022.421   -11095553.3204   22792021.1694         43.250
        33.2504
 -15917278.473    22560686.635   -12284938.8044   22560685.7434         43.250
        33.5004
 -20711893.059    21424844.355   -16068169.7714   21424843.5334         47.250
        40.0004
   -707783.570    24171810.749     -462802.4194   24171814.4244         40.000
        25.5004
 -20199665.145    20943359.674   -15574936.5184   20943359.2574         49.750
        40.2504
  -5570800.371    23187753.632    -4318012.2894   23187753.5274         42.000
        31.5004
 11  3 11  2 26 29.9990000  0  9G 2G 4G 5G 7G 8G10G15G26G29
 -23147023.520    19829502.770   -18015287.3714   19829499.1814         53.000
        49.0004
 -14008334.688    22294320.720   -10870804.8804   22294320.5484         47.500
        34.0004
 -20665397.605    20672259.920   -16050534.7554   20672257.7794         47.500
        45.2504
 -14249946.211    22792444.021   -11093824.2804   22792443.6594         42.500
        33.7504
 -15975583.023    22549591.893   -12330370.9404   22549591.3124         45.000
        34.0004
 -20667054.816    21433377.104   -16033230.9404   21433375.7734         47.500
        39.2504
   -818471.723    24150748.144     -549052.8604   24150751.7114         39.750
        24.2504
 -20291331.656    20925916.327   -15646364.9664   20925916.0644         49.750
        40.7504
  -5614273.570    23179480.640    -4351887.5534   23179481.2694         43.500
        31.5004
 11  3 11  2 26 59.9990000  0  9G 2G 4G 5G 7G 8G10G15G26G29
 -23133576.668    19832061.920   -18004809.3474   19832058.4244         52.250
        49.0004
 -13930881.246    22309059.951   -10810451.6904   22309060.2294         47.000
        34.2504
 -20693736.656    20666867.303   -16072617.1514   20666865.5444         47.750
        45.0004
 -14247169.066    22792973.196   -11091660.3144   22792972.2864         44.000
        34.5004
 -16033457.453    22538578.328   -12375467.9124   22538578.0894         42.500
        33.5004
 -20622074.691    21441936.498   -15998181.5644   21441934.9474         45.250
        39.0004
   -928992.575    24129716.112     -635172.8624   24129719.8274         39.000
        22.2504
 -20382545.605    20908558.792   -15717440.7594   20908558.4124         48.500
        41.0004
  -5657221.426    23171307.741    -4385353.4384   23171308.1984         41.750
        31.0004
 11  3 11  2 27 29.9990000  0  9G 2G 4G 5G 7G 8G10G15G26G29
 -23119595.969    19834722.284   -17993915.3654   19834718.7894         52.500
        49.2504
 -13853158.047    22323850.008   -10749888.3094   22323849.9794         47.250
        34.2504
 -20721885.867    20661510.201   -16094551.6314   20661508.6994         48.500
        45.2504
 -14243834.586    22793607.223   -11089062.0624   22793606.9794         44.250
        34.5004
 -16090900.645    22527647.653   -12420228.8584   22527647.2734         45.250
        33.5004
 -20576953.953    21450522.574   -15963022.5944   21450521.8314         46.500
        39.7504
  -1039345.117    24108716.635     -721161.7614   24108720.5454         38.500
        22.2504
 -20473305.887    20891287.908   -15788163.0694   20891287.4064         47.250
        41.0004
  -5699643.977    23163235.673    -4418410.0384   23163235.7814         44.250
        32.0004
 11  3 11  2 27 59.9990000  0  9G 2G 4G 5G 7G 8G10G15G26G29
 -23105074.309    19837485.836   -17982599.8604   19837482.4214         53.750
        49.0004
 -13775160.012    22338692.610   -10689110.8314   22338693.0114         47.250
        35.0004
 -20749838.297    20656191.174   -16116332.7904   20656189.2914         50.750
        45.0004
 -14239935.871    22794349.689   -11086024.1094   22794347.8684         44.500
        34.0004
 -16147903.512    22516800.391   -12464646.7024   22516800.0274         45.500
        34.0004
 -20531686.332    21459136.801   -15927749.2174   21459135.8134         48.500
        39.5004
  -1149521.309    24087751.030     -807013.2134   24087754.0884         43.000
        26.2504
 -20563603.617    20874104.754   -15858524.9294   20874104.1734         47.500
        40.7504
  -5741533.383    23155264.572    -4451051.2034   23155264.0984         45.250
        32.0004
 11  3 11  2 28 29.9990000  0  9G 2G 4G 5G 7G 8G10G15G26G29
 -23090008.875    19840352.762   -17970860.6234   19840349.1474         53.750
        49.0004
 -13696885.652    22353588.450   -10628117.9854   22353588.7154         47.750
        34.5004
 -20777591.352    20650910.187   -16137958.5774   20650908.5994         48.250
        45.5004
 -14235470.320    22795199.623   -11082544.4724   22795198.7314         45.250
        34.0004
 -16204460.961    22506037.730   -12508717.4644   22506037.4534         45.750
        34.0004
 -20486269.570    21467779.720   -15892359.6084   21467778.1164         48.250
        39.5004
  -1259516.652    24066819.526     -892723.8164   24066822.9204         43.500
        27.0004
 -20653434.797    20857010.376   -15928523.2734   20857009.8974         48.750
        41.0004
  -5782886.531    23147394.723    -4483274.4924   23147395.7604         44.250
        32.0004
 11  3 11  2 28 59.9990000  0  9G 2G 4G 5G 7G 8G10G15G26G29
 -23074403.621    19843322.627   -17958700.7214   19843319.0114         53.000
        48.7504
 -13618340.543    22368534.529   -10566914.1404   22368534.9184         47.250
        34.0004
 -20805149.062    20645666.144   -16159432.1444   20645664.5924         48.000
        45.5004
 -14230441.840    22796156.735   -11078626.1724   22796155.5544         45.000
        34.5004
 -16260574.781    22495359.467   -12552442.5144   22495359.1634         46.000
        34.2504
 -20440707.793    21476449.460   -15856856.9914   21476448.2674         48.000
        39.7504
  -1369333.914    24045921.923     -978295.6184   24045924.4274         42.500
        25.5004
 -20742801.594    20840004.161   -15998159.7324   20840004.1914         48.000
        40.7504
  -5823706.496    23139627.279    -4515082.2694   23139627.4254         42.750
        30.7504
 11  3 11  2 29 29.9990000  0  9G 2G 4G 5G 7G 8G10G15G26G29
 -23058261.398    19846394.096   -17946122.4194   19846390.5884         53.000
        48.7504
 -13539529.043    22383532.176   -10505502.7244   22383532.3354         46.750
        33.0004
 -20832514.211    20640458.818   -16180755.6774   20640456.8494         48.000
        45.2504
 -14224854.004    22797219.721   -11074272.0314   22797219.1634         45.250
        36.0004
 -16316245.938    22484766.074   -12595822.6454   22484765.3004         45.250
        34.7504
 -20395004.637    21485146.970   -15821244.1924   21485145.6164         47.750
        38.7504
  -1478974.727    24025057.249    -1063729.9574   24025060.0484         40.750
        25.0004
 -20831705.590    20823086.552   -16067435.5714   20823085.9184         48.500
        41.2504
  -5863995.867    23131960.118    -4546476.6554   23131960.8634         42.000
        31.0004
 11  3 11  2 29 59.9990000  0  9G 2G 4G 5G 7G 8G10G15G26G29
 -23041582.484    19849568.000   -17933125.9194   19849564.4164         51.000
        48.7504
 -13460452.602    22398580.025   -10443884.8974   22398580.3824         46.500
        34.0004
 -20859686.906    20635288.155   -16201929.2444   20635286.0214         48.750
        45.5004
 -14218706.680    22798389.832   -11069481.9414   22798389.1744         45.750
        34.7504
 -16371472.117    22474256.540   -12638856.0314   22474255.9804         45.000
        34.2504
 -20349160.258    21493870.593   -15785521.3434   21493869.3074         46.250
        39.5004
  -1588437.383    24004228.003    -1149025.3864   24004230.3084         42.000
        23.0004
 -20920144.949    20806257.238   -16136349.3534   20806256.9314         47.500
        41.2504
  -5903753.602    23124394.699    -4577456.7294   23124394.7824         43.250
        31.2504
 11  3 11  2 30 29.9990000  0  9G 2G 4G 5G 7G 8G10G15G26G29
 -23024367.098    19852844.050   -17919711.3884   19852840.7014         52.500
        48.5004
 -13381113.137    22413677.904   -10382062.0744   22413677.8884         45.750
        33.0004
 -20886668.043    20630153.507   -16222953.5484   20630152.0624         50.250
        44.7504
 -14212000.699    22799665.856   -11064256.5144   22799664.9544         44.500
        34.0004
 -16426251.758    22463832.306   -12681541.4694   22463832.1744         44.500
        34.7504
 -20303176.055    21502621.171   -15749689.5784   21502619.9034         48.000
        39.0004
  -1697721.457    23983431.794    -1234181.7914   23983434.7634         41.250
        25.2504
 -21008118.590    20789516.659   -16204900.2374   20789515.8564         47.750
        41.5004
  -5942980.227    23116930.489    -4608022.9984   23116931.1284         44.500
        32.0004
 11  3 11  2 30 59.9990000  0  9G 2G 4G 5G 7G 8G10G15G26G29
 -23006616.312    19856221.610   -17905879.6504   19856218.3894         52.250
        48.5004
 -13301513.355    22428825.158   -10320036.4034   22428825.9704         44.750
        34.2504
 -20913458.484    20625055.738   -16243829.2494   20625053.8504         49.500
        45.2504
 -14204737.258    22801048.000   -11058596.6984   22801047.5384         44.750
        33.7504
 -16480583.812    22453493.278   -12723878.1344   22453493.5294         46.000
        34.7504
 -20257053.598    21511398.258   -15713750.0574   21511396.3124         48.250
        39.0004
  -1806826.012    23962669.798    -1319198.2484   23962673.0364         42.500
        25.5004
 -21095626.211    20772864.173   -16273087.9894   20772863.5414         47.500
        41.5004
  -5981675.848    23109567.041    -4638175.4814   23109567.3874         43.500
        30.5004
 11  3 11  2 31 29.9990000  0  9G 2G 4G 5G 7G 8G10G15G26G29
 -22988330.160    19859701.570   -17891630.7554   19859697.9684         52.000
        48.5004
 -13221654.875    22444022.598   -10257809.1574   22444022.3374         44.750
        33.5004
 -20940057.906    20619993.722   -16264556.1064   20619991.9534         47.500
        45.0004
 -14196916.578    22802536.036   -11052502.6744   22802535.1964         45.000
        33.2504
 -16534466.070    22443240.074   -12765864.3064   22443239.5614         46.250
        34.5004
 -20210792.879    21520201.387   -15677702.7844   21520199.5334         46.000
        39.0004
  -1915749.754    23941942.294    -1404073.7864   23941945.7474         42.500
        27.0004
 -21182665.875    20756301.196   -16340911.0944   20756301.0904         48.500
        41.5004
  -6019839.391    23102304.381    -4667913.3404   23102306.1424         43.250
        31.0004
 11  3 11  2 31 59.9990000  0  9G 2G 4G 5G 7G 8G10G15G26G29
 -22969509.941    19863283.193   -17876965.7144   19863279.6494         52.750
        48.2504
 -13141540.301    22459267.739   -10195382.3564   22459268.8874         45.000
        34.0004
 -20966467.723    20614968.370   -16285135.2294   20614966.5794         51.500
        45.0004
 -14188540.074    22804129.581   -11045975.5494   22804129.4944         45.750
        34.2504
 -16587897.609    22433071.820   -12807499.2654   22433071.8084         46.500
        34.2504
 -20164395.902    21529030.471   -15641549.3424   21529028.7254         49.000
        39.0004
  -2024492.656    23921248.710    -1488808.4194   23921252.7794         41.000
        26.2504
 -21269237.707    20739826.967   -16408369.6574   20739826.5704         50.250
        41.2504
  -6057472.133    23095143.371    -4697237.6034   23095143.7204         43.500
        31.0004
 11  3 11  2 32 29.9990000  0  9G 2G 4G 5G 7G 8G10G15G26G29
 -22950153.457    19866966.530   -17861882.7924   19866962.9194         51.750
        48.2504
 -13061168.871    22474561.305   -10132755.4384   22474563.0654         43.750
        33.5004
 -20992685.891    20609979.279   -16305565.0234   20609977.5764         52.250
        45.5004
 -14179605.988    22805830.530   -11039013.9574   22805829.9644         45.750
        33.5004
 -16640873.883    22422990.758   -12848779.4704   22422990.9334         46.750
        35.0004
 -20117860.664    21537885.752   -15605288.1934   21537884.7394         48.750
        39.2504
  -2133051.027    23900590.168    -1573399.2894   23900594.5454         40.000
        25.2504
 -21355337.648    20723442.812   -16475460.5074   20723442.0184         49.000
        41.5004
  -6094571.184    23088083.728    -4726146.0154   23088083.9034         44.500
        31.2504
 11  3 11  2 32 59.9990000  0  9G 2G 4G 5G 7G 8G10G15G26G29
 -22930259.918    19870752.394   -17846381.3814   19870748.7574         52.000
        48.5004
 -12980541.449    22489904.581   -10069929.0844   22489906.4614         43.500
        33.5004
 -21018711.363    20605026.857   -16325844.6404   20605025.4584         49.750
        46.0004
 -14170113.852    22807636.676   -11031617.5104   22807635.6314         46.000
        34.0004
 -16693392.125    22412996.578   -12889702.7824   22412997.5084         47.000
        35.0004
 -20071186.859    21546767.522   -15568919.0384   21546766.2574         48.750
        39.2504
  -2241422.773    23879968.311    -1657844.7144   23879971.7224         40.500
        23.0004
 -21440963.406    20707148.628   -16542181.8714   20707148.0074         48.750
        41.2504
  -6131135.445    23081125.974    -4754637.6894   23081126.4704         44.750
        31.0004
 11  3 11  2 33 29.9990000  0  9G 2G 4G 5G 7G 8G10G15G26G29
 -22909831.387    19874639.638   -17830463.0974   19874636.2724         51.500
        48.2504
 -12899661.297    22505295.651   -10006905.7514   22505297.8564         44.000
        33.0004
 -21044546.070    20600110.619   -16345975.6364   20600108.8704         50.750
        45.0004
 -14160065.539    22809548.406   -11023787.6914   22809547.2114         46.500
        33.5004
 -16745452.527    22403090.312   -12930269.3134   22403090.0354         48.250
        35.2504
 -20024376.574    21555674.913   -15532443.5654   21555674.4564         48.500
        39.2504
  -2349608.125    23859380.889    -1742144.9384   23859384.3334         42.250
        25.2504
 -21526115.254    20690944.517   -16608533.9564   20690944.1764         49.500
        41.7504
  -6167166.223    23074269.072    -4782713.6874   23074270.2614         43.500
        31.2504
 11  3 11  2 33 59.9990000  0  9G 2G 4G 5G 7G 8G10G15G26G29
 -22888866.758    19878629.166   -17814127.0754   19878625.7174         53.000
        48.2504
 -12818528.902    22520735.260    -9943685.8774   22520737.0854         44.000
        33.5004
 -21070189.172    20595230.686   -16365957.3014   20595229.3694         48.250
        44.7504
 -14149460.520    22811566.493   -11015524.0454   22811565.6944         46.500
        34.0004
 -16797051.441    22393271.194   -12970476.2624   22393271.5084         47.000
        34.7504
 -19977429.480    21564609.036   -15495861.4724   21564608.1494         49.250
        39.0004
  -2457604.805    23838830.381    -1826298.1664   23838833.3384         41.250
        26.5004
 -21610790.887    20674831.456   -16674514.9494   20674831.2584         48.000
        42.0004
  -6202661.875    23067514.848    -4810372.6844   23067515.2944         43.750
        30.5004
 11  3 11  2 34 29.9990000  0  9G 2G 4G 5G 7G 8G10G15G26G29
 -22867365.754    19882720.608   -17797373.0954   19882717.2864         52.000
        48.2504
 -12737145.176    22536222.284    -9880270.1324   22536223.5324         43.500
        33.2504
 -21095639.516    20590388.118   -16385788.7814   20590386.3154         49.500
        45.2504
 -14138298.578    22813690.740   -11006826.4684   22813689.6994         45.000
        32.5004
 -16848186.230    22383540.844   -13010321.5914   22383541.0514         47.750
        35.2504
 -19930345.031    21573568.716   -15459172.3724   21573568.2244         49.500
        39.0004
  -2565411.031    23818315.467    -1910302.9384   23818318.3264         41.000
        27.5004
 -21694988.098    20658809.299   -16740123.1514   20658809.2984         49.000
        42.2504
  -6237621.566    23060862.357    -4837614.0654   23060862.7224         42.250
        30.7504
 11  3 11  2 34 59.9990000  0  9G 2G 4G 5G 7G 8G10G15G26G29
 -22845330.910    19886913.705   -17780203.1694   19886910.6024         53.250
        48.2504
 -12655513.918    22551755.797    -9816661.5164   22551756.9564         44.500
        32.5004
 -21120899.910    20585581.019   -16405472.2374   20585579.6064         50.250
        45.5004
 -14126582.578    22815919.802   -10997697.1534   22815919.1994         45.750
        32.7504
 -16898857.512    22373898.278   -13049805.7154   22373898.2224         47.000
        35.0004
 -19883126.199    21582554.527   -15422378.5334   21582553.2354         49.250
        39.0004
  -2673027.395    23797836.384    -1994159.7704   23797839.9374         42.000
        27.5004
 -21778707.633    20642877.609   -16805359.1544   20642877.7384         49.500
        42.2504
  -6272046.859    23054311.777    -4864439.0184   23054311.8214         44.500
        32.0004
 11  3 11  2 35 29.9990000  0  9G 2G 4G 5G 7G 8G10G15G26G29
 -22822759.586    19891209.051   -17762615.1654   19891205.8834         52.500
        48.0004
 -12573634.176    22567337.591    -9752859.2854   22567338.8194         44.000
        32.7504
 -21145967.496    20580811.291   -16425005.4444   20580809.2674         50.250
        45.5004
 -14114310.188    22818255.465   -10988134.2784   22818254.5794         46.000
        33.2504
 -16949060.402    22364344.797   -13088924.8474   22364345.4984         47.500
        35.5004
 -19835770.562    21591565.964   -15385478.0834   21591564.8634         49.750
        39.0004
  -2780449.977    23777394.269    -2077865.5344   23777398.8224         40.750
        26.5004
 -21861945.551    20627038.382   -16870219.8544   20627038.1904         49.750
        42.2504
  -6305934.637    23047863.253    -4890845.1334   23047863.3954         45.000
        32.2504
 11  3 11  2 35 59.9990000  0  9G 2G 4G 5G 7G 8G10G15G26G29
 -22799650.176    19895606.898   -17744607.8584   19895603.3244         53.250
        47.7504
 -12491505.676    22582965.893    -9688863.2074   22582966.6854         45.000
        32.7504
 -21170840.461    20576077.681   -16444387.0114   20576076.1094         50.250
        45.5004
 -14101480.371    22820697.095   -10978137.0444   22820696.4074         45.750
        33.2504
 -16998791.250    22354881.544   -13127676.1634   22354881.3334         48.250
        35.5004
 -19788276.660    21600603.912   -15348469.9074   21600602.7104         49.250
        38.2504
  -2887675.754    23756990.143    -2161417.9784   23756993.9364         42.000
        27.5004
 -21944698.723    20611290.872   -16934702.8364   20611290.3714         51.500
        42.2504
  -6339283.395    23041517.052    -4916831.2424   23041517.3364         46.000
        32.5004
 11  3 11  2 36 29.9990000  0  9G 2G 4G 5G 7G 8G10G15G26G29
 -22776004.293    19900106.470   -17726182.5644   19900103.0444         53.000
        47.7504
 -12409130.988    22598641.789    -9624675.3014   22598642.3684         45.000
        32.0004
 -21195519.473    20571381.592   -16463617.4404   20571380.1054         50.500
        45.5004
 -14088094.254    22823244.630   -10967706.3324   22823243.0434         46.500
        32.5004
 -17048049.539    22345507.735   -13166059.2544   22345508.3314         47.000
        35.5004
 -19740645.992    21609667.677   -15311355.1974   21609666.2914         49.500
        38.5004
  -2994704.164    23736623.525    -2244816.6214   23736625.6024         42.750
        27.0004
 -22026966.477    20595635.739   -16998807.5574   20595635.5344         51.250
        42.5004
  -6372093.289    23035273.059    -4942397.4644   23035273.8244         43.250
        32.5004
 11  3 11  2 36 59.9990000  0  9G 2G 4G 5G 7G 8G10G15G26G29
 -22751823.203    19904708.138   -17707340.2234   19904704.5474         52.750
        47.7504
 -12326512.859    22614363.253    -9560297.7174   22614363.8334         44.500
        33.0004
 -21220005.898    20566722.135   -16482697.7954   20566720.2084         52.500
        45.5004
 -14074153.508    22825897.226   -10956843.4374   22825896.7694         45.750
        33.0004
 -17096833.836    22336224.436   -13204073.0034   22336225.1394         47.000
        35.0004
 -19692880.211    21618757.528   -15274135.2064   21618755.9884         49.000
        38.5004
  -3101534.926    23716293.766    -2328061.3164   23716296.8054         41.000
        26.0004
 -22108748.844    20580073.533   -17062534.0764   20580072.8164         51.750
        42.5004
  -6404365.324    23029131.720    -4967544.5574   23029132.8994         45.500
        32.5004
 11  3 11  2 37 29.9990000  0  9G 2G 4G 5G 7G 8G10G15G26G29
 -22727105.039    19909411.827   -17688079.3884   19909408.4094         53.500
        47.7504
 -12243650.859    22630131.172    -9495730.1134   22630132.1724         46.250
        32.5004
 -21244297.629    20562099.481   -16501626.4484   20562097.5334         52.000
        45.7504
 -14059656.828    22828656.063   -10945547.3494   22828655.1004         45.750
        33.0004
 -17145140.285    22327032.177   -13241714.3784   22327032.3014         47.500
        35.2504
 -19644977.555    21627872.691   -15236808.5224   21627871.6784         48.500
        38.2504
  -3208164.871    23696002.740    -2411149.5374   23696005.4004         39.500
        27.0004
 -22190042.348    20564603.478   -17125879.6464   20564603.0964         52.000
        42.2504
  -6436097.328    23023093.782    -4992270.8714   23023094.3094         44.500
        31.5004
 11  3 11  2 37 59.9990000  0  9G 2G 4G 5G 7G 8G10G15G26G29
 -22701850.914    19914217.401   -17668400.9254   19914214.3664         53.000
        47.7504
 -12160547.492    22645945.853    -9430974.4144   22645946.9014         46.250
        32.0004
 -21268395.695    20557513.658   -16520404.1894   20557511.7734         52.750
        45.5004
 -14044605.453    22831520.320   -10933819.0264   22831519.6934         46.500
        34.0004
 -17192967.797    22317931.044   -13278982.5524   22317930.6124         48.000
        35.5004
 -19596939.477    21637014.493   -15199376.3454   21637013.0694         49.000
        38.0004
  -3314593.652    23675749.998    -2494081.0134   23675752.3684         40.500
        26.5004
 -22270846.441    20549227.077   -17188843.8674   20549226.5644         51.500
        42.7504
  -6467289.703    23017158.188    -5016576.7094   23017158.2944         45.750
        32.0004
 11  3 11  2 38 29.9990000  0  9G 2G 4G 5G 7G 8G10G15G26G29
 -22676062.371    19919124.966   -17648306.0204   19919121.8354         52.500
        47.7504
 -12077205.473    22661805.368    -9366032.7644   22661806.5604         46.500
        32.2504
 -21292300.926    20552964.790   -16539031.6714   20552963.0824         52.500
        45.5004
 -14029001.074    22834489.306   -10921659.8024   22834488.5304         45.500
        32.7504
 -17240315.871    22308921.283   -13315877.1454   22308920.9694         47.250
        35.2504
 -19548767.336    21646181.112   -15161839.6744   21646180.1834         48.250
        38.5004
  -3420820.906    23655535.436    -2576855.4124   23655538.2164         41.250
        27.5004
 -22351161.094    20533944.235   -17251426.7104   20533943.7804         51.750
        42.7504
  -6497943.305    23011324.696    -5040462.6954   23011325.3964         43.000
        31.2504
 11  3 11  2 38 59.9990000  0  9G 2G 4G 5G 7G 8G10G15G26G29
 -22649740.547    19924133.980   -17627795.5504   19924130.5494         53.000
        47.5004
 -11993627.367    22677709.789    -9300907.1724   22677711.0584         46.500
        31.5004
 -21316014.191    20548452.472   -16557509.5654   20548451.1194         52.500
        45.5004
 -14012845.586    22837564.107   -10909071.1354   22837562.7374         44.500
        33.0004
 -17287183.461    22300002.593   -13352397.3424   22300001.9554         47.000
        35.7504
 -19500462.211    21655373.797   -15124199.3814   21655372.6334         48.500
        37.5004
  -3526846.305    23635359.648    -2659472.5004   23635362.6444         42.000
        28.5004
 -22430985.781    20518753.387   -17313627.7524   20518753.2214         51.750
        43.0004
  -6528059.102    23005594.376    -5063929.6084   23005594.6854         43.750
        30.2504
 11  3 11  2 39 29.9990000  0  9G 2G 4G 5G 7G 8G10G15G26G29
 -22622883.980    19929244.398   -17606868.4234   19929241.2974         53.000
        47.2504
 -11909812.516    22693659.170    -9235597.0694   22693661.0644         46.000
        32.0004
 -21339533.461    20543976.503   -16575836.2934   20543974.9994         52.500
        45.2504
 -13996137.406    22840743.273   -10896051.8034   22840741.6494         45.250
        31.0004
 -17333566.422    22291176.093   -13388539.8844   22291176.2994         48.000
        35.0004
 -19452022.453    21664591.164   -15086454.1964   21664590.4674         48.750
        37.7504
  -3632666.602    23615223.043    -2741929.8064   23615225.9514         44.000
        30.0004
 -22510317.336    20503657.551   -17375444.5384   20503656.8464         51.000
        42.7504
  -6557634.422    22999966.261    -5086975.3744   22999966.9464         46.250
        32.0004
 11  3 11  2 39 59.9990000  0  9G 2G 4G 5G 7G 8G10G15G26G29
 -22595492.168    19934457.088   -17585524.2014   19934453.5944         53.500
        47.5004
 -11825762.414    22709653.941    -9170103.6534   22709655.7154         46.750
        32.0004
 -21362858.148    20539538.041   -16594011.4034   20539536.5584         52.250
        45.2504
 -13978876.711    22844028.304   -10882601.8954   22844026.7274         45.750
        33.2504
 -17379462.641    22282442.389   -13424303.1704   22282442.1044         49.250
        35.5004
 -19403447.832    21673834.876   -15048603.8994   21673833.4714         48.000
        38.0004
  -3738279.875    23595124.881    -2824225.7834   23595127.7234         43.250
        28.0004
 -22589153.727    20488655.158   -17436875.4854   20488654.6554         51.750
        43.2504
  -6586669.172    22994441.127    -5109599.9304   22994441.3964         46.250
        32.0004
 11  3 11  2 40 29.9990000  0  9G 2G 4G 5G 7G 8G10G15G26G29
 -22567563.895    19939771.599   -17563761.9844   19939768.3174         53.000
        47.5004
 -11741476.340    22725692.832    -9104426.3524   22725694.6974         46.000
        31.5004
 -21385985.984    20535137.182   -16612033.1124   20535135.5324         52.250
        45.5004
 -13961061.797    22847418.486   -10868720.1404   22847417.3094         45.000
        33.7504
 -17424868.707    22273801.918   -13459684.5164   22273802.2294         48.250
        35.5004
 -19354736.785    21683104.475   -15010647.3264   21683103.1814         48.000
        38.5004
  -3843682.816    23575067.221    -2906357.9174   23575069.8584         42.500
        26.5004
 -22667491.773    20473748.053   -17497918.0944   20473747.8214         52.000
        43.2504
  -6615160.758    22989019.106    -5131801.2394   22989019.9884         46.500
        31.5004
 11  3 11  2 40 59.9990000  0  9G 2G 4G 5G 7G 8G10G15G26G29
 -22539100.738    19945188.214   -17541582.9864   19945184.8424         53.000
        47.5004
 -11656957.137    22741776.569    -9038567.4204   22741778.4544         45.250
        31.0004
 -21408918.070    20530773.420   -16629902.2944   20530771.4954         52.500
        45.7504
 -13942694.836    22850913.075   -10854408.2264   22850912.6484         46.750
        33.0004
 -17469783.227    22265254.725   -13494682.8094   22265254.4064         47.750
        35.2504
 -19305891.000    21692399.368   -14972585.7634   21692398.8744         48.000
        38.0004
  -3948875.246    23555048.641    -2988325.9644   23555052.5684         40.500
        25.2504
 -22745331.328    20458935.600   -17558572.2684   20458935.2124         51.500
        43.0004
  -6643110.258    22983700.915    -5153580.1484   22983701.3954         46.250
        31.5004
 11  3 11  2 41 29.9990000  0  9G 2G 4G 5G 7G 8G10G15G26G29
 -22510103.098    19950706.266   -17518987.5084   19950703.3024         52.000
        47.2504
 -11572206.695    22757904.300    -8972528.2834   22757905.8544         46.000
        31.0004
 -21431654.625    20526446.851   -16647619.1104   20526444.9774         52.750
        45.7504
 -13923776.840    22854513.063   -10839666.9574   22854512.8714         46.000
        33.2504
 -17514204.926    22256801.218   -13529297.1144   22256801.6934         49.000
        35.7504
 -19256910.664    21701720.102   -14934419.3734   21701718.9144         48.250
        38.5004
  -4053856.219    23535071.650    -3070129.2854   23535075.3514         39.750
        26.2504
 -22822671.359    20444218.212   -17618837.2154   20444217.5114         51.250
        43.5004
  -6670517.641    22978485.369    -5174936.6224   22978485.9044         46.250
        31.5004
 11  3 11  2 41 59.9990000  0  9G 2G 4G 5G 7G 8G10G15G26G29
 -22480569.793    19956326.367   -17495974.5934   19956323.0044         50.750
        47.2504
 -11487225.160    22774075.841    -8906309.0874   22774078.0674         46.000
        31.0004
 -21454194.090    20522157.931   -16665182.3464   20522155.7934         52.500
        45.7504
 -13904306.727    22858218.345   -10824495.4994   22858217.8414         45.250
        34.0004
 -17558130.668    22248442.878   -13563524.9474   22248442.7854         48.250
        36.5004
 -19207794.688    21711066.557   -14896147.2414   21711065.8794         48.750
        37.5004
  -4158622.570    23515135.887    -3151765.3724   23515139.2364         40.750
        27.7504
 -22899509.074    20429596.515   -17678710.7294   20429596.0164         52.000
        43.2504
  -6697381.406    22973374.137    -5195869.4904   22973374.1344         41.000
        31.2504
 11  3 11  2 42 29.9990000  0  9G 2G 4G 5G 7G 8G10G15G26G29
 -22450503.637    19962047.654   -17472546.4514   19962044.7104         49.750
        47.2504
 -11402016.168    22790290.125    -8839912.6684   22790293.1114         45.500
        31.0004
 -21476538.227    20517905.698   -16682593.3784   20517904.1754         52.000
        45.7504
 -13884287.566    22862027.640   -10808896.1814   22862027.1104         42.000
        33.0004
 -17601560.781    22240178.452   -13597366.5714   22240177.6064         47.750
        35.0004
 -19158545.504    21720438.537   -14857771.3464   21720437.6754         47.500
        37.5004
  -4263175.266    23495240.326    -3233234.9584   23495243.8444         40.000
        29.7504
 -22975845.418    20415070.311   -17738193.5704   20415069.6724         53.500
        43.2504
  -6723703.820    22968364.612    -5216380.5304   22968365.3314         46.000
        31.0004
 11  3 11  2 42 59.9990000  0  9G 2G 4G 5G 7G 8G10G15G26G29
 -22419904.215    19967870.487   -17448702.8064   19967867.8674         51.000
        47.0004
 -11316580.281    22806549.072    -8773339.4394   22806550.4694         45.750
        31.0004
 -21498686.148    20513690.959   -16699851.5284   20513689.8744         51.500
        46.0004
 -13863718.895    22865941.940   -10792868.6624   22865941.5984         44.500
        34.2504
 -17644492.223    22232008.403   -13630819.6304   22232008.8064         47.250
        36.2504
 -19109162.309    21729835.645   -14819291.0114   21729835.1924         47.250
        37.0004
  -4367511.992    23475385.531    -3314536.2334   23475389.5814         40.750
        29.5004
 -23051678.227    20400639.693   -17797284.0454   20400639.3204         51.750
        43.5004
  -6749483.391    22963458.813    -5236468.5784   22963459.4714         46.000
        31.2504
 11  3 11  2 43 29.9990000  0  9G 2G 4G 5G 7G 8G10G15G26G29
 -22388770.820    19973795.105   -17424443.0804   19973792.0064         51.500
        47.0004
 -11230918.422    22822849.376    -8706590.1384   22822851.6284         45.250
        31.0004
 -21520636.574    20509513.814   -16716955.7734   20509512.4884         52.000
        45.7504
 -13842600.617    22869960.658   -10776412.9034   22869960.3074         44.500
        32.2504
 -17686922.348    22223934.484   -13663882.0384   22223934.8384         46.500
        36.0004
 -19059644.828    21739258.954   -14780706.0224   21739257.9404         45.500
        37.0004
  -4471630.438    23455572.880    -3395667.4114   23455575.9554         40.750
        29.7504
 -23127005.270    20386305.629   -17855980.4114   20386304.9634         51.750
        43.7504
  -6774719.332    22958656.534    -5256133.0424   22958657.1544         44.000
        30.0004
 11  3 11  2 43 59.9990000  0  9G 2G 4G 5G 7G 8G10G15G26G29
 -22357105.457    19979821.120   -17399768.8234   19979818.0324         52.000
        47.0004
 -11145033.652    22839193.507    -8639667.1554   22839195.3604         45.500
        31.0004
 -21542390.980    20505374.212   -16733907.2824   20505372.5804         52.000
        45.7504
 -13820935.059    22874083.128   -10759530.6914   22874083.4354         45.000
        32.0004
 -17728851.145    22215955.639   -13696553.7814   22215955.7824         46.500
        36.2504
 -19009994.801    21748706.725   -14742017.7664   21748705.6514         46.750
        37.5004
  -4575531.156    23435800.985    -3476628.9504   23435803.7004         40.750
        29.0004
 -23201827.121    20372067.395   -17914283.1174   20372066.8634         51.750
        43.7504
  -6799413.223    22953957.672    -5275375.1194   22953958.2754         44.500
        29.7504
 11  3 11  2 44 29.9990000  0  9G 2G 4G 5G 7G 8G10G15G26G29
 -22324906.387    19985948.283   -17374678.6964   19985945.2544         51.250
        46.7504
 -11058925.289    22855579.369    -8572569.9164   22855581.0714         46.750
        31.0004
 -21563946.535    20501272.515   -16750703.8394   20501270.7404         52.250
        46.2504
 -13798720.730    22878310.619   -10742220.8504   22878309.9214         45.250
        32.0004
 -17770274.488    22208073.274   -13728831.7014   22208073.3674         46.750
        36.0004
 -18960209.750    21758180.506   -14703224.3154   21758179.9164         46.500
        37.7504
  -4679210.453    23416071.115    -3557417.9464   23416073.6324         39.500
        26.5004
 -23276139.949    20357925.955   -17972189.1924   20357925.4564         52.000
        43.7504
  -6823562.414    22949362.570    -5294192.7394   22949362.8124         44.250
        31.0004
 11  3 11  2 44 59.9990000  0  9G 2G 4G 5G 7G 8G10G15G26G29
 -22292174.676    19992176.963   -17349173.5224   19992174.2544         50.500
        47.0004
 -10972595.133    22872007.766    -8505299.8534   22872009.0484         46.000
        30.5004
 -21585303.539    20497208.458   -16767345.6654   20497206.7164         53.000
        46.0004
 -13775958.957    22882642.196   -10724484.4294   22882641.2564         45.500
        31.5004
 -17811190.648    22200286.685   -13760714.3954   22200286.7394         46.750
        36.0004
 -18910290.250    21767680.236   -14664326.0924   21767679.8484         47.750
        37.2504
  -4782667.062    23396384.690    -3638033.4304   23396386.0864         40.500
        27.5004
 -23349943.195    20343881.495   -18029698.1874   20343881.1214         51.500
        43.5004
  -6847167.367    22944870.480    -5312586.2964   22944871.4824         42.750
        31.0004
 11  3 11  2 45 29.9990000  0  9G 2G 4G 5G 7G 8G10G15G26G29
 -22258909.988    19998507.029   -17323253.0444   19998503.9314         50.750
        47.0004
 -10886044.133    22888477.832    -8437857.7094   22888480.1394         45.250
        30.0004
 -21606461.098    20493182.267   -16783832.0994   20493180.3484         52.500
        45.7504
 -13752649.465    22887077.828   -10706321.2574   22887076.7604         45.750
        31.7504
 -17851597.523    22192597.433   -13792200.2664   22192597.5514         47.500
        35.7504
 -18860235.789    21777205.478   -14625322.6524   21777204.3314         47.500
        37.0004
  -4885899.109    23376740.293    -3718473.9284   23376742.6974         38.750
        28.0004
 -23423234.645    20329934.822   -18086808.3804   20329934.4464         51.250
        44.0004
  -6870227.336    22940482.374    -5330555.1854   22940482.7614         44.250
        31.0004
 11  3 11  2 45 59.9990000  0  9G 2G 4G 5G 7G 8G10G15G26G29
 -22225114.059    20004938.042   -17296918.6164   20004935.1694         51.000
        46.7504
 -10799275.102    22904989.033    -8370245.6314   22904991.4704         45.500
        30.0004
 -21627420.574    20489193.843   -16800164.1884   20489192.0294         52.000
        45.5004
 -13728794.719    22891617.094   -10687733.2064   22891616.4574         46.750
        33.0004
 -17891494.914    22185006.066   -13823289.1114   22185005.4594         47.250
        36.2504
 -18810048.207    21786755.812   -14586215.5454   21786754.7894         48.000
        37.5004
  -4988906.695    23357137.997    -3798739.5464   23357141.3004         42.000
        30.0004
 -23496014.770    20316084.969   -18143520.1444   20316084.5894         51.500
        44.0004
  -6892744.012    22936197.731    -5348100.7374   22936198.3274         45.500
        30.5004
 11  3 11  2 46 29.9990000  0  9G 2G 4G 5G 7G 8G10G15G26G29
 -22190786.180    20011470.649   -17270169.6884   20011467.8024         52.500
        46.7504
 -10712288.664    22921542.366    -8302464.1734   22921544.6924         45.250
        30.5004
 -21648180.629    20485243.115   -16816340.8714   20485241.4884         51.000
        45.7504
 -13704394.344    22896260.802   -10668719.9694   22896259.7704         46.500
        33.5004
 -17930879.945    22177510.875   -13853978.7264   22177511.4204         47.250
        36.2504
 -18759726.168    21796332.050   -14547003.6404   21796331.2044         47.250
        38.5004
  -5091687.109    23337579.283    -3878828.0894   23337582.4264         41.500
        29.7504
 -23568281.309    20302333.180   -18199831.7174   20302332.5844         51.750
        44.2504
  -6914715.977    22932016.519    -5365221.8534   22932017.7754         39.500
        31.0004
 11  3 11  2 46 59.9990000  0  9G 2G 4G 5G 7G 8G10G15G26G29
 -22155927.324    20018103.937   -17243007.0154   20018101.2254         52.250
        46.7504
 -10625086.457    22938136.950    -8234514.6414   22938139.4974         44.750
        31.7504
 -21668740.438    20481330.914   -16832361.5324   20481329.4294         50.000
        46.0004
 -13679449.191    22901007.580   -10649282.2364   22901006.6694         46.250
        34.2504
 -17969750.625    22170113.656   -13884267.5404   22170114.5814         47.500
        36.5004
 -18709270.074    21805932.986   -14507687.2614   21805933.4204         46.250
        38.0004
  -5194239.457    23318064.691    -3958738.9504   23318067.3524         43.000
        29.0004
 -23640032.988    20288679.203   -18255742.1104   20288678.8864         52.000
        44.0004
  -6936143.207    22927939.610    -5381918.4544   22927940.5614         38.750
        29.7504
 11  3 11  2 47 29.9990000  0  9G 2G 4G 5G 7G 8G10G15G26G29
 -22120540.031    20024838.196   -17215432.5864   20024835.4524         52.500
        46.5004
 -10537671.883    22954771.350    -8166399.5784   22954773.9884         44.000
        30.0004
 -21689101.715    20477456.052   -16848227.4814   20477454.9034         50.000
        45.7504
 -13653962.035    22905857.421   -10629422.1554   22905856.6444         46.250
        34.0004
 -18008107.098    22162814.498   -13914155.6844   22162815.3874         46.500
        36.0004
 -18658682.246    21815559.588   -14468268.2534   21815559.3214         45.500
        37.7504
  -5296564.086    23298593.262    -4038472.3454   23298596.0444         39.500
        30.2504
 -23711270.504    20275123.162   -18311251.8504   20275122.8064         51.500
        44.0004
  -6957027.910    22923965.076    -5398192.3374   22923965.9944         40.000
        30.0004
 11  3 11  2 47 59.9990000  0  9G 2G 4G 5G 7G 8G10G15G26G29
 -22084624.914    20031672.753   -17187446.8544   20031670.1084         52.750
        46.7504
 -10450046.855    22971445.972    -8098120.5724   22971448.1354         44.250
        29.7504
 -21709264.883    20473619.526   -16863939.0744   20473617.7024         50.000
        46.0004
 -13627934.219    22910810.726   -10609140.7904   22910809.7214         47.250
        33.7504
 -18045948.590    22155613.857   -13943642.5524   22155614.0704         46.250
        36.2504
 -18607963.438    21825211.351   -14428747.1764   21825210.8114         45.750
        37.7504
  -5398660.145    23279164.209    -4118027.6684   23279167.3024         40.000
        30.2504
 -23781993.285    20261664.880   -18366360.5044   20261664.6004         50.750
        44.2504
  -6977370.371    22920093.878    -5414043.6614   22920095.0744         39.000
        31.5004
 11  3 11  2 48 29.9990000  0  9G 2G 4G 5G 7G 8G10G15G26G29
 -22048179.449    20038608.007   -17159047.8404   20038605.1514         53.000
        46.5004
 -10362210.004    22988161.128    -8029676.4664   22988162.3434         44.250
        29.7504
 -21729226.332    20469821.070   -16879493.4574   20469819.3824         50.250
        45.7504
 -13601363.258    22915866.894   -10588436.1844   22915866.0354         46.000
        33.5004
 -18083270.109    22148511.885   -13972724.2434   22148511.9774         47.500
        36.7504
 -18557109.988    21834888.271   -14389121.1854   21834887.4824         46.000
        37.0004
  -5500522.980    23259779.849    -4197401.2394   23259783.1874         41.000
        30.2504
 -23852196.980    20248305.394   -18421064.6684   20248305.3124         51.000
        44.0004
  -6997167.531    22916327.391    -5429470.1334   22916327.8614         39.500
        30.7504
 11  3 11  2 48 59.9990000  0  9G 2G 4G 5G 7G 8G10G15G26G29
 -22011205.500    20045644.071   -17130237.0404   20045641.1464         52.750
        46.5004
 -10274163.844    23004915.695    -7961069.3024   23004917.6214         43.750
        29.7504
 -21748986.949    20466060.601   -16894891.3614   20466058.8434         50.750
        46.0004
 -13574251.547    22921025.896   -10567310.2364   22921025.6024         46.000
        33.7504
 -18120071.078    22141508.479   -14001400.3034   22141508.5154         48.000
        36.0004
 -18506123.262    21844590.872   -14349391.3514   21844590.8614         47.250
        37.0004
  -5602152.375    23240441.119    -4276592.9174   23240443.5454         42.250
        29.0004
 -23921881.633    20235044.982   -18475364.3854   20235044.6444         51.750
        44.0004
  -7016420.773    22912663.108    -5444472.7234   22912663.7134         39.500
        30.2504
 11  3 11  2 49 29.9990000  0  9G 2G 4G 5G 7G 8G10G15G26G29
 -21973704.562    20052780.242   -17101015.6124   20052777.1634         52.750
        46.5004
 -10185910.977    23021709.770    -7892301.0514   23021712.5774         44.000
        29.7504
 -21768547.277    20462338.600   -16910133.1924   20462336.7654         51.000
        46.0004
 -13546600.594    22926287.823   -10545764.0794   22926287.2424         46.000
        33.5004
 -18156350.797    22134604.948   -14029670.2034   22134604.9054         48.000
        36.2504
 -18455004.234    21854318.929   -14309558.3914   21854318.1454         47.000
        36.2504
  -5703548.090    23221146.354    -4355602.4874   23221148.7484         43.500
        29.0004
 -23991047.160    20221883.331   -18529259.5864   20221882.9214         51.500
        44.2504
  -7035130.871    22909102.348    -5459052.1014   22909104.0254         39.750
        30.0004
 11  3 11  2 49 59.9990000  0  9G 2G 4G 5G 7G 8G10G15G26G29
 -21935677.633    20060016.349   -17071384.3144   20060013.6694         52.750
        46.2504
 -10097453.285    23038542.546    -7823373.1894   23038544.5634         44.250
        29.2504
 -21787907.062    20458654.340   -16925218.7604   20458652.7614         52.000
        46.0004
 -13518411.766    22931652.312   -10523798.8364   22931651.9874         46.250
        33.5004
 -18192107.941    22127800.374   -14057532.9054   22127801.0304         47.750
        36.7504
 -18403753.477    21864070.898   -14269622.7964   21864070.5634         46.250
        37.0004
  -5804709.004    23201895.481    -4434429.1014   23201898.4494         43.500
        30.2504
 -24059692.652    20208820.894   -18582749.5734   20208820.0484         50.750
        44.0004
  -7053298.250    22905646.307    -5473208.5904   22905647.0274         44.500
        31.5004
 11  3 11  2 50 29.9990000  0  9G 2G 4G 5G 7G 8G10G15G26G29
 -21897124.934    20067352.769   -17041343.3124   20067350.0284         51.250
        46.2504
 -10008791.797    23055414.537    -7754286.5294   23055416.6284         44.500
        29.2504
 -21807065.941    20455008.771   -16940147.7854   20455007.2014         51.250
        46.2504
 -13489685.523    22937118.371   -10501414.7954   22937118.0794         46.250
        32.2504
 -18227340.730    22121096.118   -14084987.0044   22121096.4634         47.500
        36.2504
 -18352370.707    21873849.111   -14229584.3564   21873849.1694         46.750
        37.2504
  -5905633.242    23182690.046    -4513071.2664   23182693.0354         43.500
        30.2504
 -24127816.715    20195856.919   -18635833.2474   20195856.7804         51.500
        44.2504
  -7070922.859    22902291.743    -5486942.0924   22902293.0914         44.250
        31.0004
 11  3 11  2 50 59.9990000  0  9G 2G 4G 5G 7G 8G10G15G26G29
 -21858046.199    20074789.487   -17010892.4254   20074786.7554         50.250
        46.5004
  -9919927.199    23072325.465    -7685041.6344   23072328.0054         45.000
        30.2504
 -21826022.383    20451401.318   -16954919.0554   20451399.7714         49.000
        46.0004
 -13460421.789    22942687.270   -10478611.8964   22942686.7554         44.250
        32.0004
 -18262046.676    22114491.723   -14112030.5774   22114491.5344         48.500
        36.5004
 -18300854.934    21883652.231   -14189442.2814   21883651.5234         45.000
        37.0004
  -6006318.824    23163530.574    -4591527.4484   23163533.5384         43.000
        30.7504
 -24195417.246    20182993.232   -18688508.9704   20182992.4084         50.750
        44.5004
  -7088003.805    22899041.671    -5500251.9934   22899042.4804         43.750
        31.5004
 11  3 11  2 51 29.9990000  0  9G 2G 4G 5G 7G 8G10G15G26G29
 -21818441.973    20082325.876   -16980032.0654   20082323.2494         50.000
        46.2504
  -9830861.105    23089274.145    -7615639.7234   23089276.9454         45.000
        29.2504
 -21844775.922    20447832.712   -16969532.2034   20447831.1584         49.000
        46.0004
 -13430621.820    22948357.798   -10455391.2454   22948357.8284         44.250
        32.0004
 -18296223.832    22107988.023   -14138662.1284   22107988.1654         48.000
        36.7504
 -18249206.086    21893481.244   -14149196.4964   21893480.2224         47.250
        37.5004
  -6106764.312    23144416.169    -4669796.6014   23144418.1344         43.000
        30.5004
 -24262493.246    20170229.010   -18740775.9784   20170228.4864         52.000
        44.5004
  -7104541.211    22895894.693    -5513138.3524   22895896.0744         43.000
        32.2504
 11  3 11  2 51 59.9990000  0  9G 2G 4G 5G 7G 8G10G15G26G29
 -21778312.914    20089962.027   -16948762.7254   20089959.5114         49.000
        46.0004
  -9741595.113    23106260.977    -7546082.0524   23106263.8384         43.750
        29.2504
 -21863326.574    20444302.691   -16983987.2764   20444300.9084         48.750
        46.2504
 -13400286.703    22954130.988   -10431753.5604   22954130.4684         42.750
        29.0004
 -18329871.012    22101585.338   -14164880.6884   22101584.5354         48.750
        36.2504
 -18197424.727    21903334.627   -14108847.4534   21903334.0344         45.250
        36.7504
  -6206968.582    23125347.611    -4747877.7314   23125350.3794         43.000
        30.0004
 -24329043.805    20157564.853   -18792633.5474   20157564.3144         51.500
        44.5004
  -7120535.434    22892851.345    -5525601.4834   22892852.2454         43.500
        31.0004
 11  3 11  2 52 29.9990000  0  9G 2G 4G 5G 7G 8G10G15G26G29
 -21737660.922    20097698.146   -16917085.8954   20097695.5754         50.250
        46.0004
  -9652131.719    23123285.807    -7476370.5814   23123288.6064         43.500
        29.5004
 -21881674.414    20440811.194   -16998284.3044   20440809.3484         49.500
        46.0004
 -13369418.137    22960005.308   -10407700.1564   22960004.8914         39.500
        26.5004
 -18362987.398    22095283.240   -14190685.6644   22095283.1394         48.250
        36.5004
 -18145511.457    21913213.000   -14068395.6164   21913213.1104         46.500
        37.0004
  -6306931.012    23106325.788    -4825770.4664   23106328.6714         42.500
        30.0004
 -24395068.793    20145000.607   -18844081.5744   20145000.0754         51.750
        45.0004
  -7135987.988    22889910.445    -5537642.5104   22889911.9064         45.000
        31.0004
 11  3 11  2 52 59.9990000  0  9G 2G 4G 5G 7G 8G10G15G26G29
 -21696484.734    20105533.773   -16885000.6154   20105531.0854         51.000
        46.0004
  -9562470.641    23140348.365    -7406505.0454   23140350.6814         42.750
        29.0004
 -21899817.289    20437358.848   -17012421.6294   20437356.8334         50.250
        46.0004
 -13338015.152    22965980.978   -10383230.3204   22965979.8964         38.750
        23.0004
 -18395569.465    22089082.894   -14216074.2534   22089083.2314         48.250
        37.0004
 -18093464.180    21923117.573   -14027839.3634   21923118.4954         46.500
        37.2504
  -6406648.145    23087350.397    -4903472.0224   23087352.5304         42.500
        30.5004
 -24460565.152    20132537.265   -18895117.6834   20132536.5344         52.500
        45.5004
  -7150896.316    22887074.066    -5549259.4734   22887075.3384         44.500
        31.2504
 11  3 11  2 53 29.9990000  0  9G 2G 4G 5G 7G 8G10G15G26G29
 -21654785.496    20113468.892   -16852507.7854   20113466.1894         52.000
        46.0004
  -9472613.457    23157447.430    -7336486.7174   23157451.2244         42.250
        29.5004
 -21917754.965    20433945.364   -17026399.0614   20433943.8874         52.000
        46.2504
 -13306079.246    22972057.252   -10358345.2654   22972057.1904         37.500
        21.7504
 -18427616.281    22082984.934   -14241045.7894   22082984.7744         49.000
        37.0004
 -18041283.703    21933047.118   -13987179.3304   21933046.6154         47.500
        36.7504
  -6506119.473    23068421.053    -4980982.0644   23068423.6664         42.500
        30.2504
 -24525532.555    20120174.389   -18945741.6344   20120173.6774         52.500
        45.0004
  -7165261.492    22884340.413    -5560453.1704   22884341.5204         44.000
        32.0004
 11  3 11  2 53 59.9990000  0  9G 2G 4G 5G 7G 8G10G15G26G29
 -21612565.941    20121503.306   -16819609.5194   20121500.5084         53.000
        46.0004
  -9382564.465    23174583.285    -7266318.9594   23174586.5204         41.500
        28.7504
 -21935489.406    20430570.639   -17040218.1094   20430569.1614         52.250
        46.2504
 -13273613.930    22978234.965   -10333047.5904   22978234.9854         35.750
        18.5004
 -18459128.328    22076988.289   -14265600.6164   22076988.2204         48.500
        36.0004
 -17988972.301    21943002.020   -13946417.2674   21943001.7114         47.000
        35.5004
  -6605345.906    23049539.293    -5058301.2354   23049541.5874         43.500
        30.2504
 -24589971.965    20107911.905   -18995954.1434   20107911.3454         51.500
        45.0004
  -7179086.215    22881709.363    -5571225.7444   22881710.5284         44.000
        32.0004
 11  3 11  2 54 29.9990000  0  9G 2G 4G 5G 7G 8G10G15G26G29
 -21569826.441    20129636.392   -16786306.0764   20129633.7514         52.500
        45.7504
  -9292324.422    23191755.884    -7196002.2974   23191758.7724         40.500
        29.0004
 -21953019.844    20427234.554   -17053878.1954   20427232.9934         52.750
        46.2504
 -13240619.391    22984514.371   -10307337.6054   22984513.6434         35.000
        17.0004
 -18490104.152    22071093.562   -14289737.6094   22071093.5574         47.250
        36.7504
 -17936529.594    21952981.432   -13905552.8884   21952980.3744         46.750
        36.5004
  -6704325.453    23030704.296    -5135428.0364   23030706.3974         44.750
        31.2504
 -24653882.164    20095750.159   -19045754.2954   20095749.7704         52.250
        45.2504
  -7192369.996    22879181.213    -5581576.8044   22879183.1454         43.750
        31.0004
 11  3 11  2 54 59.9990000  0  9G 2G 4G 5G 7G 8G10G15G26G29
 -21526568.395    20137867.566   -16752598.5684   20137864.9824         50.000
        45.2504
  -9201895.082    23208963.515    -7125538.1324   23208966.4844         42.500
        28.0004
 -21970345.934    20423937.660   -17067379.0564   20423935.9964         50.500
        46.2504
 -13207097.574    22990892.827   -10281216.8634   22990892.9004         33.250
        17.5004
 -18520542.156    22065301.296   -14313455.5134   22065301.4524         47.500
        36.5004
 -17883955.297    21962986.146   -13864585.9424   21962985.4684         47.250
        36.0004
  -6803056.988    23011915.400    -5212361.5864   23011917.9684         43.000
        31.2504
 -24717262.426    20083689.455   -19095141.4974   20083688.9164         53.250
        45.5004
  -7205113.488    22876756.849    -5591506.8854   22876758.3114         45.250
        31.0004
 11  3 11  2 55 29.9990000  0  9G 2G 4G 5G 7G 8G10G15G26G29
 -21482792.605    20146198.193   -16718487.6364   20146195.4344         50.500
        45.7504
  -9111278.320    23226208.259    -7054927.9054   23226210.6684         43.750
        28.0004
 -21987467.703    20420679.505   -17080720.7034   20420677.6114         50.000
        46.0004
 -13173049.3981   22997372.747   -10254685.8405   22997372.2064         34.2501
        17.5005
 -18550441.551    22059611.635   -14336753.7584   22059611.5184         47.500
        36.5004
 -17831250.023    21973015.827   -13823516.9884   21973015.1334         47.000
        35.7504
  -6901539.727    22993175.133    -5289101.2974   22993177.2404         43.000
        30.5004
 -24780112.074    20071729.243   -19144115.2454   20071728.9074         53.000
        45.5004
  -7217317.422    22874434.910    -5601016.5094   22874435.7334         45.000
        31.5004
 11  3 11  2 55 59.9990000  0  9G 2G 4G 5G 7G 8G10G15G26G29
 -21438500.426    20154626.789   -16683974.3404   20154623.8784         49.750
        45.5004
  -9020476.645    23243487.347    -6984173.6234   23243489.7824         43.750
        27.2504
 -22004385.055    20417459.995   -17093903.0644   20417458.3784         49.500
        46.5004
 -13138476.684    23003952.488   -10227746.0864   23003951.3744         34.500
        17.0004
 -18579801.289    22054024.669   -14359631.4604   22054024.5634         48.250
        36.5004
 -17778414.637    21983070.237   -13782346.6534   21983069.3444         47.250
        36.0004
  -6999772.910    22974481.426    -5365646.5284   22974483.5414         43.000
        31.2504
 -24842430.730    20059870.647   -19192675.2294   20059869.9094         52.500
        45.5004
  -7228982.480    22872214.526    -5610106.2294   22872216.0794         44.000
        30.5004
 11  3 11  2 56 29.9990000  0  9G 2G 4G 5G 7G 8G10G15G26G29
 -21393692.715    20163153.733   -16649059.2984   20163150.5994         50.000
        45.5004
  -8929491.570    23260801.150    -6913276.4254   23260803.6684         42.250
        27.7504
 -22021097.520    20414279.939   -17106925.7644   20414278.3084         49.000
        46.2504
 -13103380.746    23010631.698

 -18608620.320    22048541.103   -14382087.8434   22048540.8344         48.250
        35.7504
 -17725448.695    21993149.163   -13741074.5594   21993148.9464         46.500
        36.0004
  -7097755.367    22955836.111    -5441996.3764   22955838.4274         41.500
        30.7504
 -24904217.504    20048112.868   -19240820.7524   20048112.3084         52.500
        45.5004
  -7240109.469    22870097.576    -5618776.7034   22870099.3924         44.000
        31.0004
 11  3 11  2 56 59.9990000  0  9G 2G 4G 5G 7G 8G10G15G26G29
 -21348372.094    20171778.053   -16613744.5834   20171775.0884         52.250
        45.5004
  -8838326.082    23278149.666    -6842238.6424   23278152.9354         41.500
        27.5004
 -22037606.570    20411138.406   -17119789.9644   20411136.6984         52.000
        46.5004
 -13067764.2661   23017409.808

 -18636898.473    22043159.790   -14404122.7544   22043159.5564         48.500
        36.7504
 -17672354.250    22003253.060   -13699702.3424   22003252.4834         48.000
        35.7504
  -7195487.336    22937238.040    -5518151.0774   22937240.9154         43.500
        32.2504
 -24965473.391    20036456.586   -19288552.5894   20036455.6144         52.250
        45.5004
  -7250700.117    22868082.190    -5627029.2054   22868083.5724         44.000
        31.5004
 11  3 11  2 57 29.9990000  0  8G 2G 4G 5G 8G10G15G26G29
 -21302537.348    20180499.933   -16578029.2584   20180497.2874         52.000
        45.5004
  -8746979.816    23295532.460    -6771060.0294   23295535.9034         40.500
        27.5004
 -22053909.188    20408036.070   -17132493.3144   20408034.3664         52.000
        46.5004
 -18664632.551    22037881.695   -14425733.7134   22037881.8984         46.750
        36.7504
 -17619128.785    22013381.197   -13658228.0354   22013380.6984         48.000
        35.5004
  -7292965.410    22918688.114    -5594107.9324   22918691.4434         43.250
        32.7504
 -25026195.059    20024901.434   -19335868.1614   20024900.5444         52.000
        45.2504
  -7260752.805    22866169.202    -5634862.5464   22866170.5794         44.500
        31.7504
 11  3 11  2 57 59.9990000  0  8G 2G 4G 5G 8G10G15G26G29
 -21256188.008    20189319.836   -16541912.9544   20189317.6684         52.000
        45.0004
  -8655453.016    23312949.320    -6699740.7034   23312953.4044         40.000
        28.7504
 -22070003.762    20404973.581   -17145034.5624   20404971.4034         53.000
        46.2504
 -18691819.684    22032708.394   -14446918.4864   22032708.7384         49.000
        36.7504
 -17565771.094    22023535.087   -13616650.6844   22023534.8024         47.500
        35.5004
  -7390187.102    22900187.655    -5669864.9954   22900190.7854         43.000
        32.5004
 -25086380.672    20013448.137   -19382766.0194   20013447.8024         52.000
        45.2504
  -7270266.695    22864358.852    -5642276.0314   22864360.3094         45.000
        32.0004
 11  3 11  2 58 29.9990000  0  9G 2G 4G 5G 7G 8G10G15G26G29
 -21209328.266    20198236.877   -16505398.9544   20198234.6964         52.250
        45.0004
  -8563750.402    23330400.531    -6628284.3924   23330403.8494         40.250
        27.7504
 -22085893.039    20401949.722   -17157415.8184   20401948.2334         52.750
        46.2504
     42536.8011   23038335.958

 -18718462.008    22027638.719   -14467678.7384   22027638.5204         48.750
        37.5004
 -17512284.539    22033713.169   -13574972.9474   22033713.0254         48.000
        35.0004
  -7487154.230    22881735.750    -5745423.6714   22881737.9564         44.000
        32.5004
 -25146032.820    20002096.702   -19429248.1904   20002096.2444         52.000
        45.5004
  -7279245.387    22862650.921    -5649272.5084   22862651.6594         44.500
        31.0004
 11  3 11  2 58 59.9990000  0  9G 2G 4G 5G 7G 8G10G15G26G29
 -21161959.180    20207250.553   -16468488.0524   20207248.4194         52.250
        45.0004
  -8471874.000    23347884.054    -6556692.6664   23347886.8704         39.500
        26.0004
 -22101576.594    20398965.313   -17169636.7864   20398963.6604         53.250
        46.2504
     80229.160    23045508.929

 -18744558.719    22022673.050   -14488013.8234   22022672.2144         48.500
        36.7504
 -17458669.039    22043916.300   -13533194.6984   22043916.0644         47.500
        35.2504
  -7583866.039    22863332.015    -5820783.4384   22863333.7164         44.000
        31.5004
 -25205150.637    19990846.955   -19475314.0124   19990846.7174         49.500
        45.2504
  -7287689.695    22861043.216    -5655852.5414   22861044.9104         41.000
        31.0004
 11  3 11  2 59 29.9990000  0  9G 2G 4G 5G 7G 8G10G15G26G29
 -21114079.465    20216362.347   -16431179.2514   20216360.1044         52.000
        45.0004
  -8379823.031    23365400.820    -6484964.9094   23365403.9494         39.500
        26.5004
 -22117052.016    20396020.338   -17181695.5724   20396018.9554         52.500
        46.5004
                  23052779.066

 -18770106.195    22017810.707   -14507920.9534   22017810.9064         47.250
        37.0004
 -17404922.344    22054143.830   -13491314.2194   22054143.6714         48.250
        35.0004
  -7680318.879    22844976.895    -5895941.3804   22844979.5864         43.250
        29.7504
 -25263731.133    19979699.585   -19520961.1314   19979699.0404         50.250
        45.5004
  -7295597.906    22859538.319    -5662014.8674   22859540.0844         42.500
        31.2504
                            4  1
RINEX FILE SPLICE; other post-header comments skipped       COMMENT
 11  3 11  3  0  0.0000000  0  9G 2G 4G 5G 7G 8G10G15G26G29
 -21065690.770    20525363.086   -16393473.8414   20525360.3084         52.500
        45.0004
  -8287599.867    23682743.408    -6413103.0124   23682746.2094         41.000
        28.0004
 -22132319.430    20692907.806   -17193592.2654   20692906.1544         53.250
        46.5004
                  23359942.396

 -18795103.652    22312846.406   -14527399.4744   22312846.5024         49.500
        37.0004
 -17351045.730    22364188.593   -13449332.5404   22364188.6674         48.000
        35.2504
  -7776512.398    23126464.712    -5970897.2834   23126466.4734         43.750
        30.2504
 -25321774.426    20268446.780   -19566189.6594   20268446.3464         50.250
        45.7504
  -7302971.141    23157927.677    -5667760.2904   23157929.9474         41.500
        31.0004
 11  3 11  3  0 30.0000000  0  8G 2G 4G 5G 8G10G15G26G29
 -21016796.168    20534667.503   -16355374.2354   20534664.7244         52.000
        45.0004
  -8195207.734    23700324.515    -6341109.4444   23700328.0454         39.500
        26.7504
 -22147380.070    20690041.441   -17205327.8514   20690040.0034         52.500
        46.2504
 -18819551.887    22308194.045   -14546450.0354   22308193.9914         49.250
        36.7504
 -17297040.020    22374466.334   -13407250.2204   22374464.6904         48.500
        35.5004
  -7872447.027    23108209.330    -6045651.4554   23108211.2384         45.000
        31.5004
 -25379281.449    20257503.672   -19611000.3014   20257502.9254         52.000
        45.5004
  -7309811.906    23156626.584    -5673090.8344   23156628.5014         42.500
        31.5004
 11  3 11  3  1  0.0000000  0  8G 2G 4G 5G 8G10G15G26G29
 -20967396.078    20544067.921   -16316880.7324   20544065.4644         52.000
        45.0004
  -8102648.164    23717938.246    -6268985.4214   23717942.7914         40.000
        28.5004
 -22162232.977    20687215.277   -17216901.5624   20687213.5864         52.000
        46.5004
 -18843449.359    22303646.359   -14565071.4554   22303646.7024         47.750
        37.2504
 -17242905.625    22384766.909   -13365067.6184   22384766.5394         47.000
        35.5004
  -7968121.305    23090002.463    -6120202.7484   23090005.2644         44.250
        33.0004
 -25436251.031    20246662.529   -19655392.1664   20246662.1164         52.000
        45.7504
  -7316120.266    23155426.092    -5678006.4914   23155426.8774         42.750
        30.7504
 11  3 11  3  1 30.0000000  0  8G 2G 4G 5G 8G10G15G26G29
 -20917491.012    20553564.857   -16277993.7554   20553562.2624         51.500
        44.7504
  -8009921.914    23735584.180    -6196731.5104   23735587.5514         40.500
        26.7504
 -22176877.078    20684428.602   -17228312.5704   20684426.9264         51.500
        46.2504
 -18866794.359    22299204.236   -14583262.3334   22299204.2954         50.250
        36.5004
 -17188641.680    22395092.878   -13322784.0874   22395092.2864         46.750
        34.0004
  -8063533.328    23071846.058    -6194549.6844   23071849.3214         45.250
        33.5004
 -25492682.203    20235924.147   -19699364.4934   20235923.3344         49.750
        45.7504
  -7321896.074    23154326.551    -5682507.1974   23154328.2604         44.000
        32.0004
 11  3 11  3  2  0.0000000  0  8G 2G 4G 5G 8G10G15G26G29
 -20867082.895    20563156.884   -16238714.7734   20563154.4994         51.750
        44.7504
  -7917031.633    23753261.016    -6124349.7954   23753264.9924         41.250
        27.0004
 -22191312.625    20681681.182   -17239561.0584   20681680.2584         52.500
        46.2504
 -18889586.484    22294867.497   -14601022.4364   22294867.2604         49.250
        36.5004
 -17134249.047    22405443.807   -13280400.2864   22405443.4524         47.750
        34.5004
  -8158682.605    23053739.300    -6268691.8894   23053742.5784         44.250
        32.5004
 -25548575.031    20225288.245   -19742917.3474   20225287.4294         50.500
        45.7504
  -7327141.406    23153328.637    -5686594.5504   23153330.1534         43.500
        31.0004
 11  3 11  3  2 30.0000000  0  8G 2G 4G 5G 8G10G15G26G29
 -20816172.902    20572845.294   -16199044.7274   20572842.3304         52.000
        44.5004
  -7823978.867    23770968.758    -6051841.4814   23770972.0394         41.000
        25.0004
 -22205539.332    20678974.388   -17250646.8044   20678972.7104         53.250
        46.5004
 -18911824.469    22290635.720   -14618350.7074   22290635.6444         50.000
        37.5004
 -17079727.469    22415819.150   -13237916.0224   22415818.9424         46.000
        35.0004
  -8253568.219    23035683.662    -6342628.6414   23035685.8374         44.000
        32.5004
 -25603928.766    20214754.699   -19786050.0944   20214754.0744         50.250
        45.7504
  -7331856.711    23152431.536    -5690268.8544   23152433.4654         42.250
        31.7504
 11  3 11  3  3  0.0000000  0  8G 2G 4G 5G 8G10G15G26G29
 -20764761.852    20582628.023   -16158984.2604   20582625.9804         52.000
        44.5004
  -7730765.469    23788706.738    -5979207.9644   23788710.4654         43.000
        25.2504
 -22219556.379    20676306.956   -17261569.1914   20676305.0054         52.500
        46.5004
 -18933507.492    22286509.078   -14635246.5454   22286509.2674         48.000
        36.2504
 -17025077.113    22426218.877   -13195331.4324   22426218.6084         47.500
        35.0004
  -8348188.957    23017678.017    -6416359.0164   23017679.5594         44.250
        33.5004
 -25658742.777    20204323.876   -19828762.3044   20204323.0874         52.000
        46.0004
  -7336042.363    23151635.399    -5693530.4684   23151637.1084         43.250
        31.0004
