     2.11           OBSERVATION DATA    G (GPS)             RINEX VERSION / TYPE
TEQC  2010OCT21                         20110410 01:01:09UTCPGM / RUN BY / DATE
LINUX 2.4.20-8|PENTIUM IV|GCC -STATIC|LINUX|486/DX+         COMMENT
TEQC  2010OCT21                         20110410 00:15:24UTCCOMMENT
TEQC  2010OCT21                         20110410 00:15:19UTCCOMMENT
BIT 2 OF LLI FLAGS DATA COLLECTED UNDER A/S CONDITION       COMMENT
BIS2                                                        MARKER NAME
BIS2                                                        MARKER NUMBER
GFZ                 GFZ                                     OBSERVER / AGENCY
2177                SEPT POLARX2        2.6.0               REC # / TYPE / VERS
12128               ASH700936C_M    NONE                    ANT # / TYPE
  1249005.5455  4513917.3464  4316147.9247                  APPROX POSITION XYZ
        0.0460        0.0000        0.0000                  ANTENNA: DELTA H/E/N
     1     1                                                WAVELENGTH FACT L1/2
 SNR IS MAPPED TO RINEX SNR FLAG VALUE [0-9]                COMMENT
  L1 & L2: MIN(MAX(INT(SNR_DBHZ/6), 0), 9)                  COMMENT
     7    L1    L2    C1    P1    P2    S1    S2            # / TYPES OF OBSERV
    30.000                                                  INTERVAL
  2011    04    10    00    00   00.000                     TIME OF FIRST OBS
  2011    04    10    23    59   30.000                     TIME OF LAST OBS
                                                            END OF HEADER
 11 04 10 00 00  0.0000000  0 10G05G21G15G10G26G30G25G29G02G12        .000000000
 -36699389.58748 -28560056.94046  23132382.99900  23132382.52000  23132381.46500
        51.00000        40.00000
 -18270808.80547 -14053197.45144  25832975.40200  25832974.04400  25832973.99500
        43.00000        24.00000
  -1964277.68646  -1421365.65042  27153009.44000  27153010.14300  27153009.77200
        38.00000        14.00000
 -23393685.03746 -18043007.78142  26556451.22600  26556449.90800  26556451.46100
        39.00000        14.00000
 -11976524.05146  -8474414.25042  25900995.93700  25900995.31200  25900996.00500
        40.00000        16.00000
  -9067569.05646  -6252700.25742  26389797.15600  26389796.82400  26389796.04200
        40.00000        14.00000
 -32646168.12148 -25339255.28245  24435306.75100  24435305.55900  24435308.20700
        49.00000        34.00000
 -40604981.05648 -31585325.77147  22649819.06500  22649818.27400  22649817.78500
        52.00000        44.00000
 -37173653.76947 -28874360.54044  25040956.18800  25040955.63100  25040953.42400
        45.00000        26.00000
 -32226453.42446 -24838880.16943  26409109.95400  26409109.40700  26409109.70000
        39.00000        20.00000
 11 04 10 00 00 30.0000000  0 10G05G21G15G10G26G30G25G29G02G12        .000000000
 -36691966.05448 -28554272.38746  23133795.88200  23133795.19800  23133794.21100
        51.00000        40.00000
 -18379398.88647 -14137813.05344  25812311.41800  25812310.28500  25812309.65000
        44.00000        24.00000
  -2102874.20646  -1529362.97042  27126636.46600  27126635.69400  27126635.51800
        39.00000        14.00000
 -23320208.44646 -17985753.41342  26570433.67700  26570432.28100  26570433.40400
        39.00000        14.00000
 -12113783.28046  -8581369.50143  25874876.68700  25874876.26700  25874876.78500
        40.00000        18.00000
  -9176473.10146  -6337560.56042  26369074.21900  26369073.10600  26369071.98200
        40.00000        14.00000
 -32608190.23448 -25309662.13745  24442534.02500  24442532.72600  24442535.12900
        49.00000        34.00000
 -40669052.06848 -31635251.24547  22637626.99700  22637625.98100  22637625.54100
        52.00000        44.00000
 -37132426.03747 -28842235.09044  25048802.14500  25048801.19700  25048798.81300
        45.00000        26.00000
 -32153147.79346 -24781758.91943  26423059.67100  26423058.74300  26423059.45600
        39.00000        18.00000
 11 04 10 00 01  0.0000000  0 10G05G21G15G10G26G30G25G29G02G12        .000000000
 -36684048.50348 -28548102.88146  23135302.42400  23135302.10200  23135300.78300
        51.00000        40.00000
 -18487901.82647 -14222360.77644  25791663.86400  25791663.21000  25791662.00800
        44.00000        24.00000
  -2241531.37246  -1637407.53942  27100250.22600  27100249.92400  27100249.19100
        39.00000        14.00000
 -23246595.41946 -17928392.76442  26584441.65300  26584440.13900  26584441.53600
        38.00000        12.00000
 -12250826.22246  -8688156.22843  25848798.66100  25848797.71300  25848798.26000
        41.00000        18.00000
  -9284904.55946  -6422052.61542  26348440.85000  26348439.34500  26348438.21200
        41.00000        14.00000
 -32569810.26648 -25279755.67745  24449837.98200  24449836.79000  24449838.80200
        49.00000        34.00000
 -40732703.21748 -31684849.54547  22625514.57100  22625513.91600  22625513.10500
        52.00000        44.00000
 -37091066.08847 -28810006.62544  25056673.48900  25056672.16100  25056669.45500
        46.00000        26.00000
 -32079798.08146 -24724603.33443  26437017.90600  26437016.85100  26437017.04700
        40.00000        20.00000
 11 04 10 00 01 30.0000000  0 10G05G21G15G10G26G30G25G29G02G12        .000000000
 -36675638.69448 -28541549.79846  23136903.51500  23136902.47000  23136901.24900
        51.00000        40.00000
 -18596317.68447 -14306840.63544  25771032.83900  25771032.29200  25771030.73900
        44.00000        24.00000
  -2380246.46546  -1745497.25142  27073853.82800  27073853.44700  27073853.25100
        39.00000        14.00000
 -23172848.48246 -17870927.75642  26598475.59400  26598473.55200  26598474.83200
        39.00000        12.00000
 -12387649.25147  -8794771.58743  25822762.50100  25822760.95800  25822761.92500
        42.00000        18.00000
  -9392860.68746  -6506174.29042  26327895.71800  26327896.12800  26327895.15100
        40.00000        14.00000
 -32531031.01748 -25249538.09445  24457217.10600  24457216.02100  24457218.12200
        49.00000        34.00000
 -40795932.88548 -31734119.41647  22613482.39200  22613481.77700  22613480.77100
        52.00000        44.00000
 -37049574.15947 -28777675.31044  25064568.21900  25064567.69200  25064565.56200
        45.00000        28.00000
 -32006407.21746 -24667415.66043  26450983.57500  26450983.07700  26450982.78400
        40.00000        20.00000
 11 04 10 00 02  0.0000000  0 10G05G21G15G10G26G30G25G29G02G12        .000000000
 -36666738.41448 -28534614.52646  23138596.79100  23138596.15600  23138594.93500
        51.00000        40.00000
 -18704645.97947 -14391252.26244  25750418.87900  25750418.03900  25750416.23200
        44.00000        24.00000
  -2519016.40346  -1853629.69342  27047447.07400  27047446.08800  27047446.13700
        39.00000        16.00000
 -23098969.90146 -17813360.12642  26612533.82800  26612531.80600  26612532.99800
        38.00000        12.00000
 -12524248.14246  -8901212.31143  25796768.42400  25796767.39900  25796768.56100
        41.00000        18.00000
  -9500338.88946  -6589923.56042  26307443.42500  26307443.43500  26307442.54600
        40.00000        14.00000
 -32491854.89748 -25219011.26645  24464671.72000  24464670.57700  24464673.09800
        48.00000        34.00000
 -40858739.59848 -31783059.71247  22601530.96900  22601530.17800  22601529.08400
        52.00000        44.00000
 -37007950.77947 -28745241.58844  25072488.80600  25072487.73200  25072486.34500
        45.00000        26.00000
 -31932977.69046 -24610197.86743  26464956.89300  26464956.30700  26464955.81800
        40.00000        18.00000
 11 04 10 00 02 30.0000000  0 10G05G21G15G10G26G30G25G29G02G12        .000000000
 -36657349.07648 -28527298.17346  23140383.55000  23140382.74900  23140381.67400
        51.00000        40.00000
 -18812886.49547 -14475595.48044  25729821.34000  25729819.90400  25729818.99500
        44.00000        24.00000
  -2657837.99346  -1961802.39742  27021029.71300  27021029.35100  27021029.80100
        38.00000        16.00000
 -23024961.61346 -17755691.47942  26626616.96200  26626614.40300  26626617.23600
        38.00000        12.00000
 -12660618.76247  -9007475.12743  25770818.35400  25770816.79100  25770818.10000
        42.00000        18.00000
  -9607336.53146  -6673298.36742  26287081.77300  26287081.74400  26287081.06000
        38.00000        16.00000
 -32452284.33648 -25188177.07645  24472201.63900  24472200.63300  24472203.35900
        48.00000        34.00000
 -40921121.50548 -31831668.99447  22589659.57800  22589659.14900  22589658.16200
        52.00000        44.00000
 -36966196.09747 -28712705.53944  25080434.21500  25080433.21800  25080431.87000
        44.00000        26.00000
 -31859511.81046 -24552951.74243  26478937.14600  26478936.41400  26478935.56400
        39.00000        18.00000
 11 04 10 00 03  0.0000000  0 10G05G21G15G10G26G30G25G29G02G12        .000000000
 -36647471.20748 -28519601.15646  23142263.37300  23142262.78600  23142261.72200
        51.00000        40.00000
 -18921037.43947 -14559868.90744  25709240.80700  25709239.49800  25709238.09200
        44.00000        24.00000
  -2796706.64646  -2070011.73142  26994603.45200  26994603.07100  26994603.50100
        38.00000        16.00000
 -22950825.04646 -17697922.86542  26640725.66000  26640722.86700  26640725.65100
        39.00000        14.00000
 -12796755.65847  -9113555.86043  25744911.95800  25744911.09900  25744912.53400
        42.00000        20.00000
  -9713849.52346  -6756295.50342  26266813.70300  26266812.34500  26266812.14000
        39.00000        14.00000
 -32412320.55548 -25157036.48845  24479806.69700  24479805.91600  24479808.14300
        48.00000        34.00000
 -40983075.52548 -31879944.85547  22577870.34000  22577869.64700  22577868.73800
        52.00000        44.00000
 -36924309.35147 -28680066.58344  25088405.22600  25088403.96600  25088402.45200
        44.00000        24.00000
 -31786010.59446 -24495678.09743  26492923.60200  26492923.02600  26492922.56700
        39.00000        18.00000
 11 04 10 00 03 30.0000000  0 10G05G21G15G10G26G30G25G29G02G12        .000000000
 -36637110.91448 -28511528.21046  23144235.35100  23144234.21700  23144233.24100
        52.00000        40.00000
 -19029102.48247 -14644075.41144  25688677.20300  25688675.66000  25688673.81400
        44.00000        24.00000
  -2935623.92546  -2178258.98042  26968168.92700  26968167.97000  26968167.97000
        38.00000        14.00000
 -22876566.45046 -17640059.12042  26654855.82000  26654854.17900  26654856.77700
        38.00000        12.00000
 -12932659.30046  -9219454.80443  25719050.08700  25719049.40300  25719050.95600
        41.00000        18.00000
  -9819879.75446  -6838916.48442  26246636.66400  26246635.06200  26246635.54100
        39.00000        14.00000
 -32371970.41548 -25125594.83545  24487485.07600  24487484.25600  24487486.56100
        48.00000        34.00000
 -41044604.03648 -31927889.15147  22566161.86700  22566161.22200  22566160.28500
        52.00000        44.00000
 -36882295.05347 -28647328.23344  25096400.64900  25096399.59400  25096397.31800
        44.00000        26.00000
 -31712481.23946 -24438382.52243  26506916.31000  26506915.34300  26506915.06000
        40.00000        20.00000
 11 04 10 00 04  0.0000000  0 10G05G21G15G10G26G30G25G29G02G12        .000000000
 -36626268.01748 -28503079.21946  23146298.46800  23146297.40300  23146296.51400
        51.00000        40.00000
 -19137079.50947 -14728213.32044  25668129.63000  25668127.70500  25668126.59200
        44.00000        24.00000
  -3074584.91546  -2286540.30142  26941725.67000  26941724.88800  26941724.49700
        38.00000        16.00000
 -22802186.16046 -17582100.61642  26669008.80800  26669008.13400  26669010.86900
        37.00000        14.00000
 -13068323.89247  -9325167.50143  25693233.83400  25693233.17000  25693235.08400
        42.00000        18.00000
  -9925422.73246  -6921157.77742  26226551.87900  26226550.64800  26226551.35100
        38.00000        14.00000
 -32331234.78648 -25093852.80145  24495237.06100  24495235.71300  24495238.41900
        49.00000        34.00000
 -41105703.50548 -31975499.13047  22554534.98000  22554534.29600  22554533.44600
        52.00000        44.00000
 -36840151.77347 -28614489.38844  25104419.98500  25104419.13500  25104416.77100
        44.00000        26.00000
 -31638924.35946 -24381065.48643  26520914.00000  26520912.77900  26520912.73000
        40.00000        20.00000
 11 04 10 00 04 30.0000000  0 10G05G21G15G10G26G30G25G29G02G12        .000000000
 -36614941.57248 -28494253.43646  23148453.95500  23148452.85100  23148451.97200
        51.00000        40.00000
 -19244965.53747 -14812280.31544  25647598.76000  25647597.89000  25647596.88400
        44.00000        24.00000
  -3213583.91846  -2394851.22742  26915275.04600  26915274.65600  26915274.52900
        38.00000        16.00000
 -22727683.95946 -17524047.08342  26683187.50600  26683185.45500  26683188.17000
        38.00000        12.00000
 -13203742.70147  -9430688.66643  25667464.82100  25667463.41400  25667465.57300
        42.00000        20.00000
 -10030473.27846  -7003015.37042  26206560.87900  26206560.61600  26206559.82400
        38.00000        14.00000
 -32290113.51348 -25061810.26645  24503062.32800  24503060.99900  24503063.22600
        49.00000        34.00000
 -41166369.61348 -32022771.42647  22542990.88000  22542989.95200  22542989.06300
        52.00000        44.00000
 -36797877.01547 -28581548.11144  25112465.24600  25112463.71300  25112462.42300
        45.00000        26.00000
 -31565339.69746 -24323726.80843  26534916.98500  26534915.62700  26534915.35300
        41.00000        20.00000
 11 04 10 00 05  0.0000000  0 10G05G21G15G10G26G30G25G29G02G12        .000000000
 -36603135.78548 -28485054.13746  23150700.06400  23150699.37000  23150698.47200
        51.00000        40.00000
 -19352762.07047 -14896277.57444  25627086.80100  25627085.20900  25627084.04700
        45.00000        24.00000
  -3352620.01846  -2503191.05142  26888817.60500  26888816.79400  26888816.63800
        38.00000        16.00000
 -22653064.33746 -17465902.04542  26697386.10300  26697385.10600  26697388.23200
        36.00000        14.00000
 -13338914.05946  -9536017.02143  25641741.68100  25641741.30900  25641743.43900
        41.00000        20.00000
 -10135031.15046  -7084489.03642  26186664.97600  26186663.59800  26186663.37400
        38.00000        14.00000
 -32248611.44048 -25029471.00045  24510959.79300  24510958.55200  24510961.51200
        48.00000        34.00000
 -41226602.91248 -32069706.47147  22531528.65800  22531527.90600  22531527.00700
        52.00000        44.00000
 -36755473.48347 -28548506.47444  25120534.19600  25120533.25800  25120531.03100
        44.00000        24.00000
 -31491731.83746 -24266370.05243  26548923.68100  26548922.69400  26548922.56700
        41.00000        18.00000
 11 04 10 00 05 30.0000000  0 10G05G21G15G10G26G30G25G29G02G12        .000000000
 -36590856.37948 -28475485.78746  23153036.64800  23153036.10100  23153035.26000
        51.00000        40.00000
 -19460472.61247 -14980207.84644  25606589.65200  25606588.64600  25606587.32700
        44.00000        24.00000
  -3491694.42346  -2611560.72042  26862352.59300  26862351.93800  26862351.83100
        39.00000        16.00000
 -22578333.48146 -17407670.39042  26711607.79200  26711605.79000  26711609.68700
        38.00000        14.00000
 -13473837.88446  -9641152.46943  25616066.68900  25616066.30800  25616067.82200
        41.00000        20.00000
 -10239097.66946  -7165579.83542  26166862.77000  26166861.18800  26166860.74800
        39.00000        16.00000
 -32206735.18648 -24996840.17045  24518928.61600  24518927.56100  24518929.57400
        48.00000        34.00000
 -41286405.82348 -32116306.15347  22520148.32600  22520147.54400  22520146.92900
        52.00000        44.00000
 -36712945.28747 -28515367.67544  25128626.97100  25128626.20900  25128623.58100
        44.00000        24.00000
 -31418107.47946 -24209000.42643  26562933.17100  26562932.71200  26562932.86800
        40.00000        18.00000
 11 04 10 00 06  0.0000000  0 10G05G21G15G10G26G30G25G29G02G12        .000000000
 -36578106.99748 -28465551.22746  23155462.54400  23155461.98700  23155461.22500
        51.00000        40.00000
 -19568098.49447 -15064072.13744  25586109.46100  25586108.14200  25586107.03800
        45.00000        24.00000
  -3630805.79346  -2719959.19242  26835881.49500  26835880.25500  26835880.23500
        39.00000        16.00000
 -22503495.42946 -17349355.16042  26725850.13200  26725847.61100  26725850.79600
        38.00000        14.00000
 -13608511.79346  -9746093.20343  25590439.79600  25590438.68300  25590439.81600
        41.00000        20.00000
 -10342672.18246  -7246287.24642  26147152.17300  26147151.75300  26147151.47000
        39.00000        14.00000
 -32164489.11448 -24963921.16645  24526968.07500  24526966.89300  24526969.03300
        48.00000        34.00000
 -41345778.09048 -32162570.27047  22508850.29200  22508849.39300  22508848.74800
        52.00000        44.00000
 -36670294.76247 -28482133.58444  25136743.83500  25136742.56500  25136740.19100
        44.00000        24.00000
 -31344471.13646 -24151621.47843  26576946.56800  26576945.17200  26576945.26900
        40.00000        18.00000
 11 04 10 00 06 30.0000000  0 10G05G21G15G10G26G30G25G29G02G12        .000000000
 -36564887.41248 -28455250.27946  23157977.98700  23157977.59700  23157976.71700
        51.00000        40.00000
 -19675637.59147 -15147868.78744  25565645.15300  25565643.92200  25565643.14100
        45.00000        26.00000
  -3769949.32246  -2828382.72742  26809401.84000  26809402.20200  26809402.40700
        38.00000        16.00000
 -22428550.55446 -17290956.68842  26740111.04100  26740109.84900  26740112.71200
        38.00000        14.00000
 -13742930.30746  -9850834.91943  25564859.51900  25564859.95800  25564861.25800
        40.00000        20.00000
 -10445750.35446  -7326607.93942  26127537.31700  26127537.59000  26127536.89600
        39.00000        16.00000
 -32121874.22148 -24930714.77845  24535076.90900  24535076.00100  24535078.50200
        48.00000        32.00000
 -41404716.51948 -32208496.32847  22497634.50800  22497633.81400  22497633.04300
        52.00000        44.00000
 -36627520.57547 -28448803.13644  25144882.94100  25144881.54400  25144879.96200
        44.00000        24.00000
 -31270823.43746 -24094233.66143  26590960.21000  26590960.33700  26590959.79000
        40.00000        18.00000
 11 04 10 00 07  0.0000000  0 10G05G21G15G10G26G30G25G29G02G12        .000000000
 -36551196.28148 -28444581.88746  23160583.49500  23160583.05600  23160582.11800
        51.00000        40.00000
 -19783086.27147 -15231594.99844  25545197.58800  25545197.01200  25545196.22000
        44.00000        26.00000
  -3909118.60246  -2936826.32242  26782919.96800  26782918.86400  26782919.17700
        39.00000        16.00000
 -22353497.95746 -17232474.30342  26754394.33000  26754392.11300  26754395.18000
        38.00000        14.00000
 -13877085.91946  -9955371.77043  25539331.42400  25539330.64300  25539332.54800
        41.00000        20.00000
 -10548326.70446  -7406537.58842  26108019.14700  26108018.51200  26108017.11500
        41.00000        16.00000
 -32078889.76648 -24897220.42445  24543256.71100  24543255.50000  24543258.02000
        48.00000        32.00000
 -41463216.65148 -32254080.85147  22486502.48800  22486501.81400  22486500.78800
        52.00000        44.00000
 -36584619.72947 -28415374.00044  25153046.44900  25153045.79400  25153044.31000
        44.00000        26.00000
 -31197163.54946 -24036836.38143  26604977.78800  26604977.33900  26604976.80200
        38.00000        18.00000
 11 04 10 00 07 30.0000000  0 10G05G21G15G10G26G30G25G29G02G12        .000000000
 -36537034.72148 -28433546.92846  23163278.35500  23163277.72000  23163276.98700
        51.00000        40.00000
 -19890443.54447 -15315249.96044  25524769.10100  25524767.32300  25524766.94200
        45.00000        26.00000
  -4048310.13846  -3045287.25243  26756432.56700  26756431.64900  26756431.48300
        39.00000        18.00000
 -22278338.81346 -17173908.90142  26768695.30000  26768694.25400  26768697.99600
        37.00000        12.00000
 -14010974.07146 -10059700.18843  25513853.33400  25513852.46500  25513854.28200
        41.00000        20.00000
 -10650397.84046  -7486073.55142  26088595.79000  26088595.71200  26088593.73900
        41.00000        16.00000
 -32035537.81547 -24863439.70045  24551506.00500  24551504.75500  24551507.89000
        47.00000        32.00000
 -41521275.57848 -32299321.58247  22475454.16400  22475453.45100  22475452.62100
        52.00000        44.00000
 -36541592.04047 -28381846.02944  25161235.50100  25161233.84000  25161232.18000
        45.00000        26.00000
 -31123493.15846 -23979430.89442  26618997.61300  26618996.09900  26618995.65000
        40.00000        16.00000
 11 04 10 00 08  0.0000000  0 10G05G21G15G10G26G30G25G29G02G12        .000000000
 -36522408.16748 -28422149.64046  23166061.48200  23166061.02300  23166060.27100
        50.00000        40.00000
 -19997712.95047 -15398836.48044  25504355.70600  25504354.64100  25504354.18200
        45.00000        26.00000
  -4187523.98046  -3153765.61343  26729940.84800  26729940.17400  26729939.88100
        39.00000        18.00000
 -22203078.52446 -17115264.67842  26783018.75600  26783015.91300  26783019.35200
        38.00000        12.00000
 -14144594.24846 -10163819.84543  25488426.20600  25488425.46300  25488427.33900
        41.00000        20.00000
 -10751964.76646  -7565216.63742  26069267.64600  26069268.61300  26069266.09300
        41.00000        16.00000
 -31991824.33547 -24829377.27245  24559824.27400  24559823.60900  24559825.70000
        47.00000        32.00000
 -41578895.13748 -32344219.95647  22464489.72100  22464488.76400  22464488.22700
        52.00000        44.00000
 -36498440.94847 -28348221.87344  25169446.77600  25169445.59400  25169443.14300
        44.00000        24.00000
 -31049818.34146 -23922021.95142  26633016.49100  26633016.03200  26633015.53400
        39.00000        16.00000
 11 04 10 00 08 30.0000000  0 10G05G21G15G10G26G30G25G29G02G12        .000000000
 -36507315.94448 -28410389.48946  23168934.07800  23168933.09100  23168932.16300
        51.00000        40.00000
 -20104890.24947 -15482351.21944  25483960.92900  25483959.42500  25483959.27900
        45.00000        26.00000
  -4326754.41446  -3262256.87142  26703444.88000  26703445.32900  26703445.10500
        38.00000        16.00000
 -22127717.19046 -17056541.66842  26797359.23900  26797357.58800  26797359.53200
        38.00000        12.00000
 -14277939.63247 -10267725.30943  25463052.47200  25463050.64500  25463052.33500
        42.00000        20.00000
 -10853022.24346  -7643962.73242  26050038.35800  26050037.55700  26050035.34000
        41.00000        16.00000
 -31947749.47647 -24795033.24245  24568211.75200  24568211.25300  24568212.97300
        47.00000        32.00000
 -41636071.17248 -32388772.71847  22453609.65800  22453608.97400  22453607.91000
        53.00000        44.00000
 -36455164.25147 -28314499.85344  25177681.78900  25177680.87100  25177678.46800
        44.00000        24.00000
 -30976138.94446 -23864609.44142  26647037.24400  26647036.54100  26647036.14000
        39.00000        16.00000
 11 04 10 00 09  0.0000000  0 10G05G21G15G10G26G30G25G29G02G12        .000000000
 -36491756.91248 -28398265.59346  23171894.43300  23171893.85700  23171893.00700
        51.00000        40.00000
 -20211972.70947 -15565792.06244  25463583.72600  25463582.29000  25463581.94900
        45.00000        26.00000
  -4465995.66546  -3370756.52942  26676949.86000  26676948.45300  26676948.91200
        39.00000        16.00000
 -22052254.20746 -16997739.49942  26811718.88700  26811717.69600  26811720.10800
        37.00000        14.00000
 -14411003.47947 -10371411.44543  25437729.86500  25437729.63100  25437731.30100
        42.00000        22.00000
 -10953565.07146  -7722307.82442  26030905.27900  26030904.18500  26030902.14300
        41.00000        16.00000
 -31903313.01047 -24760407.44345  24576668.07700  24576666.90500  24576668.70200
        47.00000        32.00000
 -41692799.15048 -32432976.34647  22442814.40400  22442813.74000  22442812.86100
        52.00000        44.00000
 -36411759.44547 -28280678.03744  25185940.79300  25185939.61100  25185938.02800
        43.00000        24.00000
 -30902454.59046 -23807193.07742  26661058.93500  26661058.42700  26661057.88000
        39.00000        16.00000
 11 04 10 00 09 30.0000000  0 10G05G21G15G10G26G30G25G29G02G12        .000000000
 -36475735.85248 -28385781.67446  23174943.43700  23174942.70400  23174941.64900
        51.00000        40.00000
 -20318962.90547 -15649161.01544  25443223.77400  25443222.25100  25443222.61200
        44.00000        26.00000
  -4605247.53746  -3479264.49942  26650449.42700  26650449.61300  26650449.60300
        38.00000        16.00000
 -21976694.67446 -16938862.10542  26826098.34600  26826096.50000  26826099.04000
        38.00000        12.00000
 -14543784.87247 -10474877.47043  25412462.05000  25412462.64600  25412463.81800
        42.00000        22.00000
 -11053594.25146  -7800252.65342  26011869.69800  26011869.42500  26011867.45200
        41.00000        16.00000
 -31858520.78448 -24725504.42845  24585191.91200  24585190.85700  24585192.89900
        48.00000        32.00000
 -41749081.00648 -32476832.35047  22432104.23300  22432103.36400  22432102.81700
        52.00000        44.00000
 -36368230.04747 -28246759.11044  25194224.63800  25194223.42600  25194222.16600
        44.00000        24.00000
 -30828770.96346 -23749777.28542  26675081.22200  26675080.13700  26675079.01400
        39.00000        16.00000
 11 04 10 00 10  0.0000000  0 10G05G21G15G10G26G30G25G29G02G12        .000000000
 -36459257.22948 -28372941.21446  23178079.01800  23178078.63700  23178077.65000
        51.00000        40.00000
 -20425863.15447 -15732459.89144  25422881.49300  25422879.92100  25422879.90100
        45.00000        26.00000
  -4744509.52146  -3587780.37042  26623949.62000  26623948.88800  26623948.75100
        39.00000        16.00000
 -21901043.08046 -16879912.90842  26840494.51900  26840493.39500  26840494.38200
        38.00000        12.00000
 -14676282.21347 -10578122.17643  25387250.36400  25387249.12300  25387250.24600
        43.00000        22.00000
 -11153109.64246  -7877797.12242  25992932.76900  25992932.09500  25992930.57100
        41.00000        16.00000
 -31813377.82248 -24690328.11945  24593782.52400  24593780.89300  24593783.42300
        48.00000        32.00000
 -41804917.15448 -32520341.05647  22421479.06700  22421478.15800  22421477.50400
        52.00000        44.00000
 -36324578.49547 -28212745.01144  25202531.17500  25202529.89500  25202529.69000
        43.00000        24.00000
 -30755092.81746 -23692365.77742  26689101.17400  26689100.47000  26689099.63000
        39.00000        16.00000
 11 04 10 00 10 30.0000000  0 10G05G21G15G10G26G30G25G29G02G12        .000000000
 -36442323.37948 -28359746.03446  23181301.55700  23181300.94200  23181299.78900
        51.00000        40.00000
 -20532673.09347 -15815688.38344  25402556.09200  25402554.60700  25402554.61700
        45.00000        26.00000
  -4883778.73546  -3696301.85042  26597447.31300  26597446.60900  26597447.55700
        39.00000        16.00000
 -21825301.80546 -16820893.88442  26854907.66900  26854905.95900  26854908.02000
        38.00000        12.00000
 -14808491.79147 -10681142.63343  25362091.35900  25362090.57700  25362091.37800
        43.00000        22.00000
 -11252109.26846  -7954939.70442  25974092.73300  25974092.74200  25974091.76600
        40.00000        16.00000
 -31767887.16248 -24654880.87845  24602438.68200  24602437.48100  24602440.29400
        48.00000        32.00000
 -41860306.36948 -32563501.49347  22410939.05200  22410938.26100  22410937.24500
        53.00000        44.00000
 -36280805.45747 -28178636.26544  25210861.29300  25210859.37800  25210859.46600
        43.00000        24.00000
 -30681423.26146 -23634960.95042  26703121.04800  26703119.51400  26703118.61500
        40.00000        16.00000
 11 04 10 00 11  0.0000000  0 10G05G21G15G10G26G30G25G29G02G12        .000000000
 -36424936.96048 -28346198.20646  23184610.03900  23184609.62900  23184608.25100
        51.00000        40.00000
 -20639392.99947 -15898846.71144  25382247.63000  25382246.45700  25382246.30100
        45.00000        26.00000
  -5023053.03246  -3804827.26942  26570944.08700  26570943.63700  26570944.33100
        39.00000        16.00000
 -21749473.60446 -16761807.13542  26869338.46100  26869335.79400  26869338.19700
        38.00000        12.00000
 -14940410.63247 -10783936.56043  25336988.27800  25336987.42800  25336988.24800
        42.00000        20.00000
 -11350591.38846  -8031679.02642  25955352.91000  25955351.51300  25955351.54300
        40.00000        16.00000
 -31722052.42548 -24619165.51345  24611160.77700  24611159.44900  24611161.58800
        48.00000        32.00000
 -41915247.98148 -32606313.14447  22400483.99300  22400482.99600  22400482.29300
        52.00000        44.00000
 -36236912.38147 -28144433.95844  25219213.53600  25219212.58800  25219211.84600
        43.00000        24.00000
 -30607765.08546 -23577564.98342  26717137.88400  26717136.32100  26717135.91000
        39.00000        16.00000
 11 04 10 00 11 30.0000000  0 10G05G21G15G10G26G30G25G29G02G12        .000000000
 -36407095.87148 -28332296.08646  23188005.30300  23188004.58100  23188003.35000
        51.00000        40.00000
 -20746018.26347 -15981931.30344  25361958.04900  25361956.22200  25361956.24200
        45.00000        26.00000
  -5162324.94046  -3913350.87542  26544442.22800  26544441.40800  26544441.95500
        40.00000        16.00000
 -21673556.95946 -16702651.44342  26883785.16500  26883783.01600  26883784.97000
        39.00000        12.00000
 -15072030.29147 -10886497.35343  25311942.24400  25311941.15000  25311941.46300
        43.00000        20.00000
 -11448549.46546  -8108009.99542  25936711.20200  25936710.42000  25936710.51800
        40.00000        16.00000
 -31675872.06748 -24583180.83345  24619948.49600  24619947.13800  24619949.88300
        48.00000        32.00000
 -41969736.05048 -32648771.39047  22390115.02200  22390114.15300  22390113.55700
        52.00000        44.00000
 -36192895.41447 -28110135.12244  25227589.93600  25227589.07700  25227588.32500
        43.00000        24.00000
 -30534116.60746 -23520176.58942  26731151.39800  26731150.76300  26731150.59700
        38.00000        14.00000
 11 04 10 00 12  0.0000000  0 10G05G21G15G10G26G30G25G29G02G12        .000000000
 -36388803.69048 -28318042.46946  23191486.02200  23191485.41600  23191484.32200
        51.00000        40.00000
 -20852550.62047 -16064943.49344  25341685.73900  25341683.83400  25341683.78600
        45.00000        26.00000
  -5301593.33546  -4021871.74742  26517939.58800  26517939.08000  26517940.47700
        39.00000        16.00000
 -21597555.85446 -16643429.92542  26898246.98100  26898245.38900  26898247.63600
        38.00000        12.00000
 -15203348.75847 -10988823.43743  25286952.41800  25286951.86100  25286952.38900
        42.00000        20.00000
 -11545983.28246  -8183932.45742  25918170.70400  25918169.25800  25918169.06300
        41.00000        16.00000
 -31629350.79748 -24546930.51545  24628800.87200  24628800.34500  24628802.40600
        48.00000        32.00000
 -42023771.29948 -32690876.79147  22379832.37500  22379831.61300  22379831.00800
        52.00000        44.00000
 -36148756.82747 -28075741.53644  25235989.71300  25235988.10100  25235986.98700
        44.00000        24.00000
 -30460482.51346 -23462799.40142  26745163.08600  26745162.67600  26745162.88100
        37.00000        14.00000
 11 04 10 00 12 30.0000000  0 10G05G21G15G10G26G30G25G29G02G12        .000000000
 -36370061.36748 -28303438.09246  23195052.91700  23195052.19400  23195050.68000
        51.00000        40.00000
 -20958988.34347 -16147881.95444  25321431.70600  25321429.46900  25321429.48900
        45.00000        26.00000
  -5440854.34746  -4130386.83943  26491439.73200  26491438.84300  26491440.13300
        40.00000        18.00000
 -21521471.49146 -16584143.53042  26912725.79500  26912723.59700  26912725.03300
        38.00000        12.00000
 -15334361.23946 -11090911.12743  25262020.87100  25262020.46000  25262021.55400
        41.00000        20.00000
 -11642889.67446  -8259443.94842  25899728.96400  25899728.55400  25899728.88600
        40.00000        16.00000
 -31582490.43347 -24510415.95545  24637718.04200  24637717.52400  24637719.57600
        47.00000        32.00000
 -42077351.22648 -32732627.39247  22369636.34500  22369635.56400  22369635.21200
        52.00000        44.00000
 -36104495.68247 -28041252.43244  25244411.53600  25244411.01900  25244409.80700
        43.00000        24.00000
 -30386864.35246 -23405434.63242  26759173.77800  26759171.97100  26759171.59000
        39.00000        14.00000
 11 04 10 00 13  0.0000000  0 10G05G21G15G10G26G30G25G29G02G12        .000000000
 -36350872.98648 -28288486.13646  23198703.82100  23198703.18600  23198702.12100
        50.00000        38.00000
 -21065333.37647 -16230748.19044  25301194.11300  25301192.87300  25301192.43300
        45.00000        26.00000
  -5580107.00046  -4238895.41842  26464940.92200  26464939.87600  26464941.17600
        40.00000        16.00000
 -21445308.09646 -16524795.53942  26927217.23800  26927217.22900  26927219.16300
        37.00000        12.00000
 -15465065.71746 -11192758.78043  25237148.11900  25237148.09900  25237149.40800
        41.00000        20.00000
 -11739268.57446  -8334544.40942  25881388.58200  25881388.03500  25881389.06100
        40.00000        16.00000
 -31535295.90148 -24473641.01445  24646699.58600  24646698.46200  24646701.25600
        48.00000        32.00000
 -42130475.97148 -32774023.31247  22359527.06800  22359526.26700  22359525.78800
        52.00000        44.00000
 -36060114.53847 -28006669.79443  25252857.49800  25252856.21800  25252854.44000
        42.00000        22.00000
 -30313266.75746 -23348085.85642  26773177.77800  26773177.59200  26773176.28300
        39.00000        16.00000
 11 04 10 00 13 30.0000000  0 10G05G21G15G10G26G30G25G29G02G12        .000000000
 -36331240.09648 -28273187.81246  23202439.94400  23202439.28900  23202438.21500
        51.00000        38.00000
 -21171584.50947 -16313541.27544  25280975.01200  25280973.97600  25280973.12700
        45.00000        26.00000
  -5719347.15046  -4347394.28943  26438443.77200  26438443.23400  26438444.26000
        40.00000        18.00000
 -21369067.13846 -16465387.17742  26941725.93300  26941724.59500  26941727.77000
        37.00000        12.00000
 -15595457.68447 -11294362.92743  25212336.77200  25212335.40400  25212336.77200
        42.00000        20.00000
 -11835116.81846  -8409231.32942  25863149.29300  25863148.85300  25863149.95700
        39.00000        16.00000
 -31487769.11848 -24436607.18745  24655743.97900  24655742.43600  24655744.75100
        48.00000        32.00000
 -42183143.80648 -32815063.19947  22349505.07100  22349504.40700  22349503.62600
        53.00000        44.00000
 -36015612.90347 -27971993.28343  25261326.90300  25261324.79300  25261322.61500
        44.00000        22.00000
 -30239691.35146 -23290754.39242  26787178.68200  26787178.27100  26787177.37300
        38.00000        16.00000
 11 04 10 00 14  0.0000000  0 10G05G21G15G10G26G30G25G29G02G12        .000000000
 -36311163.73748 -28257543.92746  23206260.35900  23206259.78200  23206258.64900
        51.00000        40.00000
 -21277740.93747 -16396260.54644  25260774.00200  25260772.62400  25260772.62400
        45.00000        26.00000
  -5858571.50646  -4455880.82243  26411951.23200  26411950.05000  26411950.96800
        40.00000        18.00000
 -21292750.24346 -16405919.60842  26956249.53500  26956247.05400  26956250.58000
        37.00000        12.00000
 -15725532.68047 -11395720.06443  25187584.04400  25187582.84300  25187584.48400
        42.00000        20.00000
 -11930432.02046  -8483502.91942  25845011.47800  25845011.21400  25845011.96600
        39.00000        16.00000
 -31439912.66348 -24399316.46845  24664850.56800  24664848.93700  24664851.85800
        48.00000        32.00000
 -42235352.71448 -32855745.47347  22339570.19900  22339569.43800  22339568.53900
        53.00000        44.00000
 -35970990.92847 -27937222.99143  25269817.39900  25269816.52000  25269813.99000
        43.00000        22.00000
 -30166140.30946 -23233441.94042  26801175.12100  26801173.92000  26801174.40800
        39.00000        16.00000
 11 04 10 00 14 30.0000000  0 10G05G21G15G10G26G30G25G29G02G12        .000000000
 -36290646.00848 -28241556.11446  23210165.04600  23210164.30300  23210163.04300
        51.00000        38.00000
 -21383800.99647 -16478904.73344  25240591.76600  25240590.38900  25240589.67600
        45.00000        26.00000
  -5997776.12546  -4564351.97843  26385459.63100  26385460.30500  26385461.42800
        38.00000        18.00000
 -21216358.59146 -16346393.73441  26970784.73100  26970784.17400  26970787.46600
        36.00000        10.00000
 -15855286.11147 -11496826.64143  25162893.55200  25162891.62700  25162893.70800
        43.00000        22.00000
 -12025210.89146  -8557356.58942  25826976.44600  25826975.45000  25826976.00700
        40.00000        16.00000
 -31391728.44547 -24361770.34645  24674019.45100  24674017.70200  24674021.09200
        47.00000        32.00000
 -42287100.41948 -32896068.37147  22329722.54000  22329721.84600  22329721.20200
        52.00000        44.00000
 -35926248.12047 -27902358.56044  25278332.62800  25278331.14300  25278329.04300
        44.00000        24.00000
 -30092615.48446 -23176149.90742  26815165.52400  26815165.18200  26815165.70900
        39.00000        16.00000
 11 04 10 00 15  0.0000000  0 11G05G21G15G10G26G18G30G25G29G02G12     .000000000
 -36269688.83148 -28225225.87746  23214153.15500  23214152.42200  23214151.18100
        51.00000        40.00000
 -21489764.93047 -16561473.99944  25220427.60200  25220426.58700  25220425.56100
        45.00000        26.00000
  -6136957.93546  -4672805.35943  26358974.54500  26358974.63200  26358975.60900
        38.00000        18.00000
 -21139894.53546 -16286811.46941  26985335.56700  26985335.07900  26985337.44300
        36.00000        10.00000
 -15984714.11147 -11597679.63943  25138263.95500  25138262.69500  25138264.07300
        43.00000        22.00000
   -423313.42456    -90355.36351  27430310.48900  27430308.79900  27430308.40800
        36.00000        10.00000
 -12119451.61146  -8630790.93943  25809042.95700  25809042.75200  25809042.83000
        40.00000        18.00000
 -31343219.49747 -24323971.18645  24683250.45000  24683249.33700  24683251.80800
        47.00000        32.00000
 -42338385.65248 -32936030.90347  22319963.43100  22319962.77600  22319961.96600
        53.00000        44.00000
 -35881385.00947 -27867400.39843  25286869.00600  25286868.17600  25286866.85700
        43.00000        22.00000
 -30019118.98746 -23118879.92742  26829153.10300  26829151.83300  26829151.16900
        40.00000        16.00000
 11 04 10 00 15 30.0000000  0 11G05G21G15G10G26G18G30G25G29G02G12     .000000000
 -36248296.51148 -28208556.57446  23218223.98300  23218223.44500  23218222.09700
        51.00000        40.00000
 -21595635.01447 -16643970.14344  25200281.57900  25200279.74200  25200279.46900
        46.00000        28.00000
  -6276116.55246  -4781240.66643  26332493.83500  26332493.37600  26332494.66500
        38.00000        18.00000
 -21063362.70246 -16227176.41742  26999899.71700  26999898.63300  26999900.99700
        37.00000        12.00000
 -16113815.28047 -11698277.95843  25113696.24200  25113695.70400  25113697.00400
        43.00000        22.00000
   -561632.14146   -198136.15541  27403990.04000  27403987.34400  27403987.08000
        36.00000         8.00000
 -12213154.59046  -8703806.26743  25791212.10500  25791211.83100  25791212.24100
        41.00000        18.00000
 -31294391.14047 -24285923.13945  24692542.48300  24692541.14400  24692543.60600
        47.00000        32.00000
 -42389209.73548 -32975634.09147  22310291.98300  22310291.49500  22310290.34200
        53.00000        44.00000
 -35836404.60147 -27832350.83743  25295428.75000  25295427.73400  25295426.42500
        43.00000        22.00000
 -29945655.98546 -23061636.04242  26843132.07700  26843131.80300  26843130.67000
        39.00000        16.00000
 11 04 10 00 16  0.0000000  0 12G05G21G15G10G26G18G30G25G29G16G02G12  .000000000
 -36226471.42048 -28191550.03846  23222377.06100  23222376.75800  23222375.56600
        51.00000        40.00000
 -21701410.67947 -16726392.71544  25180152.46400  25180151.39900  25180150.83200
        46.00000        28.00000
  -6415249.26346  -4889655.75943  26306017.73600  26306017.37400  26306018.33100
        39.00000        18.00000
 -20986765.32946 -16167490.28941  27014475.71600  27014474.42700  27014478.16800
        36.00000        10.00000
 -16242585.98847 -11798618.78343  25089192.28700  25089191.38800  25089192.95100
        43.00000        22.00000
   -699896.36646   -305874.50541  27377678.34300  27377676.93600  27377675.90100
        37.00000        10.00000
 -12306317.86346  -8776401.04843  25773483.83000  25773484.05500  25773483.49800
        41.00000        18.00000
 -31245246.48548 -24247628.62845  24701894.43500  24701893.04800  24701895.56800
        48.00000        30.00000
 -42439571.58048 -33014877.10047  22300708.02200  22300707.32800  22300706.91800
        52.00000        44.00000
   -548854.34255    -38597.41651  27633304.08500  27633302.24800  27633301.18300
        35.00000         6.00000
 -35791307.40447 -27797210.25343  25304010.63800  25304009.62300  25304007.85400
        44.00000        22.00000
 -29872229.47946 -23004420.61242  26857104.96500  26857104.32000  26857103.45100
        39.00000        14.00000
 11 04 10 00 16 30.0000000  0 12G05G21G15G10G26G18G30G25G29G16G02G12  .000000000
 -36204213.63748 -28174206.34246  23226612.97500  23226612.31000  23226611.11900
        51.00000        40.00000
 -21807089.81647 -16808740.06644  25160043.36500  25160041.71400  25160040.78600
        46.00000        28.00000
  -6554350.68346  -4998046.48343  26279548.77700  26279547.25300  26279548.25900
        40.00000        18.00000
 -20910103.20346 -16107753.68141  27029064.45300  27029062.64600  27029065.21500
        37.00000        10.00000
 -16371020.33147 -11898697.49943  25064752.09000  25064750.98600  25064752.66600
        43.00000        22.00000
   -838102.87546   -413567.86641  27351378.64200  27351377.25500  27351376.44400
        36.00000         8.00000
 -12398937.75946  -8848572.41643  25755858.86700  25755858.97400  25755858.42700
        41.00000        18.00000
 -31195786.50747 -24209088.40445  24711306.16000  24711305.24100  24711307.03900
        47.00000        30.00000
 -42489467.59848 -33053757.13347  22291213.35400  22291212.58200  22291212.06400
        52.00000        44.00000
   -668068.19245   -131491.37841  27610618.96800  27610614.82600  27610614.62100
        35.00000         8.00000
 -35746091.83947 -27761977.42943  25312614.01800  25312613.97900  25312612.40600
        43.00000        22.00000
 -29798839.80946 -22947233.88342  26871070.16500  26871069.73500  26871068.72900
        38.00000        14.00000
 11 04 10 00 17  0.0000000  0 12G05G21G15G10G26G18G30G25G29G16G02G12  .000000000
 -36181524.70548 -28156526.69146  23230930.29900  23230929.92700  23230928.91200
        51.00000        40.00000
 -21912671.40747 -16891011.41244  25139951.52600  25139950.11900  25139949.50400
        46.00000        28.00000
  -6693417.41246  -5106410.17343  26253084.12700  26253083.50100  26253084.77100
        38.00000        18.00000
 -20833377.36246 -16047967.36741  27043663.27200  27043663.88700  27043665.44000
        36.00000        10.00000
 -16499113.88347 -11998510.66943  25040376.74600  25040375.82700  25040377.33200
        43.00000        22.00000
   -976248.84846   -521214.03341  27325090.83800  27325089.38300  27325088.07400
        37.00000         8.00000
 -12491011.57447  -8920318.26543  25738339.29400  25738337.94600  25738337.63400
        42.00000        18.00000
 -31146013.41848 -24170304.20745  24720778.40000  24720776.90500  24720779.09300
        48.00000        32.00000
 -42538895.67948 -33092272.53947  22281808.01700  22281807.08000  22281806.37600
        53.00000        44.00000
   -786953.46346   -224129.34640  27587995.56800  27587991.47500  27587991.77800
        36.00000         4.00000
 -35700757.65447 -27726652.19443  25321241.33900  25321240.43100  25321239.55200
        43.00000        22.00000
 -29725488.94246 -22890077.40142  26885029.06400  26885028.01900  26885026.74000
        40.00000        14.00000
 11 04 10 00 17 30.0000000  0 12G05G21G15G10G26G18G30G25G29G16G02G12  .000000000
 -36158413.93248 -28138518.32946  23235327.97800  23235327.68500  23235326.86400
        51.00000        40.00000
 -22018162.48947 -16973212.24744  25119877.56400  25119875.86400  25119875.01400
        46.00000        28.00000
  -6832453.12946  -5214749.71143  26226627.56400  26226626.35300  26226626.79300
        39.00000        18.00000
 -20756597.06946 -15988138.69341  27058274.97400  27058274.42700  27058276.72300
        36.00000         8.00000
 -16626869.83447 -12098060.78043  25016065.99000  25016064.61300  25016065.67700
        43.00000        22.00000
  -1114339.80945   -628817.33141  27298811.25000  27298810.87900  27298809.77500
        35.00000         6.00000
 -12582544.45047  -8991642.59343  25720920.85400  25720919.61400  25720919.49600
        42.00000        18.00000
 -31095937.23447 -24131283.82645  24730306.95500  24730305.68500  24730308.51800
        47.00000        30.00000
 -42587861.82448 -33130427.98647  22272489.63000  22272488.93600  22272488.40900
        53.00000        44.00000
   -905515.97246   -316515.78940  27565433.06500  27565431.00400  27565428.55200
        36.00000         2.00000
 -35655312.14247 -27691240.19343  25329888.75500  25329888.25600  25329887.41600
        42.00000        22.00000
 -29652186.85346 -22832958.88242  26898977.18000  26898976.96500  26898976.13400
        38.00000        14.00000
 11 04 10 00 18  0.0000000  0 12G05G21G15G10G26G18G30G25G29G16G02G12  .000000000
 -36134878.92448 -28120179.39746  23239806.75400  23239806.09000  23239805.43500
        51.00000        40.00000
 -22123558.13447 -17055338.70644  25099820.83300  25099819.60200  25099819.09400
        46.00000        28.00000
  -6971450.49646  -5323059.35443  26200177.01900  26200176.46300  26200176.76500
        40.00000        20.00000
 -20679760.05746 -15928265.82742  27072897.21700  27072896.09400  27072898.66300
        36.00000        12.00000
 -16754279.88347 -12197341.33943  24991819.78400  24991819.19800  24991820.32100
        43.00000        22.00000
  -1252369.87046   -736373.19241  27272545.51400  27272544.66400  27272544.22400
        36.00000         6.00000
 -12673529.76046  -9062540.25743  25703606.74100  25703605.47100  25703605.61700
        41.00000        18.00000
 -31045556.45947 -24092026.10445  24739893.36800  24739892.25400  24739895.14600
        46.00000        30.00000
 -42636360.25448 -33168218.98647  22263260.39800  22263259.86100  22263259.31400
        52.00000        44.00000
  -1023748.00445   -408644.67541  27542934.00700  27542931.73100  27542929.04500
        35.00000         6.00000
 -35609751.58047 -27655738.57243  25338558.54900  25338557.94400  25338557.40600
        42.00000        22.00000
 -29578931.07746 -22775876.49742  26912917.07000  26912917.00100  26912916.63000
        38.00000        14.00000
 11 04 10 00 18 30.0000000  0 12G05G21G15G10G26G18G30G25G29G16G02G12  .000000000
 -36110921.36448 -28101511.20446  23244365.72900  23244365.13300  23244364.48800
        51.00000        40.00000
 -22228857.03047 -17137389.77744  25079783.32600  25079781.69500  25079781.08900
        46.00000        28.00000
  -7110406.14446  -5431336.47443  26173733.88900  26173733.81000  26173734.58200
        39.00000        20.00000
 -20602867.73945 -15868349.83041  27087528.76000  27087527.08900  27087530.66400
        35.00000         8.00000
 -16881339.54547 -12296348.88643  24967641.85000  24967640.50200  24967641.66400
        43.00000        22.00000
  -1390336.56046   -843879.68441  27246291.49000  27246290.82500  27246289.61400
        37.00000         6.00000
 -12763964.85646  -9133009.19843  25686396.30900  25686396.27000  25686396.26000
        41.00000        18.00000
 -30994873.44547 -24052532.87845  24749538.68500  24749536.94600  24749539.93500
        47.00000        30.00000
 -42684389.31248 -33205644.24347  22254121.50500  22254120.62600  22254119.79500
        53.00000        44.00000
  -1141646.53445   -500513.72340  27520497.97500  27520498.27800  27520494.05800
        34.00000         4.00000
 -35564075.48147 -27620146.92743  25347250.64500  25347249.64900  25347249.67800
        42.00000        22.00000
 -29505723.74446 -22718831.83742  26926848.99900  26926847.73900  26926847.85600
        38.00000        12.00000
 11 04 10 00 19  0.0000000  0 12G05G21G15G10G26G18G30G25G29G16G02G12  .000000000
 -36086542.43648 -28082514.66746  23249004.86300  23249004.08200  23249003.50500
        51.00000        40.00000
 -22334058.39447 -17219364.86244  25059763.71500  25059762.44500  25059762.03500
        46.00000        28.00000
  -7249315.65046  -5539577.65743  26147300.19400  26147300.35000  26147301.00500
        39.00000        20.00000
 -20525921.50845 -15808391.79741  27102171.11600  27102169.32800  27102173.27400
        35.00000         8.00000
 -17008044.49847 -12395080.01643  24943530.69200  24943529.54900  24943530.64300
        43.00000        22.00000
  -1528237.39446   -951334.84741  27220050.99500  27220049.23600  27220048.65000
        37.00000        10.00000
 -12853847.10347  -9203047.32643  25669293.50600  25669292.19700  25669292.44100
        42.00000        18.00000
 -30943890.29647 -24012805.77845  24759240.73700  24759239.45700  24759242.00700
        47.00000        30.00000
 -42731946.84648 -33242702.06947  22245071.54300  22245070.87900  22245069.93100
        53.00000        44.00000
  -1259208.03845   -592120.17841  27498126.94200  27498125.90700  27498124.42200
        33.00000         8.00000
 -35518283.77347 -27584465.16943  25355964.52500  25355963.72400  25355963.77300
        42.00000        22.00000
 -29432566.52446 -22661826.22142  26940768.57100  26940768.47300  26940768.75600
        37.00000        12.00000
 11 04 10 00 19 30.0000000  0 12G05G21G15G10G26G18G30G25G29G16G02G12  .000000000
 -36061746.68048 -28063193.32946  23253723.37600  23253722.76000  23253722.12500
        51.00000        38.00000
 -22439163.79547 -17301265.17044  25039762.94800  25039761.69700  25039761.17000
        46.00000        28.00000
  -7388178.38746  -5647782.38943  26120877.20600  26120875.53500  26120875.98500
        41.00000        20.00000
 -20448925.79746 -15748395.22541  27116825.38900  27116820.86600  27116825.47700
        37.00000        10.00000
 -17134392.78247 -12493533.22643  24919486.60400  24919486.25300  24919487.36600
        43.00000        22.00000
  -1666073.29246  -1058739.40541  27193820.70800  27193819.85800  27193818.54900
        36.00000         6.00000
 -12943177.13046  -9272655.14643  25652292.95900  25652293.16400  25652293.26100
        40.00000        18.00000
 -30892612.23547 -23972848.87745  24768998.95700  24768997.64800  24768999.53300
        47.00000        30.00000
 -42779033.65648 -33279393.11147  22236110.89400  22236109.95600  22236109.53600
        52.00000        44.00000
  -1376432.21445   -683463.77141  27475820.01000  27475818.37800  27475817.59700
        33.00000         6.00000
 -35472378.86147 -27548695.20143  25364699.95400  25364698.99600  25364699.35800
        42.00000        20.00000
 -29359464.13346 -22604863.35342  26954681.15800  26954679.22400  26954679.74200
        37.00000        12.00000
 11 04 10 00 20  0.0000000  0 12G05G21G15G10G26G18G30G25G29G16G02G12  .000000000
 -36036533.81048 -28043546.96946  23258521.16900  23258520.61200  23258520.15300
        51.00000        38.00000
 -22544170.80147 -17383088.79044  25019780.40800  25019779.15800  25019778.85500
        46.00000        28.00000
  -7526989.38346  -5755946.80643  26094462.05200  26094460.81100  26094460.94800
        41.00000        22.00000
 -20371880.23046 -15688359.80041  27131485.04500  27131483.67700  27131486.77400
        36.00000         8.00000
 -17260378.36647 -12591703.81044  24895513.32800  24895512.25300  24895513.37700
        43.00000        24.00000
  -1803839.99345  -1166090.08241  27167603.48100  27167602.43600  27167602.62200
        35.00000         8.00000
 -13031950.64546  -9341829.33543  25635400.72300  25635399.83400  25635400.23500
        41.00000        18.00000
 -30841039.86047 -23932662.62645  24778812.39800  24778811.03000  24778813.87300
        47.00000        30.00000
 -42825646.26548 -33315714.65447  22227241.20900  22227240.29000  22227239.48000
        53.00000        44.00000
  -1493314.15045   -774540.61241  27453577.92000  27453577.04100  27453574.95000
        34.00000         8.00000
 -35426358.84846 -27512835.52243  25373456.78500  25373456.35500  25373456.26700
        41.00000        20.00000
 -29286416.78546 -22547943.38242  26968581.27100  26968580.03100  26968580.76300
        37.00000        14.00000
 11 04 10 00 20 30.0000000  0 12G05G21G15G10G26G18G30G25G29G16G02G12  .000000000
 -36010907.95048 -28023578.80346  23263397.70500  23263397.03100  23263396.53200
        50.00000        40.00000
 -22649080.72147 -17464836.76044  24999817.12200  24999815.59800  24999814.90400
        46.00000        28.00000
  -7665746.97346  -5864069.60143  26068057.04700  26068056.47100  26068056.58800
        41.00000        22.00000
 -20294788.72346 -15628288.57941  27146155.98300  27146154.25400  27146157.10600
        37.00000        10.00000
 -17385999.39447 -12689590.31943  24871607.83400  24871606.94500  24871608.47900
        43.00000        22.00000
  -1941537.53746  -1273386.85241  27141403.20300  27141399.22700  27141398.87600
        37.00000        10.00000
 -13120167.42746  -9410569.69743  25618613.51800  25618612.49200  25618613.04900
        40.00000        18.00000
 -30789178.00447 -23892250.81245  24788681.58700  24788680.45400  24788683.02300
        47.00000        30.00000
 -42871785.28148 -33351667.14547  22218461.15800  22218460.44500  22218459.61400
        53.00000        44.00000
  -1609853.31545   -865350.45941  27431399.95000  27431400.13500  27431399.44200
        32.00000         6.00000
 -35380226.19447 -27476888.12543  25382236.84500  25382235.41900  25382235.01900
        42.00000        20.00000
 -29213429.19046 -22491069.95442  26982470.33700  26982469.56500  26982470.15100
        37.00000        12.00000
 11 04 10 00 21  0.0000000  0 12G05G21G15G10G26G18G30G25G29G16G02G12  .000000000
 -35984870.31548 -28003289.77146  23268352.61300  23268352.00700  23268351.43100
        50.00000        40.00000
 -22753892.34447 -17546508.16244  24979872.31700  24979870.91100  24979869.80700
        46.00000        28.00000
  -7804447.35446  -5972147.84343  26041662.60200  26041662.31900  26041662.47500
        41.00000        20.00000
 -20217652.85446 -15568182.79942  27160835.24400  27160832.82200  27160835.63500
        37.00000        12.00000
 -17511251.12247 -12787189.06744  24847773.38600  24847772.33100  24847773.73800
        43.00000        24.00000
  -2079163.75646  -1380628.03641  27115213.49400  27115210.89600  27115209.68400
        37.00000         6.00000
 -13207825.07546  -9478874.37943  25601933.83300  25601932.06500  25601931.78200
        41.00000        18.00000
 -30737028.82147 -23851615.11345  24798604.97100  24798603.77900  24798606.28000
        47.00000        30.00000
 -42917448.83348 -33387249.14747  22209771.23000  22209770.56600  22209770.12700
        52.00000        44.00000
  -1726046.31445   -955890.52641  27409290.37800  27409290.10500  27409288.29700
        34.00000         6.00000
 -35333980.42447 -27440852.57443  25391037.93700  25391035.65100  25391035.66100
        42.00000        20.00000
 -29140502.62946 -22434244.11242  26996348.42200  26996347.98200  26996347.34700
        37.00000        12.00000
 11 04 10 00 21 30.0000000  0 12G05G21G15G10G26G18G30G25G29G16G02G12  .000000000
 -35958425.58448 -27982683.52146  23273384.77900  23273384.23200  23273383.72400
        50.00000        38.00000
 -22858608.81147 -17628105.41744  24959944.94000  24959943.60100  24959942.72200
        46.00000        28.00000
  -7943089.94946  -6080181.07843  26015280.07500  26015279.79100  26015279.35200
        41.00000        20.00000
 -20140477.42346 -15508046.18741  27175520.68900  27175518.65700  27175521.85100
        37.00000        10.00000
 -17636132.46047 -12884499.18244  24824009.03600  24824008.26500  24824009.45600
        43.00000        24.00000
  -2216719.65645  -1487814.41841  27089036.10300  27089035.07700  27089033.87600
        35.00000         8.00000
 -13294924.22446  -9546743.87243  25585358.28000  25585357.87000  25585356.82400
        41.00000        18.00000
 -30684597.90047 -23810759.87844  24808581.63200  24808580.40200  24808583.02900
        46.00000        28.00000
 -42962638.15448 -33422461.63547  22201172.26600  22201171.72900  22201170.93800
        53.00000        44.00000
  -1841893.12045  -1046160.77541  27387245.64900  27387245.61000  27387244.19400
        34.00000         6.00000
 -35287624.47647 -27404731.15743  25399859.46500  25399857.48200  25399857.11000
        43.00000        22.00000
 -29067642.00446 -22377469.62142  27010213.36900  27010213.14400  27010212.17700
        36.00000        12.00000
 11 04 10 00 22  0.0000000  0 12G05G21G15G10G26G18G30G25G29G16G02G12  .000000000
 -35931574.13648 -27961760.34946  23278494.85800  23278494.17400  23278493.23700
        51.00000        38.00000
 -22963226.33647 -17709625.54544  24940036.63000  24940035.56500  24940034.85200
        46.00000        28.00000
  -8081669.46746  -6188165.13543  25988909.29800  25988908.89800  25988909.09300
        41.00000        20.00000
 -20063261.92346 -15447878.36741  27190214.70000  27190213.30300  27190216.43900
        37.00000        10.00000
 -17760637.14747 -12981515.81944  24800316.47500  24800316.15200  24800317.32400
        43.00000        24.00000
  -2354201.46646  -1594943.04541  27062873.96100  27062873.39400  27062872.09500
        36.00000        10.00000
 -13381460.69546  -9614174.91743  25568891.03900  25568890.23800  25568889.74900
        40.00000        18.00000
 -30631885.96547 -23769685.67344  24818612.72300  24818611.30700  24818613.23100
        46.00000        28.00000
 -43007350.04748 -33457302.08747  22192664.27600  22192663.45500  22192662.45900
        53.00000        44.00000
  -1957388.97545  -1136157.60941  27365269.76800  27365268.25400  27365266.87600
        35.00000         6.00000
 -35241156.74547 -27368522.62643  25408701.37900  25408700.39200  25408699.47400
        42.00000        20.00000
 -28994847.91646 -22320746.99041  27024065.53900  27024065.03100  27024063.91700
        36.00000        10.00000
 11 04 10 00 22 30.0000000  0 12G05G21G15G10G26G18G30G25G29G16G02G12  .000000000
 -35904320.20048 -27940523.54846  23283680.82800  23283680.32000  23283679.36300
        50.00000        38.00000
 -23067747.33447 -17791070.47244  24920146.91000  24920145.88400  24920144.91700
        46.00000        28.00000
  -8220185.27546  -6296099.53543  25962550.78200  25962550.19600  25962550.62500
        41.00000        20.00000
 -19986010.65246 -15387682.60342  27204915.95900  27204914.21100  27204916.56500
        38.00000        12.00000
 -17884763.85047 -13078237.91644  24776696.77500  24776695.70100  24776696.51200
        44.00000        24.00000
  -2491609.68646  -1702014.37541  27036725.60100  27036724.93700  27036723.72600
        36.00000         8.00000
 -13467435.24646  -9681168.07643  25552529.74600  25552529.48200  25552529.15000
        40.00000        18.00000
 -30578898.27847 -23728396.57944  24828695.79200  24828694.94200  24828696.76900
        46.00000        28.00000
 -43051585.54748 -33491771.32447  22184246.05700  22184245.34300  22184244.62100
        53.00000        44.00000
  -2072533.81245  -1225880.92541  27343358.24100  27343357.64500  27343356.06300
        35.00000        10.00000
 -35194579.76347 -27332228.98743  25417564.86100  25417563.70900  25417563.24000
        42.00000        22.00000
 -28922125.06745 -22264079.86641  27037904.07200  27037903.49600  27037902.57700
        35.00000         8.00000
 11 04 10 00 23  0.0000000  0 12G05G21G15G10G26G18G30G25G29G16G02G12  .000000000
 -35876665.78348 -27918974.69246  23288943.79300  23288942.93300  23288941.78000
        51.00000        38.00000
 -23172170.92747 -17872439.50644  24900275.34900  24900274.34300  24900274.07900
        45.00000        28.00000
  -8358633.43046  -6403981.23643  25936205.46200  25936204.27000  25936204.77800
        41.00000        20.00000
 -19908725.24246 -15327460.29141  27219622.50400  27219621.57600  27219623.74400
        37.00000        10.00000
 -18008508.40847 -13174662.25244  24753148.37600  24753147.73100  24753148.72700
        44.00000        24.00000
  -2628942.27145  -1809026.76741  27010591.87500  27010591.33800  27010590.37100
        35.00000         8.00000
 -13552845.91346  -9747721.87242  25536277.43900  25536276.39400  25536275.61200
        41.00000        16.00000
 -30525637.36847 -23686894.59944  24838831.29700  24838830.15400  24838832.77200
        46.00000        28.00000
 -43095343.02048 -33525868.07747  22175919.26000  22175918.71300  22175917.94100
        53.00000        44.00000
  -2187324.72046  -1315328.41641  27321514.96600  27321512.47500  27321512.42600
        37.00000         8.00000
 -35147893.20746 -27295849.95943  25426448.55500  25426448.15400  25426447.09900
        41.00000        22.00000
 -28849475.36945 -22207469.72241  27051727.88400  27051727.81600  27051727.56200
        34.00000        10.00000
 11 04 10 00 23 30.0000000  0 12G05G21G15G10G26G18G30G25G29G16G02G12  .000000000
 -35848615.67448 -27897117.49846  23294281.24100  23294280.83100  23294279.54200
        51.00000        38.00000
 -23276499.27747 -17953734.31944  24880422.85600  24880421.36100  24880420.87300
        46.00000        28.00000
  -8497013.90946  -6511810.19943  25909871.23900  25909871.10200  25909872.06000
        40.00000        20.00000
 -19831410.55746 -15267215.15041  27234334.70400  27234333.56100  27234336.70600
        36.00000        10.00000
 -18131869.50247 -13270787.79244  24729673.64900  24729672.70200  24729673.72700
        44.00000        24.00000
  -2766200.40045  -1915981.17041  26984472.43000  26984471.40500  26984471.25800
        35.00000         8.00000
 -13637693.32746  -9813836.76343  25520130.68900  25520130.46500  25520129.49800
        40.00000        18.00000
 -30472108.81647 -23645184.05144  24849017.17800  24849016.00600  24849018.76100
        46.00000        28.00000
 -43138623.81348 -33559593.38947  22167683.20200  22167682.46000  22167682.04000
        53.00000        44.00000
  -2301761.47245  -1404499.96041  27299736.00600  27299735.36100  27299735.85900
        35.00000         8.00000
 -35101100.21546 -27259388.02043  25435353.16300  25435352.04900  25435351.60000
        41.00000        20.00000
 -28776904.04145 -22150920.67641  27065537.38600  27065537.50300  27065538.37200
        34.00000        10.00000
 11 04 10 00 24  0.0000000  0 12G05G21G15G10G26G18G30G25G29G16G02G12  .000000000
 -35820166.06948 -27874949.01546  23299695.09800  23299694.69800  23299693.18400
        51.00000        38.00000
 -23380726.27047 -18034950.15744  24860588.98100  24860587.81900  24860587.13500
        46.00000        28.00000
  -8635317.53046  -6619579.27943  25883552.59700  25883552.79200  25883553.43700
        41.00000        20.00000
 -19754062.61745 -15206944.14541  27249052.32500  27249051.96400  27249055.27500
        35.00000        10.00000
 -18254837.64547 -13366607.12944  24706272.88000  24706272.44000  24706273.76900
        44.00000        24.00000
  -2903376.24346  -2022871.40641  26958369.24000  26958367.38400  26958367.65800
        36.00000         8.00000
 -13721969.97946  -9879506.90742  25504093.64900  25504092.48600  25504091.98800
        40.00000        16.00000
 -30418309.83147 -23603262.79745  24859255.17400  24859253.65900  24859256.56100
        46.00000        30.00000
 -43181421.17348 -33592942.00547  22159539.07500  22159538.35200  22159537.94200
        53.00000        44.00000
  -2415836.11745  -1493389.35141  27278028.97100  27278028.15000  27278027.95500
        35.00000        10.00000
 -35054195.65247 -27222839.15343  25444279.69100  25444277.80500  25444277.42400
        42.00000        20.00000
 -28704407.72345 -22094430.05941  27079333.32900  27079332.30300  27079334.28600
        32.00000         8.00000
 11 04 10 00 24 30.0000000  0 12G05G21G15G10G26G18G30G25G29G16G02G12  .000000000
 -35791321.04948 -27852472.40646  23305183.92800  23305183.64500  23305182.30700
        50.00000        38.00000
 -23484853.44347 -18116088.21144  24840773.86200  24840773.13000  24840772.49500
        46.00000        28.00000
  -8773542.86746  -6727287.35443  25857249.87700  25857249.63300  25857250.17000
        41.00000        20.00000
 -19676685.15546 -15146650.10341  27263778.79700  27263776.14000  27263779.40300
        37.00000        10.00000
 -18377410.93247 -13462118.78644  24682948.83100  24682947.46300  24682948.82100
        44.00000        24.00000
  -3040470.32646  -2129697.91341  26932281.64100  26932279.78500  26932278.81700
        37.00000         8.00000
 -13805676.00946  -9944732.40842  25488164.30500  25488164.05100  25488163.30900
        40.00000        16.00000
 -30364245.20147 -23561134.55845  24869543.69100  24869541.96200  24869545.14700
        46.00000        30.00000
 -43223736.15248 -33625914.73447  22151487.15100  22151486.42900  22151485.77400
        53.00000        44.00000
  -2529547.63046  -1581995.78341  27256390.62700  27256389.13300  27256387.96000
        36.00000         8.00000
 -35007181.32647 -27186204.71743  25453226.29300  25453224.74900  25453223.77200
        42.00000        20.00000
 -28631990.77145 -22038001.31041  27093113.80800  27093112.22600  27093114.22800
        33.00000        10.00000
 11 04 10 00 25  0.0000000  0 12G05G21G15G10G26G18G30G25G29G16G02G12  .000000000
 -35762084.77648 -27829690.93446  23310747.44700  23310746.95900  23310745.75700
        50.00000        38.00000
 -23588882.32647 -18197149.66744  24820978.63200  24820977.49900  24820975.98500
        46.00000        28.00000
  -8911688.90646  -6834933.64543  25830961.39000  25830961.34100  25830961.87900
        41.00000        20.00000
 -19599282.36646 -15086336.27542  27278508.30700  27278505.58100  27278509.29300
        37.00000        12.00000
 -18499587.48847 -13557321.29244  24659699.09100  24659698.46600  24659699.75500
        44.00000        24.00000
  -3177482.60146  -2236460.72041  26906208.76200  26906207.24800  26906206.19300
        36.00000        10.00000
 -13888811.49846 -10009513.33942  25472345.12900  25472343.95700  25472343.23400
        40.00000        16.00000
 -30309919.80047 -23518803.11145  24879881.22700  24879880.01600  24879883.15100
        47.00000        30.00000
 -43265568.66948 -33658511.51747  22143526.80700  22143526.02600  22143525.31200
        53.00000        44.00000
  -2642895.56246  -1670318.91141  27234822.86000  27234820.24200  27234818.17200
        37.00000         8.00000
 -34960059.77647 -27149486.72343  25462193.69200  25462192.02100  25462190.35100
        42.00000        20.00000
 -28559657.19445 -21981637.53641  27106879.24400  27106877.54500  27106879.37100
        32.00000        10.00000
 11 04 10 00 25 30.0000000  0 11G05G21G15G10G26G18G30G25G29G16G02     .000000000
 -35732460.49248 -27806607.11846  23316384.88400  23316384.37600  23316383.20300
        50.00000        38.00000
 -23692813.53047 -18278135.01544  24801201.29700  24801199.98800  24801199.12800
        47.00000        28.00000
  -9049753.60746  -6942516.54843  25804689.48000  25804688.43500  25804688.91400
        41.00000        18.00000
 -19521857.21146 -15026005.06441  27293240.84500  27293239.44800  27293243.38400
        36.00000         8.00000
 -18621364.40247 -13652212.38744  24636525.76900  24636525.19200  24636526.55000
        44.00000        24.00000
  -3314412.64846  -2343159.44941  26880151.97200  26880150.82900  26880149.78300
        37.00000        10.00000
 -13971376.06346 -10073849.38542  25456633.47400  25456632.40000  25456631.41300
        41.00000        16.00000
 -30255337.67447 -23476271.62745  24890268.60100  24890267.08700  24890269.86100
        47.00000        30.00000
 -43306919.09948 -33690732.65047  22135658.22700  22135657.30900  22135656.63500
        53.00000        44.00000
  -2755878.43946  -1758357.57341  27213320.66900  27213320.33700  27213317.93400
        36.00000        10.00000
 -34912832.54047 -27112686.39443  25471180.84200  25471179.35800  25471177.64800
        43.00000        20.00000
 11 04 10 00 26  0.0000000  0 12G05G21G15G10G26G18G30G25G29G16G02G12  .000000000
 -35702450.64648 -27783222.85746  23322095.04600  23322094.79200  23322094.03000
        50.00000        38.00000
 -23796647.09747 -18359044.28845  24781442.59000  24781441.28200  24781439.91400
        47.00000        30.00000
  -9187733.94246  -7050033.71643  25778431.30500  25778431.73400  25778432.44700
        40.00000        20.00000
 -19444411.74546 -14965657.99841  27307978.11000  27307976.20600  27307981.31400
        36.00000         8.00000
 -18742738.47647 -13746789.58644  24613428.64000  24613428.58200  24613429.36300
        44.00000        24.00000
  -3451259.38446  -2449793.21941  26854110.15600  26854109.50200  26854109.60000
        37.00000         8.00000
 -14053368.43746 -10137739.57542  25441030.40500  25441029.63400  25441028.79300
        40.00000        16.00000
 -30200502.25447 -23433542.75845  24900703.03900  24900701.69100  24900704.08400
        46.00000        30.00000
 -43347786.80048 -33722577.62647  22127881.03000  22127880.62000  22127879.59400
        53.00000        44.00000
  -2868494.48545  -1846110.38741  27191890.53900  27191890.41200  27191887.29600
        35.00000         6.00000
 -34865499.96647 -27075803.96643  25480187.44200  25480186.47500  25480185.08800
        42.00000        20.00000
 -28415253.67845 -21869115.39640  27134360.12200  27134357.14200  27134357.48400
        34.00000         4.00000
 11 04 10 00 26 30.0000000  0 12G05G21G15G10G26G18G30G25G29G16G02G12  .000000000
 -35672052.81448 -27759536.28446  23327879.87800  23327879.43800  23327878.33400
        50.00000        38.00000
 -23900377.38047 -18439873.08445  24761702.91300  24761702.04300  24761700.90100
        47.00000        30.00000
  -9325622.30546  -7157479.21143  25752193.07600  25752192.36300  25752193.23200
        41.00000        20.00000
 -19366943.25845 -14905293.01041  27322719.67400  27322718.44400  27322722.54600
        35.00000        10.00000
 -18863701.02047 -13841046.10444  24590410.73400  24590409.96200  24590411.36800
        44.00000        24.00000
  -3588016.30346  -2556357.02041  26828087.06700  26828085.92400  26828085.86600
        38.00000        10.00000
 -14134782.33246 -10201178.97742  25425538.00200  25425537.15300  25425536.12700
        40.00000        16.00000
 -30145411.59047 -23390615.00945  24911186.30000  24911184.98100  24911187.88200
        46.00000        30.00000
 -43388165.81748 -33754041.81047  22120197.42500  22120196.56500  22120195.73500
        53.00000        44.00000
  -2980736.15946  -1933571.52141  27170532.47000  27170531.64000  27170528.52400
        36.00000         8.00000
 -34818057.90447 -27038836.24843  25489215.78600  25489214.62400  25489212.90500
        42.00000        18.00000
 -28343184.32745 -21812957.49741  27148073.91200  27148071.87100  27148071.84200
        35.00000         8.00000
 11 04 10 00 27  0.0000000  0 12G05G21G15G10G26G18G30G25G29G16G02G12  .000000000
 -35641273.10148 -27735552.13146  23333737.19100  23333736.75200  23333735.68700
        50.00000        38.00000
 -24004008.41047 -18520624.52744  24741982.74300  24741981.02400  24741980.64300
        47.00000        28.00000
  -9463419.24947  -7264853.48643  25725971.53200  25725970.64300  25725970.95500
        42.00000        22.00000
 -19289457.48245 -14844914.51841  27337465.29200  27337463.10400  27337466.67000
        35.00000         8.00000
 -18984252.25047 -13934982.14044  24567470.26100  24567469.54800  24567471.13000
        44.00000        24.00000
  -3724685.55146  -2662852.54142  26802079.52000  26802077.98600  26802078.27900
        38.00000        12.00000
 -14215619.79546 -10264169.22042  25410155.06400  25410154.38000  25410153.57900
        40.00000        16.00000
 -30090072.65147 -23347493.80145  24921717.29900  24921715.59900  24921718.20700
        46.00000        30.00000
 -43428059.02348 -33785127.45147  22112605.60300  22112605.05600  22112604.37300
        53.00000        44.00000
  -3092604.78846  -2020741.92441  27149244.74400  27149242.59500  27149240.86600
        37.00000         8.00000
 -34770510.65346 -27001786.56343  25498263.66700  25498262.63200  25498260.95200
        41.00000        18.00000
 -28271208.97345 -21756872.84641  27161770.17900  27161768.53700  27161768.54700
        33.00000         6.00000
 11 04 10 00 27 30.0000000  0 12G05G21G15G10G26G18G30G25G29G16G02G12  .000000000
 -35610112.67348 -27711271.31746  23339666.87900  23339666.34200  23339665.47300
        50.00000        38.00000
 -24107538.47547 -18601297.29944  24722280.96700  24722280.12600  24722279.65800
        46.00000        28.00000
  -9601120.37347  -7372153.08443  25699768.13700  25699767.05300  25699767.45300
        42.00000        22.00000
 -19211955.30245 -14784523.25441  27352213.49900  27352211.96500  27352215.12000
        35.00000        10.00000
 -19104387.37147 -14028593.92344  24544609.82100  24544608.53200  24544610.05600
        44.00000        24.00000
  -3861264.65546  -2769277.78941  26776089.71100  26776087.34700  26776088.18700
        38.00000        10.00000
 -14295878.59246 -10326708.57443  25394882.07900  25394881.95200  25394881.00500
        40.00000        18.00000
 -30034487.35647 -23304180.62745  24932294.00400  24932293.04600  24932296.11400
        45.00000        30.00000
 -43467464.44748 -33815833.00247  22105107.30500  22105106.53300  22105105.76100
        53.00000        44.00000
  -3204097.00646  -2107618.99741  27128028.05400  27128026.85200  27128024.59600
        37.00000        10.00000
 -34722857.54746 -26964654.39043  25507330.82100  25507330.50900  25507329.19000
        41.00000        18.00000
 -28199328.50745 -21700862.11341  27175449.47700  27175448.38300  27175447.84600
        33.00000         6.00000
 11 04 10 00 28  0.0000000  0 12G05G21G15G10G26G18G30G25G29G16G02G12  .000000000
 -35578573.08448 -27686695.05746  23345669.01900  23345668.22800  23345667.39800
        50.00000        38.00000
 -24210966.58947 -18681890.64745  24702599.43100  24702598.04300  24702597.96500
        46.00000        30.00000
  -9738722.30647  -7479375.39243  25673583.35200  25673582.51200  25673582.59900
        42.00000        22.00000
 -19134438.13946 -14724120.35841  27366964.39100  27366963.64900  27366967.08700
        37.00000        10.00000
 -19224102.23847 -14121878.23244  24521828.45600  24521827.48000  24521829.08200
        44.00000        26.00000
  -3997751.27346  -2875630.97942  26750116.71500  26750115.26900  26750116.50000
        38.00000        12.00000
 -14375556.32946 -10388795.14343  25379720.07300  25379719.70200  25379719.00900
        40.00000        18.00000
 -29978658.21747 -23260677.45344  24942918.27100  24942917.16800  24942920.01000
        45.00000        28.00000
 -43506380.39248 -33846157.13747  22097701.67900  22097700.94600  22097700.37000
        53.00000        44.00000
  -3315209.76346  -2194200.40941  27106885.89700  27106883.04400  27106881.28600
        37.00000         6.00000
 -34675098.39046 -26927439.61243  25516419.72900  25516418.34200  25516418.05900
        41.00000        18.00000
 -28127544.78845 -21644926.81341  27189107.07000  27189107.92900  27189107.29400
        32.00000         6.00000
 11 04 10 00 28 30.0000000  0 12G05G21G15G10G26G18G30G25G29G16G02G12  .000000000
 -35546657.78748 -27661826.03146  23351742.25400  23351741.65800  23351740.43700
        50.00000        38.00000
 -24314293.27347 -18762404.94944  24682936.85500  24682935.83900  24682935.08700
        46.00000        28.00000
  -9876223.06647  -7586518.84343  25647418.02500  25647416.75500  25647417.53600
        42.00000        22.00000
 -19056909.24946 -14663708.28741  27381717.30600  27381717.09100  27381719.98300
        36.00000        10.00000
 -19343394.10847 -14214832.93744  24499128.26700  24499127.14400  24499128.68700
        45.00000        26.00000
  -4134144.99746  -2981911.78842  26724161.57400  26724161.02700  26724161.37900
        37.00000        12.00000
 -14454652.51946 -10450428.54143  25364668.86100  25364667.89400  25364667.72800
        41.00000        18.00000
 -29922589.34047 -23216987.44444  24953588.15800  24953587.02400  24953589.40800
        45.00000        28.00000
 -43544806.81848 -33876099.82647  22090389.83900  22090388.66700  22090388.14900
        53.00000        44.00000
  -3425941.88346  -2280485.24941  27085813.49500  27085811.80500  27085810.35000
        38.00000        10.00000
 -34627234.43947 -26890143.15143  25525528.05700  25525526.36700  25525526.31900
        42.00000        20.00000
 -28055861.34545 -21589069.62941  27202748.62300  27202747.81200  27202748.22300
        34.00000         6.00000
 11 04 10 00 29  0.0000000  0 12G05G21G15G10G26G18G30G25G29G16G02G12  .000000000
 -35514368.70948 -27636665.75046  23357886.79800  23357885.94800  23357884.79500
        50.00000        38.00000
 -24417517.96247 -18842839.76045  24663294.93000  24663292.83000  24663292.01900
        47.00000        30.00000
 -10013618.63547  -7693580.35643  25621272.05900  25621271.65800  25621271.75600
        42.00000        22.00000
 -18979369.60046 -14603287.81241  27396473.48400  27396472.29200  27396474.74400
        36.00000         8.00000
 -19462258.70747 -14307454.69844  24476508.85300  24476508.06200  24476509.33200
        44.00000        26.00000
  -4270443.93546  -3088118.73642  26698224.20300  26698223.55800  26698224.20300
        38.00000        12.00000
 -14533165.12546 -10511607.19543  25349728.26500  25349727.87500  25349728.09900
        41.00000        18.00000
 -29866283.14047 -23173112.53544  24964302.48000  24964301.32700  24964303.97500
        45.00000        28.00000
 -43582742.36248 -33905660.01647  22083170.62400  22083170.03800  22083169.40300
        53.00000        44.00000
  -3536290.00346  -2366470.82441  27064814.64100  27064813.26300  27064812.55000
        36.00000        10.00000
 -34579265.61846 -26852764.97943  25534656.04900  25534654.98400  25534654.90600
        41.00000        20.00000
 -27984280.52045 -21533292.34141  27216370.38500  27216369.12500  27216370.39500
        34.00000        10.00000
 11 04 10 00 29 30.0000000  0 12G05G21G15G10G26G18G30G25G29G16G02G12  .000000000
 -35481708.11948 -27611215.97846  23364101.99600  23364101.02900  23364100.35500
        50.00000        38.00000
 -24520640.30147 -18923194.83545  24643670.89100  24643669.61100  24643668.46800
        47.00000        30.00000
 -10150906.08646  -7800557.62343  25595146.52800  25595146.23500  25595146.92900
        41.00000        22.00000
 -18901821.40546 -14542860.66040  27411229.85700  27411229.11400  27411230.99900
        36.00000         4.00000
 -19580692.57047 -14399740.82944  24453972.49000  24453970.99500  24453972.06000
        45.00000        26.00000
  -4406646.35346  -3194250.48042  26672305.81200  26672304.33700  26672305.90000
        37.00000        12.00000
 -14611093.04546 -10572330.28343  25334900.13400  25334899.05900  25334899.56700
        41.00000        18.00000
 -29809742.80547 -23129055.15844  24975061.02400  24975060.55500  24975063.34900
        44.00000        26.00000
 -43620186.31848 -33934837.14147  22076045.27300  22076044.73600  22076044.03300
        53.00000        44.00000
  -3646251.76746  -2452155.37141  27043888.62900  27043887.14400  27043887.89600
        36.00000         8.00000
 -34531192.39046 -26815305.46843  25543804.61300  25543802.84500  25543803.37200
        41.00000        20.00000
 -27912804.20545 -21477596.51841  27229973.48000  27229971.11600  27229970.78400
        34.00000         8.00000
 11 04 10 00 30  0.0000000  0 11G05G21G15G10G26G18G30G25G29G16G02     .000000000
 -35448678.56848 -27585478.70546  23370386.89300  23370386.26800  23370385.35900
        50.00000        38.00000
 -24623659.92947 -19003469.88345  24624067.07200  24624065.40200  24624064.21000
        47.00000        30.00000
 -10288082.53447  -7907448.38043  25569042.57600  25569042.21500  25569043.20100
        42.00000        22.00000
 -18824266.41446 -14482428.22441  27425988.34900  27425987.09900  27425988.02700
        36.00000         8.00000
 -19698692.29747 -14491688.67244  24431517.00900  24431516.49100  24431517.27300
        44.00000        26.00000
  -4542750.60946  -3300305.70942  26646405.91200  26646405.06200  26646405.63800
        37.00000        12.00000
 -14688435.03847 -10632596.81943  25320182.82500  25320181.81900  25320182.61000
        42.00000        20.00000
 -29752971.51547 -23084817.83244  24985864.47400  24985863.39900  24985866.15400
        44.00000        26.00000
 -43657137.61348 -33963630.38147  22069014.09000  22069013.16200  22069012.42000
        53.00000        44.00000
  -3755825.63046  -2537537.65941  27023037.24800  27023036.50500  27023036.75000
        36.00000         8.00000
 -34483015.68347 -26777765.30243  25552972.87000  25552970.90700  25552970.90700
        42.00000        20.00000
 11 04 10 00 30 30.0000000  0 11G05G21G15G10G26G18G30G25G29G16G02     .000000000
 -35415279.56848 -27559453.54746  23376742.65900  23376741.87700  23376740.61700
        50.00000        38.00000
 -24726573.90847 -19083662.60145  24604482.95600  24604481.56900  24604480.66100
        47.00000        30.00000
 -10425142.11347  -8014248.08744  25542961.98000  25542960.87600  25542961.55000
        42.00000        24.00000
 -18746704.25045 -14421990.20841  27440747.75000  27440748.55100  27440747.42800
        35.00000         8.00000
 -19816251.29947 -14583293.07944  24409146.49400  24409145.66400  24409146.49400
        44.00000        26.00000
  -4678752.93546  -3406281.53842  26620526.62300  26620524.87500  26620524.43500
        39.00000        12.00000
 -14765187.18047 -10692403.71343  25305576.91500  25305575.87900  25305576.85600
        42.00000        20.00000
 -29695969.64647 -23040400.82044  24996711.78400  24996710.31800  24996712.86800
        44.00000        26.00000
 -43693592.75648 -33992037.00847  22062076.80100  22062075.96100  22062075.36500
        53.00000        44.00000
  -3865006.14946  -2622613.42941  27002261.31800  27002260.40000  27002259.75500
        36.00000        10.00000
 -34434732.82246 -26740142.42343  25562159.75500  25562159.50100  25562158.95400
        41.00000        20.00000
 11 04 10 00 31  0.0000000  0 11G05G21G15G10G26G18G30G25G29G16G02     .000000000
 -35381519.69448 -27533147.19546  23383166.67700  23383166.03200  23383165.25100
        50.00000        38.00000
 -24829388.48947 -19163777.87045  24584917.18600  24584916.39400  24584915.57400
        46.00000        30.00000
 -10562088.02747  -8120959.22244  25516901.68300  25516900.89200  25516901.89800
        42.00000        24.00000
 -18669142.98345 -14361552.91341  27455505.98900  27455507.06300  27455506.48700
        33.00000         8.00000
 -19933372.90347 -14674556.66544  24386858.97100  24386858.13100  24386859.03000
        44.00000        26.00000
  -4814658.20946  -3512181.75842  26594664.51800  26594663.44300  26594663.34500
        38.00000        12.00000
 -14841354.76146 -10751755.07943  25291081.79800  25291081.46600  25291082.18900
        40.00000        18.00000
 -29638746.80947 -22995811.62944  25007601.25400  25007600.07200  25007602.31900
        45.00000        26.00000
 -43729557.28548 -34020061.33647  22055232.84900  22055232.16500  22055231.45200
        53.00000        44.00000
  -3973797.60546  -2707386.01341  26981559.11000  26981557.72300  26981557.11700
        36.00000        10.00000
 -34386351.00146 -26702442.44643  25571367.54500  25571366.09900  25571365.44500
        41.00000        20.00000
 11 04 10 00 31 30.0000000  0 11G05G21G15G10G26G18G30G25G29G16G02     .000000000
 -35347401.89948 -27506561.94246  23389659.48400  23389658.82000  23389658.17500
        50.00000        38.00000
 -24932103.59047 -19243815.61345  24565371.38200  24565370.36600  24565369.67200
        47.00000        30.00000
 -10698918.04147  -8227580.03144  25490864.44900  25490863.41400  25490863.96100
        42.00000        24.00000
 -18591585.41245 -14301118.43240  27470264.98900  27470264.83300  27470264.90100
        33.00000         4.00000
 -20050053.65247 -14765476.72344  24364654.86100  24364654.03000  24364655.64200
        44.00000        26.00000
  -4950465.59846  -3618005.64842  26568821.34300  26568819.94600  26568819.64300
        39.00000        12.00000
 -14916936.70046 -10810650.08343  25276699.40900  25276698.77400  25276697.90400
        41.00000        18.00000
 -29581306.61547 -22951053.06544  25018532.30800  25018530.61800  25018533.15800
        45.00000        26.00000
 -43765031.26248 -34047703.42547  22048482.46800  22048481.54000  22048480.93400
        53.00000        44.00000
  -4082198.30146  -2791854.14141  26960931.25900  26960930.20400  26960929.58900
        37.00000        10.00000
 -34337871.11846 -26664666.03743  25580593.40700  25580591.72600  25580590.90600
        41.00000        18.00000
 11 04 10 00 32  0.0000000  0 11G05G21G15G10G26G18G30G25G29G16G02     .000000000
 -35312921.87848 -27479694.43246  23396220.49400  23396220.54300  23396219.07800
        50.00000        38.00000
 -25034712.20647 -19323770.37645  24545845.51500  24545844.32300  24545843.94200
        46.00000        30.00000
 -10835622.33947  -8334102.87844  25464849.78100  25464849.45800  25464849.76100
        42.00000        24.00000
 -18514026.24845 -14240682.85141  27485023.95100  27485022.58300  27485024.93700
        34.00000         8.00000
 -20166283.27047 -14856045.24744  24342537.21100  24342536.35100  24342537.52300
        44.00000        26.00000
  -5086166.68746  -3723746.79342  26542998.19400  26542997.33400  26542996.47400
        38.00000        12.00000
 -14991924.92947 -10869082.47343  25262430.90900  25262429.64900  25262428.09600
        42.00000        18.00000
 -29523645.40647 -22906122.29444  25029504.61400  25029503.33500  25029506.02100
        45.00000        26.00000
 -43800006.92048 -34074957.20947  22041826.65500  22041825.93200  22041825.27800
        53.00000        44.00000
  -4190199.10346  -2876010.64541  26940380.14900  26940378.49900  26940377.80500
        38.00000        10.00000
 -34289286.74847 -26626808.23643  25589838.36500  25589837.05600  25589836.04000
        42.00000        18.00000
 11 04 10 00 32 30.0000000  0 11G05G21G15G10G26G18G30G25G29G16G02     .000000000
 -35278085.80848 -27452549.48846  23402849.94200  23402849.65900  23402848.26200
        50.00000        38.00000
 -25137217.64447 -19403644.74345  24526339.70300  24526338.22800  24526337.77800
        47.00000        30.00000
 -10972201.25847  -8440528.03543  25438860.54900  25438859.67000  25438859.68900
        43.00000        22.00000
 -18436471.04345 -14180250.32741  27499781.40800  27499779.57100  27499784.03600
        32.00000         8.00000
 -20282062.24047 -14946262.61744  24320505.57100  24320504.52600  24320505.58100
        45.00000        26.00000
  -5221763.59346  -3829406.69642  26517194.80600  26517193.54600  26517193.15500
        38.00000        12.00000
 -15066322.16746 -10927054.37643  25248272.28500  25248272.38300  25248271.87500
        41.00000        18.00000
 -29465770.03947 -22861024.63744  25040518.27000  25040516.87300  25040518.94400
        45.00000        26.00000
 -43834487.19048 -34101824.97847  22035265.44000  22035264.56100  22035263.86700
        53.00000        44.00000
  -4297801.26646  -2959856.52141  26919902.80100  26919901.62800  26919902.27300
        36.00000        10.00000
 -34240602.15846 -26588872.32843  25599102.36200  25599101.59100  25599100.66300
        41.00000        18.00000
 11 04 10 00 33  0.0000000  0 11G05G21G15G10G26G18G30G25G29G16G02     .000000000
 -35242894.25748 -27425127.54946  23409546.84100  23409546.80100  23409545.95200
        50.00000        38.00000
 -25239618.15247 -19483437.34045  24506853.08600  24506852.52900  24506851.42500
        47.00000        30.00000
 -11108650.50447  -8546852.14143  25412895.51300  25412894.42900  25412894.26300
        43.00000        22.00000
 -18358920.08745 -14119821.09540  27514540.23300  27514536.86300  27514542.43100
        32.00000         2.00000
 -20397385.17847 -15036124.64544  24298559.18100  24298559.30800  24298560.38200
        44.00000        26.00000
  -5357253.54346  -3934983.27942  26491411.70700  26491410.71000  26491410.41700
        39.00000        12.00000
 -15140125.78446 -10984563.71243  25234228.25400  25234228.17600  25234228.14600
        41.00000        20.00000
 -29407682.19347 -22815761.40244  25051572.19200  25051570.85300  25051572.71900
        45.00000        26.00000
 -43868469.75148 -34128304.91947  22028798.81200  22028798.05000  22028797.38600
        53.00000        44.00000
  -4405001.34546  -3043389.10141  26899504.08800  26899501.89900  26899501.81200
        36.00000        10.00000
 -34191816.34246 -26550857.51443  25608386.56100  25608385.52500  25608383.86500
        41.00000        18.00000
 11 04 10 00 33 30.0000000  0 11G05G21G15G10G26G18G30G25G29G16G02     .000000000
 -35207350.27348 -27397430.98746  23416311.33600  23416310.69200  23416309.18700
        50.00000        38.00000
 -25341913.57747 -19563148.06245  24487387.37300  24487386.02500  24487385.39000
        47.00000        30.00000
 -11244966.74747  -8653072.60044  25386955.21100  25386953.93200  25386954.26400
        43.00000        24.00000
 -18281375.11045 -14059396.48940  27529297.34800  27529292.21000  27529299.01800
        34.00000         2.00000
 -20512248.92947 -15125628.87344  24276702.13200  24276701.24300  24276702.59100
        45.00000        26.00000
  -5492635.30946  -4040475.56942  26465649.97100  26465648.20300  26465648.23300
        38.00000        12.00000
 -15213334.90346 -11041609.82743  25220297.28200  25220296.77400  25220297.12600
        41.00000        18.00000
 -29349385.06147 -22770335.10744  25062665.06000  25062664.16100  25062666.51500
        45.00000        26.00000
 -43901953.80348 -34154396.41347  22022426.85000  22022425.99000  22022425.63900
        53.00000        44.00000
  -4511797.12146  -3126606.62242  26879182.16400  26879179.92700  26879178.71600
        38.00000        12.00000
 -34142929.95146 -26512764.33743  25617689.29000  25617688.22500  25617686.97500
        41.00000        18.00000
 11 04 10 00 34  0.0000000  0 11G05G21G15G10G26G18G30G25G29G16G02     .000000000
 -35171457.48148 -27369462.63046  23423141.62300  23423140.82200  23423138.87800
        50.00000        38.00000
 -25444105.25047 -19642777.93845  24467941.30400  24467939.94600  24467938.97000
        47.00000        30.00000
 -11381148.99947  -8759188.62143  25361040.41500  25361039.25200  25361039.64300
        43.00000        22.00000
 -18203839.89845 -13998979.53641  27544051.91400  27544048.56300  27544054.50200
        34.00000         8.00000
 -20626651.44947 -15214773.70844  24254932.21800  24254931.19200  24254932.48200
        45.00000        26.00000
  -5627908.67446  -4145883.39142  26439908.06600  26439906.51300  26439906.39500
        39.00000        12.00000
 -15285949.80146 -11098192.90743  25206478.52000  25206478.10000  25206479.30200
        40.00000        18.00000
 -29290883.36247 -22724749.40744  25073797.89000  25073796.25900  25073799.37500
        45.00000        26.00000
 -43934940.32548 -34180100.22447  22016149.72900  22016148.96700  22016148.40100
        53.00000        44.00000
  -4618187.90146  -3209508.57942  26858937.58700  26858934.80300  26858933.36700
        39.00000        12.00000
 -34093944.93347 -26474594.34343  25627011.87800  25627010.02200  25627009.05500
        42.00000        18.00000
 11 04 10 00 34 30.0000000  0 11G05G21G15G10G26G18G30G25G29G16G02     .000000000
 -35135216.93748 -27341223.28846  23430037.51300  23430036.60500  23430035.93100
        50.00000        38.00000
 -25546191.20747 -19722325.44345  24448514.97800  24448513.86400  24448512.63300
        47.00000        30.00000
 -11517192.36247  -8865196.44843  25335151.65100  25335150.99600  25335151.08400
        42.00000        22.00000
 -18126315.57245 -13938571.09040  27558804.48700  27558801.59500  27558807.77800
        33.00000         2.00000
 -20740587.90347 -15303555.36644  24233250.47300  24233249.94600  24233251.02000
        45.00000        26.00000
  -5763071.13946  -4251204.80242  26414187.27000  26414185.97100  26414186.25400
        38.00000        12.00000
 -15357967.63246 -11154310.71243  25192773.88300  25192772.98400  25192774.46900
        41.00000        18.00000
 -29232178.83347 -22679005.66044  25084969.08100  25084967.68400  25084970.90800
        44.00000        26.00000
 -43967427.41748 -34205414.87247  22009967.77200  22009967.23500  22009966.55100
        53.00000        44.00000
  -4724170.43546  -3292092.41341  26838769.25200  26838767.37600  26838766.36000
        38.00000        10.00000
 -34044860.28746 -26436346.70243  25636351.55100  25636350.75000  25636350.24200
        41.00000        18.00000
 11 04 10 00 35  0.0000000  0 10G05G21G15G26G18G30G25G29G16G02        .000000000
 -35098632.50348 -27312715.98346  23436999.40000  23436997.97300  23436997.67100
        50.00000        36.00000
 -25648173.14447 -19801791.89045  24429108.59800  24429106.94700  24429106.09700
        47.00000        30.00000
 -11653095.85947  -8971095.29843  25309289.56500  25309289.42800  25309289.67200
        42.00000        22.00000
 -20854056.86947 -15391972.75344  24211658.30500  24211657.58200  24211658.84200
        45.00000        26.00000
  -5898122.89646  -4356439.95742  26388488.48200  26388487.07500  26388486.88000
        39.00000        14.00000
 -15429389.35446 -11209964.02943  25179183.27200  25179182.59800  25179183.24200
        41.00000        20.00000
 -29173276.40147 -22633107.71144  25096177.58800  25096176.14200  25096179.46300
        44.00000        26.00000
 -43999416.06748 -34230341.11547  22003880.75500  22003879.98300  22003879.32800
        53.00000        44.00000
  -4829744.06746  -3374357.65741  26818679.55300  26818678.27300  26818676.89600
        37.00000        10.00000
 -33995678.30446 -26398023.20043  25645709.81300  25645709.79400  25645709.63700
        41.00000        18.00000
 11 04 10 00 35 30.0000000  0 10G05G21G15G26G18G30G25G29G16G02        .000000000
 -35061706.10548 -27283942.20846  23444025.46400  23444024.66300  23444024.10600
        49.00000        36.00000
 -25750049.57847 -19881176.13045  24409721.92100  24409720.72000  24409720.06500
        47.00000        30.00000
 -11788855.38247  -9076881.95343  25283455.49400  25283455.25000  25283455.68000
        42.00000        22.00000
 -20967053.73547 -15480022.25344  24190155.63500  24190155.16600  24190156.48500
        45.00000        26.00000
  -6033061.81346  -4461587.15942  26362810.74500  26362809.10400  26362808.87000
        39.00000        14.00000
 -15500213.06247 -11265151.35743  25165706.61900  25165705.50500  25165706.05200
        42.00000        20.00000
 -29114178.27647 -22587057.25944  25107424.11300  25107422.50100  25107425.38300
        44.00000        26.00000
 -44030904.56248 -34254877.62547  21997888.39300  21997887.81600  21997887.21100
        53.00000        44.00000
  -4934905.61846  -3456301.77641  26798668.36200  26798667.33600  26798665.96900
        38.00000        10.00000
 -33946398.56246 -26359623.54743  25655088.18900  25655087.56400  25655087.25100
        41.00000        18.00000
 11 04 10 00 36  0.0000000  0 10G05G21G15G26G18G30G25G29G16G02        .000000000
 -35024440.16048 -27254903.85346  23451116.83100  23451116.11700  23451115.97100
        49.00000        36.00000
 -25851820.79747 -19960478.38245  24390355.58300  24390354.23500  24390353.77600
        47.00000        30.00000
 -11924468.09747  -9182554.21144  25257649.76200  25257648.86300  25257649.64500
        43.00000        24.00000
 -21079575.43747 -15567701.50644  24168744.27000  24168743.14600  24168744.44600
        45.00000        26.00000
  -6167886.45646  -4566645.32242  26337154.09800  26337153.12100  26337152.80900
        40.00000        14.00000
 -15570438.19647 -11319872.27643  25152342.49800  25152342.04900  25152342.45900
        42.00000        20.00000
 -29054887.86247 -22540856.97744  25118706.54600  25118705.11000  25118707.97300
        45.00000        26.00000
 -44061892.72448 -34279024.26647  21991991.47800  21991990.86300  21991990.33500
        53.00000        44.00000
  -5039652.96346  -3537923.15542  26778735.17200  26778734.61500  26778732.92500
        38.00000        12.00000
 -33897021.85446 -26321148.36743  25664484.62600  25664483.59100  25664483.38500
        41.00000        18.00000
 11 04 10 00 36 30.0000000  0 10G05G21G15G26G18G30G25G29G16G02        .000000000
 -34986835.14648 -27225601.29146  23458272.97100  23458272.33600  23458272.11200
        49.00000        36.00000
 -25953483.97447 -20039696.45745  24371009.05400  24371008.10700  24371007.70600
        47.00000        30.00000
 -12059929.00147  -9288108.18744  25231871.75200  25231871.38100  25231872.25000
        42.00000        24.00000
 -21191616.60547 -15655006.32244  24147423.03800  24147422.13000  24147423.78000
        45.00000        28.00000
  -6302593.40746  -4671611.80242  26311519.94800  26311518.72700  26311518.23900
        39.00000        14.00000
 -15640061.69746 -11374124.37843  25139093.69400  25139093.32200  25139093.65500
        41.00000        20.00000
 -28995406.40447 -22494507.83544  25130025.50400  25130024.18500  25130027.02800
        44.00000        26.00000
 -44092377.77548 -34302778.87547  21986190.26400  21986189.72700  21986189.25800
        53.00000        44.00000
  -5143982.40046  -3619218.87342  26758882.07400  26758881.20400  26758879.22100
        38.00000        12.00000
 -33847546.80746 -26282596.51843  25673899.03700  25673898.12900  25673898.30500
        40.00000        18.00000
 11 04 10 00 37  0.0000000  0 10G05G21G15G26G18G30G25G29G16G02        .000000000
 -34948890.95648 -27196034.42546  23465493.07600  23465493.12400  23465492.33300
        49.00000        36.00000
 -26055036.37447 -20118828.20145  24351684.36800  24351683.34200  24351683.30300
        47.00000        30.00000
 -12195232.73847  -9393539.66444  25206124.89400  25206124.03400  25206124.30800
        43.00000        24.00000
 -21303171.24047 -15741932.01744  24126195.53400  24126193.98100  24126195.39700
        46.00000        28.00000
  -6437179.36046  -4776483.97642  26285909.75000  26285907.79600  26285907.51300
        39.00000        14.00000
 -15709080.13046 -11427904.97843  25125958.83800  25125959.06200  25125959.38500
        41.00000        18.00000
 -28935734.64447 -22448010.39644  25141380.46800  25141379.87200  25141382.12900
        44.00000        26.00000
 -44122356.49348 -34326138.94047  21980485.67000  21980484.84000  21980484.55700
        53.00000        44.00000
  -5247889.24746  -3700185.29042  26739108.95900  26739108.14800  26739105.49100
        38.00000        12.00000
 -33797971.45246 -26243966.54943  25683332.82900  25683331.99900  25683332.50700
        40.00000        18.00000
 11 04 10 00 37 30.0000000  0 10G05G21G15G26G18G30G25G29G16G02        .000000000
 -34910611.24248 -27166206.12746  23472778.45200  23472777.83700  23472777.06500
        49.00000        36.00000
 -26156478.88247 -20197874.31245  24332380.92800  24332379.45300  24332379.17900
        47.00000        30.00000
 -12330377.22747  -9498847.07044  25180407.57600  25180406.93100  25180407.37000
        43.00000        26.00000
 -21414237.23547 -15828476.95444  24105059.80400  24105058.86700  24105059.98000
        45.00000        28.00000
  -6571643.53846  -4881261.28442  26260322.48800  26260320.55400  26260320.33900
        40.00000        14.00000
 -15777493.64647 -11481214.23843  25112941.81800  25112940.22600  25112940.81200
        42.00000        20.00000
 -28875876.79847 -22401367.97744  25152771.29200  25152769.67100  25152772.92400
        44.00000        26.00000
 -44151829.66648 -34349105.07747  21974877.35300  21974876.38600  21974876.01500
        53.00000        44.00000
  -5351372.43546  -3780821.60041  26719415.36800  26719415.67100  26719414.24500
        36.00000        10.00000
 -33748297.16846 -26205259.46843  25692785.12200  25692784.80000  25692785.15100
        40.00000        18.00000
 11 04 10 00 38  0.0000000  0 10G05G21G15G26G18G30G25G29G16G02        .000000000
 -34872002.73748 -27136121.62346  23480125.10600  23480124.97000  23480124.43200
        49.00000        36.00000
 -26257815.60147 -20276837.98345  24313097.02500  24313095.85200  24313095.68600
        47.00000        30.00000
 -12465363.58947  -9604031.25544  25154720.63700  25154719.98200  25154720.74400
        43.00000        26.00000
 -21524815.44447 -15914641.79944  24084017.87100  24084016.73800  24084017.66600
        45.00000        28.00000
  -6705988.99746  -4985946.03642  26234756.14000  26234755.46600  26234755.40800
        39.00000        14.00000
 -15845305.69946 -11534054.84143  25100036.05000  25100036.02100  25100036.97800
        41.00000        20.00000
 -28815840.28547 -22354586.31844  25164195.56300  25164194.54700  25164197.48800
        43.00000        26.00000
 -44180801.03348 -34371680.19047  21969364.40500  21969363.60400  21969362.94000
        53.00000        44.00000
  -5454433.94746  -3861129.32241  26699803.38300  26699802.48500  26699802.00600
        36.00000        10.00000
 -33698528.74046 -26166478.99842  25702257.03000  25702255.61400  25702255.75000
        40.00000        16.00000
 11 04 10 00 38 30.0000000  0 10G05G21G15G26G18G30G25G29G16G02        .000000000
 -34833068.42748 -27105783.24746  23487534.63000  23487533.92600  23487532.93000
        50.00000        36.00000
 -26359046.84847 -20355719.47145  24293833.82100  24293832.27700  24293832.01400
        47.00000        30.00000
 -12600189.58847  -9709090.50044  25129063.55000  25129063.43300  25129063.84300
        43.00000        26.00000
 -21634902.99847 -16000424.30344  24063068.39500  24063068.04400  24063069.17700
        45.00000        28.00000
  -6840214.85446  -5090537.61542  26209213.22700  26209212.59200  26209212.70900
        38.00000        14.00000
 -15912515.83046 -11586426.39543  25087247.10300  25087245.94100  25087247.08400
        41.00000        20.00000
 -28755628.92047 -22307668.42544  25175653.23300  25175652.20700  25175655.46900
        43.00000        26.00000
 -44209270.52548 -34393864.23547  21963946.76800  21963946.09400  21963945.32200
        53.00000        44.00000
  -5557072.82346  -3941107.73041  26680271.98800  26680270.42500  26680271.15800
        36.00000        10.00000
 -33648667.42046 -26127626.18743  25711744.82200  25711743.70800  25711744.25500
        40.00000        18.00000
 11 04 10 00 39  0.0000000  0 10G05G21G15G26G18G30G25G29G16G02        .000000000
 -34793808.46748 -27075191.11846  23495005.47900  23495004.74700  23495003.80900
        49.00000        36.00000
 -26460169.85048 -20434516.61645  24274590.78900  24274589.43100  24274588.75700
        48.00000        32.00000
 -12734849.66647  -9814020.44044  25103439.53000  25103438.25000  25103439.17800
        43.00000        26.00000
 -21744494.57247 -16085820.34444  24042213.77100  24042212.95100  24042214.26900
        45.00000        28.00000
  -6974317.75546  -5195033.40242  26183694.58800  26183693.47500  26183693.41600
        38.00000        12.00000
 -15979121.19446 -11638326.70843  25074572.57400  25074571.71400  25074572.11500
        41.00000        20.00000
 -28695243.58347 -22260614.98644  25187144.66100  25187143.34300  25187146.49800
        44.00000        26.00000
 -44237235.32548 -34415655.01647  21958625.04600  21958624.48000  21958623.96200
        53.00000        44.00000
  -5659284.88446  -4020753.55741  26660822.04100  26660819.96100  26660820.90800
        37.00000        10.00000
 -33598711.57946 -26088699.72242  25721251.37800  25721249.87400  25721251.00700
        40.00000        16.00000
 11 04 10 00 39 30.0000000  0 10G05G21G15G26G18G30G25G29G16G02        .000000000
 -34754225.09848 -27044346.98046  23502537.87000  23502537.08800  23502536.78600
        50.00000        36.00000
 -26561184.41848 -20513229.26945  24255368.41700  24255366.94100  24255366.45300
        48.00000        32.00000
 -12869340.94947  -9918818.84244  25077846.28000  25077845.55700  25077846.43600
        44.00000        26.00000
 -21853586.71147 -16170827.21744  24021454.72100  24021453.57800  24021455.03400
        46.00000        28.00000
  -7108296.32246  -5299432.27342  26158199.62800  26158198.05500  26158198.40700
        38.00000        14.00000
 -16045120.97547 -11689755.14143  25062013.40900  25062012.66700  25062012.89100
        42.00000        20.00000
 -28634687.56447 -22213428.52644  25198668.71700  25198667.03600  25198669.80100
        44.00000        24.00000
 -44264695.20648 -34437052.35147  21953399.87600  21953399.05500  21953398.43000
        53.00000        44.00000
  -5761067.54846  -4100064.76341  26641453.64100  26641451.39500  26641451.28700
        37.00000        10.00000
 -33548661.58446 -26049699.86842  25730776.87600  25730774.63900  25730775.02000
        41.00000        16.00000
 11 04 10 00 40  0.0000000  0 10G05G21G15G26G18G30G25G29G16G02        .000000000
 -34714320.73248 -27013252.72246  23510130.97100  23510130.60000  23510130.15000
        49.00000        36.00000
 -26662089.86748 -20591856.88845  24236166.55800  24236165.28800  24236164.43800
        48.00000        32.00000
 -13003660.06147 -10023483.09844  25052286.14500  25052285.72500  25052286.19400
        43.00000        26.00000
 -21962176.01947 -16255442.27544  24000790.42500  24000789.71100  24000791.00100
        46.00000        28.00000
  -7242148.77046  -5403732.88142  26132728.47300  26132727.08600  26132727.18400
        39.00000        14.00000
 -16110514.09747 -11740710.83643  25049570.00000  25049569.50200  25049569.56000
        42.00000        20.00000
 -28573963.67347 -22166111.25544  25210223.38600  25210222.40900  25210225.38900
        44.00000        26.00000
 -44291649.03548 -34458055.36747  21948270.52400  21948269.72300  21948269.30300
        53.00000        44.00000
  -5862418.57146  -4179039.61741  26622166.05500  26622165.12700  26622165.38100
        36.00000        10.00000
 -33498517.31546 -26010626.54442  25740318.43200  25740317.32900  25740317.71900
        40.00000        16.00000
 11 04 10 00 40 30.0000000  0 10G05G21G15G26G18G30G25G29G16G02        .000000000
 -34674099.79548 -26981911.78146  23517785.16400  23517784.52900  23517784.04000
        49.00000        36.00000
 -26762887.83748 -20670400.77145  24216985.67300  24216984.21700  24216983.28900
        48.00000        32.00000
 -13137806.21947 -10128012.58944  25026758.49000  25026758.70500  25026759.15400
        43.00000        26.00000
 -22070261.12547 -16339664.44444  23980222.51300  23980221.63400  23980223.06000
        45.00000        28.00000
  -7375875.72646  -5507935.71342  26107280.27500  26107279.34700  26107279.50300
        38.00000        12.00000
 -16175301.91847 -11791194.89143  25037241.35000  25037240.58800  25037240.49100
        42.00000        20.00000
 -28513077.23147 -22118667.32044  25221809.63700  25221808.77700  25221812.07900
        44.00000        24.00000
 -44318098.56648 -34478665.41747  21943237.54600  21943236.82400  21943236.15000
        53.00000        44.00000
  -5963338.30846  -4257678.44742  26602963.76700  26602961.17900  26602960.94400
        38.00000        12.00000
 -33448281.92646 -25971482.22342  25749878.00200  25749876.73200  25749877.36700
        41.00000        16.00000
 11 04 10 00 41  0.0000000  0 10G05G21G15G26G18G30G25G29G16G02        .000000000
 -34633562.39948 -26950324.24746  23525499.28600  23525498.77800  23525498.06500
        49.00000        36.00000
 -26863575.94948 -20748859.04445  24197825.11500  24197824.00100  24197823.00500
        48.00000        32.00000
 -13271774.05747 -10232403.11344  25001266.29400  25001265.28800  25001266.02100
        44.00000        26.00000
 -22177836.68647 -16423489.56044  23959751.67000  23959750.60500  23959752.27600
        45.00000        28.00000
  -7509474.00646  -5612038.27142  26081858.05000  26081856.83900  26081856.55600
        39.00000        14.00000
 -16239481.59247 -11841205.06143  25025029.52100  25025027.97700  25025027.78200
        43.00000        20.00000
 -28452029.19547 -22071097.46444  25233427.17600  25233425.61300  25233429.29600
        44.00000        24.00000
 -44344041.49948 -34498880.71247  21938300.62200  21938300.00700  21938299.49900
        53.00000        44.00000
  -6063822.27946  -4335977.70341  26583842.14700  26583840.18300  26583839.11800
        38.00000        10.00000
 -33397953.62646 -25932265.50342  25759454.95000  25759454.54000  25759454.77400
        41.00000        16.00000
 11 04 10 00 41 30.0000000  0 10G05G21G15G26G18G30G25G29G16G02        .000000000
 -34592708.92148 -26918490.41046  23533273.23900  23533272.81900  23533272.21400
        49.00000        36.00000
 -26964152.10448 -20827230.08845  24178686.59500  24178685.06100  24178684.06500
        48.00000        32.00000
 -13405558.15247 -10336650.47344  24975808.17100  24975807.27200  24975807.74100
        44.00000        26.00000
 -22284897.14147 -16506913.28944  23939378.69700  23939377.59300  23939379.34100
        45.00000        28.00000
  -7642939.80346  -5716037.62842  26056460.35400  26056459.52400  26056458.97700
        39.00000        16.00000
 -16303050.35947 -11890739.17443  25012931.23900  25012931.07300  25012931.34700
        42.00000        22.00000
 -28390820.58647 -22023402.46844  25245074.30300  25245073.70700  25245076.38400
        44.00000        24.00000
 -44369474.73148 -34518698.84047  21933461.01100  21933460.13100  21933459.79000
        53.00000        44.00000
  -6163866.41146  -4413934.23142  26564803.68400  26564802.83500  26564801.77000
        38.00000        12.00000
 -33347530.59046 -25892974.97843  25769051.01400  25769050.19400  25769049.97900
        41.00000        18.00000
 11 04 10 00 42  0.0000000  0 10G05G21G15G26G18G30G25G29G16G02        .000000000
 -34551543.39048 -26886413.42446  23541106.90700  23541106.12600  23541105.70600
        49.00000        36.00000
 -27064616.96748 -20905514.40645  24159568.77400  24159567.15300  24159566.44000
        48.00000        32.00000
 -13539157.18347 -10440753.60944  24950384.02200  24950384.05100  24950384.72500
        43.00000        26.00000
 -22391441.06247 -16589934.52144  23919104.12000  23919103.34900  23919104.60900
        46.00000        28.00000
  -7776273.42746  -5819933.97942  26031088.42700  26031086.52200  26031086.26800
        40.00000        14.00000
 -16366008.66547 -11939797.64843  25000951.91800  25000950.62800  25000950.22800
        43.00000        20.00000
 -28329456.05347 -21975585.99344  25256752.07400  25256750.90200  25256753.98900
        44.00000        24.00000
 -44394399.22448 -34538120.55147  21928717.87200  21928717.12000  21928716.75800
        52.00000        44.00000
  -6263470.42546  -4491547.77141  26545849.78700  26545849.26000  26545847.43300
        38.00000        10.00000
 -33297014.90146 -25853612.25043  25778663.27500  25778663.08900  25778662.55200
        40.00000        18.00000
 11 04 10 00 42 30.0000000  0 10G05G21G15G26G18G30G25G29G16G02        .000000000
 -34510070.45148 -26854096.89146  23548998.88200  23548998.64800  23548997.80800
        49.00000        36.00000
 -27164972.18748 -20983713.28445  24140471.65300  24140470.18800  24140469.29900
        48.00000        32.00000
 -13672570.04747 -10544711.70144  24924997.02200  24924996.51400  24924996.67000
        44.00000        26.00000
 -22497467.11247 -16672552.21244  23898928.19500  23898927.24800  23898928.42000
        46.00000        28.00000
  -7909475.57946  -5923727.86542  26005739.78800  26005738.89900  26005739.43600
        39.00000        14.00000
 -16428358.30347 -11988381.80243  24989085.64600  24989086.29000  24989085.40100
        42.00000        20.00000
 -28267940.86047 -21927652.11644  25268457.68500  25268456.99200  25268459.59000
        44.00000        24.00000
 -44418816.80648 -34557147.26847  21924071.51900  21924070.71800  21924070.17100
        53.00000        44.00000
  -6362634.33046  -4568818.37442  26526980.02600  26526979.46900  26526976.29400
        38.00000        12.00000
 -33246408.80746 -25814179.07642  25788293.50000  25788292.53200  25788292.46400
        40.00000        16.00000
 11 04 10 00 43  0.0000000  0 10G05G21G15G26G18G30G25G29G16G02        .000000000
 -34468291.26648 -26821541.72446  23556948.92100  23556949.01900  23556948.47200
        48.00000        36.00000
 -27265216.43848 -21061825.68745  24121395.78700  24121394.41000  24121393.92200
        48.00000        32.00000
 -13805792.78747 -10648521.64144  24899645.14000  24899644.99300  24899645.30600
        43.00000        26.00000
 -22602971.08647 -16754763.09244  23878850.91200  23878850.73600  23878851.68400
        46.00000        28.00000
  -8042544.09646  -6027417.64142  25980418.20700  25980416.67300  25980416.69300
        40.00000        14.00000
 -16490097.68346 -12036490.45043  24977337.08300  24977336.69200  24977337.40500
        41.00000        20.00000
 -28206277.24247 -21879602.58444  25280192.21100  25280190.89200  25280193.36300
        44.00000        24.00000
 -44442726.52148 -34575778.24247  21919521.68700  21919520.95400  21919520.43700
        53.00000        44.00000
  -6461355.07846  -4645743.68741  26508195.24900  26508194.06700  26508190.74600
        39.00000        10.00000
 -33195712.27246 -25774675.43942  25797941.27800  25797939.24600  25797939.58800
        40.00000        16.00000
 11 04 10 00 43 30.0000000  0 10G05G21G15G26G18G30G25G29G16G02        .000000000
 -34426209.91448 -26788751.11046  23564957.14100  23564956.70100  23564956.24200
        49.00000        36.00000
 -27365350.99448 -21139852.61845  24102340.71900  24102339.38100  24102338.74600
        48.00000        32.00000
 -13938824.06247 -10752182.36644  24874330.76800  24874329.97700  24874330.64100
        44.00000        26.00000
 -22707951.34647 -16836565.88144  23858874.22300  23858873.43200  23858874.93600
        46.00000        28.00000
  -8175479.04146  -6131003.32542  25955122.68800  25955120.13900  25955120.26600
        41.00000        14.00000
 -16551227.75747 -12084124.30643  24965705.12600  24965704.19800  24965704.64700
        42.00000        20.00000
 -28144469.84147 -21831441.01543  25291954.06800  25291952.37800  25291955.08400
        44.00000        22.00000
 -44466129.30348 -34594014.20147  21915068.29900  21915067.61500  21915067.17500
        53.00000        44.00000
  -6559632.35646  -4722323.41941  26489492.90800  26489491.61900  26489489.52800
        38.00000        10.00000
 -33144927.20946 -25735102.78442  25807604.99900  25807603.21100  25807604.10000
        40.00000        16.00000
 11 04 10 00 44  0.0000000  0 10G05G21G15G26G18G30G25G29G16G02        .000000000
 -34383828.94448 -26755727.03846  23573022.02700  23573021.07900  23573021.04000
        48.00000        36.00000
 -27465375.89048 -21217794.09845  24083306.58400  24083305.25600  24083304.44500
        48.00000        32.00000
 -14071660.63847 -10855691.38044  24849053.13600  24849052.07100  24849052.30500
        44.00000        26.00000
 -22812404.95347 -16917958.28345  23838997.54400  23838996.71400  23838998.14900
        46.00000        30.00000
  -8308279.50746  -6234484.24742  25929849.79300  25929849.32500  25929849.35400
        40.00000        14.00000
 -16611747.86146 -12131282.85543  24954187.23500  24954187.69400  24954188.23100
        41.00000        20.00000
 -28082521.98547 -21783170.00443  25303741.88000  25303740.66900  25303743.06200
        43.00000        22.00000
 -44489024.98548 -34611855.01547  21910711.35400  21910710.70000  21910710.27000
        53.00000        44.00000
  -6657464.40846  -4798556.21642  26470875.56200  26470874.17500  26470873.38400
        38.00000        12.00000
 -33094054.20546 -25695461.61442  25817286.47800  25817284.59300  25817285.08100
        40.00000        16.00000
 11 04 10 00 44 30.0000000  0 10G05G21G15G26G18G30G25G29G16G02        .000000000
 -34341148.26748 -26722469.41345  23581143.66700  23581142.96400  23581143.18900
        48.00000        34.00000
 -27565288.35148 -21295647.96445  24064293.43200  24064292.52400  24064291.93700
        48.00000        32.00000
 -14204297.38047 -10959044.68944  24823813.04300  24823812.00800  24823812.34000
        44.00000        26.00000
 -22916326.19647 -16998935.86444  23819221.46900  23819220.95100  23819222.60200
        46.00000        28.00000
  -8440941.63946  -6337857.34342  25904605.23700  25904604.27000  25904604.46500
        40.00000        14.00000
 -16671654.90847 -12177963.72143  24942788.58600  24942787.67800  24942788.54700
        42.00000        22.00000
 -28020434.42647 -21734790.12543  25315556.97500  25315555.77400  25315558.15700
        43.00000        22.00000
 -44511410.49948 -34629298.29747  21906451.34100  21906450.86300  21906450.51100
        52.00000        44.00000
  -6754846.66746  -4874438.55642  26452343.45500  26452343.26000  26452342.69300
        38.00000        12.00000
 -33043091.29046 -25655750.40543  25826984.51500  25826982.78600  25826983.31300
        41.00000        18.00000
 11 04 10 00 45  0.0000000  0 10G05G21G15G26G18G30G25G29G16G02        .000000000
 -34298170.08048 -26688979.97046  23589321.94500  23589321.28100  23589321.53500
        48.00000        36.00000
 -27665087.61348 -21373413.62345  24045302.40500  24045301.43800  24045300.29500
        48.00000        32.00000
 -14336731.23947 -11062239.90044  24798611.04700  24798610.39300  24798611.35000
        44.00000        28.00000
 -23019712.36447 -17079496.49144  23799548.05100  23799547.05400  23799548.91000
        46.00000        28.00000
  -8573464.11446  -6441121.63342  25879387.85600  25879386.13600  25879386.57600
        40.00000        16.00000
 -16730948.98947 -12224166.92243  24931505.37100  24931504.92200  24931505.72300
        42.00000        20.00000
 -27958210.46447 -21686303.96543  25327397.75200  25327396.86300  25327399.23700
        43.00000        22.00000
 -44533285.81948 -34646344.02747  21902288.68100  21902288.05600  21902287.77200
        52.00000        44.00000
  -6851777.78446  -4949969.36642  26433898.31600  26433897.23200  26433896.98800
        37.00000        12.00000
 -32992039.19946 -25615969.65742  25836699.64700  25836697.94700  25836698.35700
        41.00000        16.00000
 11 04 10 00 45 30.0000000  0 10G05G21G15G26G18G30G25G29G16G02        .000000000
 -34254898.17348 -26655261.66046  23597556.62500  23597556.27400  23597556.11700
        48.00000        36.00000
 -27764773.95948 -21451091.29445  24026333.35700  24026331.89200  24026330.49500
        48.00000        32.00000
 -14468959.62447 -11165275.01144  24773449.05300  24773448.27100  24773448.84800
        44.00000        26.00000
 -23122560.69447 -17159638.03544  23779977.05400  23779975.52000  23779976.88800
        46.00000        28.00000
  -8705846.14346  -6544276.46242  25854195.70600  25854194.73900  25854194.76900
        40.00000        14.00000
 -16789629.96647 -12269892.37643  24920338.88800  24920338.04800  24920338.75100
        42.00000        20.00000
 -27895853.84747 -21637714.45343  25339264.20900  25339262.60700  25339265.44000
        43.00000        22.00000
 -44554651.30648 -34662992.48747  21898223.13700  21898222.45400  21898222.08200
        52.00000        44.00000
  -6948256.36846  -5025147.53142  26415538.64100  26415537.64500  26415538.28000
        37.00000        12.00000
 -32940899.13046 -25576120.37642  25846430.75900  25846429.88000  25846430.06600
        39.00000        16.00000
 11 04 10 00 46  0.0000000  0 10G05G21G15G26G18G30G25G29G16G02        .000000000
 -34211336.06448 -26621317.21045  23605846.31200  23605845.81400  23605846.03800
        48.00000        34.00000
 -27864348.22148 -21528681.63845  24007385.30200  24007383.89500  24007382.20500
        49.00000        32.00000
 -14600980.88047 -11268148.71944  24748326.72800  24748325.52700  24748325.93700
        45.00000        26.00000
 -23224869.29047 -17239359.02144  23760507.50200  23760507.17000  23760508.44000
        46.00000        28.00000
  -8838087.86346  -6647321.99242  25829030.86000  25829029.96100  25829029.82400
        40.00000        14.00000
 -16847698.56447 -12315140.67543  24909289.63600  24909288.19000  24909288.44400
        43.00000        22.00000
 -27833368.92147 -21589024.96343  25351154.35500  25351152.89000  25351156.27000
        42.00000        22.00000
 -44575507.69848 -34679244.24447  21894254.26200  21894253.54000  21894253.20700
        52.00000        44.00000
  -7044281.39046  -5099972.26442  26397266.67700  26397265.93400  26397265.95400
        38.00000        12.00000
 -32889672.60146 -25536203.72242  25856178.38100  25856177.51100  25856178.50800
        39.00000        16.00000
 11 04 10 00 46 30.0000000  0 10G05G21G15G26G18G30G25G29G16G02        .000000000
 -34167483.52148 -26587146.45846  23614191.36600  23614191.02400  23614190.43800
        48.00000        36.00000
 -27963808.06048 -21606182.81845  23988458.18000  23988457.08600  23988455.19100
        48.00000        32.00000
 -14732789.55947 -11370856.78344  24723243.58500  24723243.10600  24723243.66300
        44.00000        26.00000
 -23326632.87947 -17318655.32944  23741143.07800  23741142.10100  23741143.21500
        46.00000        28.00000
  -8970185.59346  -6750255.34142  25803893.81400  25803893.02300  25803892.48600
        40.00000        14.00000
 -16905152.26247 -12359909.82243  24898355.26100  24898354.96800  24898355.63200
        42.00000        20.00000
 -27770756.61547 -21540236.20544  25363069.26400  25363067.99400  25363071.53000
        42.00000        24.00000
 -44595852.64448 -34695097.48047  21890382.52400  21890382.03600  21890381.74300
        52.00000        44.00000
  -7139849.01946  -5174440.59742  26379081.47500  26379080.41000  26379080.13700
        39.00000        12.00000
 -32838357.66346 -25496218.20542  25865943.91700  25865942.09100  25865943.58500
        39.00000        14.00000
 11 04 10 00 47  0.0000000  0 10G05G21G15G26G18G30G25G29G16G02        .000000000
 -34123346.25948 -26552753.83146  23622590.57500  23622589.91100  23622589.79400
        49.00000        36.00000
 -28063156.12248 -21683596.90145  23969553.01700  23969551.76700  23969549.96000
        49.00000        32.00000
 -14864385.94247 -11473399.42144  24698201.54600  24698200.93100  24698201.80000
        44.00000        26.00000
 -23427851.54047 -17397527.01244  23721881.70100  23721880.65500  23721882.01300
        46.00000        28.00000
  -9102141.45946  -6853078.11142  25778784.12000  25778782.41000  25778781.70700
        40.00000        16.00000
 -16961993.88447 -12404202.03643  24887540.11800  24887538.14500  24887538.66300
        43.00000        20.00000
 -27708023.18547 -21491353.08843  25375006.70900  25375005.31200  25375009.21000
        42.00000        22.00000
 -44615688.86248 -34710554.29647  21886608.30400  21886607.31800  21886607.14200
        52.00000        44.00000
  -7234960.80746  -5248553.74542  26360982.79300  26360981.29800  26360981.18100
        39.00000        14.00000
 -32786958.34746 -25456166.95042  25875725.41500  25875723.45200  25875724.82900
        40.00000        14.00000
 11 04 10 00 47 30.0000000  0 10G05G21G15G26G18G30G25G29G16G02        .000000000
 -34078926.22948 -26518140.87346  23631043.65800  23631042.88600  23631042.88600
        49.00000        36.00000
 -28162391.59248 -21760923.24945  23950669.22800  23950667.70400  23950665.87800
        49.00000        32.00000
 -14995766.19347 -11575773.63744  24673200.85800  24673200.40900  24673201.22900
        44.00000        26.00000
 -23528521.80647 -17475971.36644  23702724.55200  23702723.79000  23702725.01100
        46.00000        28.00000
  -9233953.80646  -6955789.02842  25753700.44900  25753699.27700  25753699.13000
        40.00000        16.00000
 -17018222.43047 -12448016.50743  24876839.82300  24876838.95400  24876838.60200
        43.00000        22.00000
 -27645171.31047 -21442377.68144  25386968.02700  25386966.32800  25386969.82500
        43.00000        24.00000
 -44635015.86948 -34725614.32747  21882930.04900  21882929.46300  21882929.19000
        52.00000        44.00000
  -7329614.16846  -5322309.66442  26342969.54400  26342969.12400  26342968.89000
        38.00000        12.00000
 -32735474.44446 -25416049.79342  25885523.25600  25885521.38100  25885521.96700
        40.00000        14.00000
 11 04 10 00 48  0.0000000  0 10G05G21G15G26G18G30G25G29G16G02        .000000000
 -34034222.19748 -26483306.61545  23639550.24200  23639549.62700  23639549.24600
        48.00000        34.00000
 -28261510.22248 -21838158.55745  23931807.30100  23931805.82600  23931804.36100
        49.00000        32.00000
 -15126924.09047 -11677974.59344  24648242.27100  24648241.86100  24648242.79900
        44.00000        26.00000
 -23628637.01647 -17553983.20644  23683673.09800  23683672.62900  23683673.98700
        46.00000        28.00000
  -9365617.08846  -7058383.79142  25728645.62400  25728644.67600  25728644.70600
        40.00000        16.00000
 -17073833.92647 -12491350.17043  24866255.90900  24866256.78800  24866255.73300
        42.00000        20.00000
 -27582200.67647 -21393309.70544  25398951.11000  25398949.60600  25398952.89800
        43.00000        24.00000
 -44653829.82648 -34740274.57847  21879350.14200  21879349.32200  21879348.91200
        52.00000        44.00000
  -7423803.92846  -5395704.32142  26325045.69700  26325045.16900  26325045.20800
        37.00000        12.00000
 -32683903.07546 -25375864.43742  25895337.16600  25895335.44700  25895335.77900
        40.00000        14.00000
 11 04 10 00 48 30.0000000  0 10G05G21G15G26G18G30G25G29G16G02        .000000000
 -33989236.83848 -26448253.14245  23648110.86500  23648110.56200  23648110.32800
        48.00000        34.00000
 -28360512.09648 -21915302.87945  23912968.02600  23912966.86400  23912964.68500
        49.00000        32.00000
 -15257856.58247 -11779999.92644  24623327.35000  24623326.37300  24623326.88100
        44.00000        28.00000
 -23728194.38047 -17631560.37145  23664728.66700  23664727.53400  23664728.87200
        46.00000        30.00000
  -9497130.88546  -7160862.10342  25703619.22500  25703618.54100  25703618.10200
        39.00000        16.00000
 -17128828.50547 -12534203.11843  24855792.06800  24855791.24700  24855790.68000
        43.00000        22.00000
 -27519114.54547 -21344151.72644  25410955.51700  25410954.45200  25410957.66600
        42.00000        24.00000
 -44672130.70448 -34754535.03147  21875867.66600  21875866.96200  21875866.57200
        52.00000        44.00000
  -7517528.31546  -5468736.36542  26307210.97600  26307209.36400  26307209.78400
        37.00000        12.00000
 -32632244.81346 -25335611.41542  25905167.36000  25905166.22700  25905166.16800
        40.00000        14.00000
 11 04 10 00 49  0.0000000  0 10G05G21G15G26G18G30G25G29G16G02        .000000000
 -33943977.77848 -26412986.39745  23656723.78800  23656723.34800  23656722.45000
        49.00000        34.00000
 -28459401.85248 -21992359.84545  23894149.67600  23894148.55200  23894146.83300
        49.00000        32.00000
 -15388565.58047 -11881851.09644  24598454.01200  24598453.03500  24598454.15800
        44.00000        28.00000
 -23827195.69347 -17708704.25445  23645888.94300  23645888.43500  23645889.10900
        46.00000        30.00000
  -9628498.51846  -7263226.49342  25678621.44700  25678619.97200  25678619.73800
        40.00000        16.00000
 -17183210.65447 -12576578.84243  24845441.90100  24845442.57600  24845442.28200
        42.00000        22.00000
 -27455920.99247 -21294910.06444  25422980.31100  25422979.45100  25422982.91900
        42.00000        24.00000
 -44689923.05348 -34768399.22347  21872482.01300  21872481.33000  21872480.98800
        52.00000        44.00000
  -7610790.38446  -5541408.14042  26289463.32100  26289461.71900  26289462.92100
        37.00000        12.00000
 -32580505.20046 -25295294.99742  25915012.17700  25915011.88400  25915011.53200
        39.00000        14.00000
 11 04 10 00 49 30.0000000  0 10G05G21G15G26G18G30G25G29G16G02        .000000000
 -33898441.42648 -26377503.57645  23665389.09900  23665388.17100  23665387.43800
        49.00000        34.00000
 -28558173.14848 -22069324.50445  23875354.01700  23875353.08900  23875351.44800
        48.00000        32.00000
 -15519042.63347 -11983521.53744  24573625.10100  24573624.10400  24573624.89600
        45.00000        28.00000
 -23925632.98147 -17785408.62845  23627156.78900  23627156.48600  23627157.10100
        46.00000        30.00000
  -9759713.49646  -7365471.94943  25653652.46700  25653650.88500  25653650.33800
        41.00000        18.00000
 -17236974.74747 -12618472.96643  24835211.95500  24835211.29100  24835211.61300
        42.00000        22.00000
 -27392617.76247 -21245582.94143  25435027.25900  25435025.69600  25435028.77300
        43.00000        22.00000
 -44707201.66748 -34781863.10047  21869193.85000  21869193.37100  21869192.96100
        52.00000        44.00000
  -7703582.92146  -5613714.06741  26271806.35600  26271803.82600  26271804.13900
        37.00000        10.00000
 -32528679.15646 -25254911.23642  25924875.03600  25924873.83500  25924873.56100
        40.00000        14.00000
 11 04 10 00 50  0.0000000  0 10G05G21G15G26G18G30G25G29G16G02        .000000000
 -33852632.32548 -26341808.22345  23674106.18300  23674105.44000  23674104.89300
        48.00000        34.00000
 -28656827.87148 -22146198.32245  23856580.96200  23856579.51700  23856578.04200
        49.00000        32.00000
 -15649286.34547 -12085010.15544  24548840.22600  24548839.77600  24548840.68500
        45.00000        28.00000
 -24023504.89347 -17861672.45245  23608532.52600  23608531.94000  23608532.84900
        46.00000        30.00000
  -9890776.35046  -7467598.88443  25628711.72700  25628710.52600  25628709.86200
        41.00000        18.00000
 -17290122.37647 -12659886.74243  24825099.14200  24825098.03800  24825097.44200
        43.00000        22.00000
 -27329209.80247 -21196174.19843  25447092.87500  25447091.81000  25447095.12200
        42.00000        22.00000
 -44723967.98248 -34794927.78447  21866003.40000  21866002.76500  21866002.34500
        52.00000        44.00000
  -7795906.06746  -5685654.23142  26254238.15700  26254235.41200  26254235.50000
        38.00000        12.00000
 -32476769.06446 -25214461.94542  25934753.47600  25934751.94200  25934751.65900
        40.00000        14.00000
 11 04 10 00 50 30.0000000  0 10G05G21G15G26G18G30G25G29G16G02        .000000000
 -33806551.64048 -26305901.25045  23682875.05800  23682874.54000  23682874.18900
        49.00000        34.00000
 -28755364.03148 -22222979.75845  23837829.83800  23837828.48000  23837827.78700
        48.00000        34.00000
 -15779292.49947 -12186313.65944  24524101.44800  24524100.42200  24524100.84200
        45.00000        28.00000
 -24120807.16547 -17937492.40745  23590016.56700  23590015.74600  23590016.79100
        47.00000        30.00000
 -10021684.52746  -7569605.27643  25603800.25400  25603799.22800  25603799.23800
        41.00000        18.00000
 -17342651.76847 -12700818.77543  24815102.95400  24815101.93800  24815101.41000
        42.00000        22.00000
 -27265698.95347 -21146685.27243  25459178.49700  25459177.25600  25459180.84100
        42.00000        22.00000
 -44740220.72548 -34807592.28847  21862910.57500  21862909.80300  21862909.54900
        52.00000        44.00000
  -7887757.09246  -5757226.53541  26236758.62500  26236757.17000  26236756.89600
        38.00000        10.00000
 -32424774.07646 -25173946.54142  25944646.47100  25944645.58200  25944646.72500
        38.00000        14.00000
 11 04 10 00 51  0.0000000  0 10G05G21G15G26G18G30G25G29G16G02        .000000000
 -33760203.98648 -26269786.24345  23691694.89600  23691694.69100  23691693.49900
        48.00000        34.00000
 -28853783.72848 -22299670.44245  23819100.92700  23819099.65700  23819098.68000
        48.00000        32.00000
 -15909060.60247 -12287431.67545  24499407.31200  24499406.76500  24499406.84300
        46.00000        30.00000
 -24217539.47747 -18012868.23045  23571608.75300  23571608.06900  23571609.41700
        46.00000        30.00000
 -10152439.29546  -7671492.11843  25578918.65200  25578917.80200  25578917.65600
        41.00000        18.00000
 -17394565.62447 -12741271.17943  24805224.06400  24805222.91200  24805222.92100
        42.00000        20.00000
 -27202090.84647 -21097120.56443  25471282.87300  25471281.56400  25471284.92500
        42.00000        22.00000
 -44755961.94548 -34819858.20247  21859915.23900  21859914.41900  21859914.11600
        52.00000        44.00000
  -7979136.65446  -5828431.42141  26219369.83200  26219368.81600  26219367.97600
        38.00000        10.00000
 -32372697.12346 -25133367.30542  25954557.83000  25954555.32900  25954557.04900
        39.00000        14.00000
 11 04 10 00 51 30.0000000  0 10G05G21G15G26G18G30G25G29G16G02        .000000000
 -33713591.26048 -26233464.69145  23700564.85500  23700564.22000  23700564.22000
        48.00000        34.00000
 -28952085.67848 -22376269.37545  23800394.80600  23800393.51600  23800392.74400
        48.00000        32.00000
 -16038586.89847 -12388361.26844  24474759.39900  24474758.40300  24474758.96000
        45.00000        28.00000
 -24313698.05747 -18087796.99345  23553310.62900  23553309.69100  23553310.89200
        46.00000        30.00000
 -10283038.81246  -7773257.98743  25554066.24800  25554065.12500  25554065.16400
        41.00000        18.00000
 -17445862.96646 -12781243.16943  24795461.43900  24795460.63800  24795461.12600
        41.00000        20.00000
 -27138387.83646 -21047481.91143  25483403.64200  25483403.34900  25483407.26600
        40.00000        20.00000
 -44771190.97248 -34831725.00747  21857016.91300  21857016.47400  21857016.21000
        52.00000        44.00000
  -8070042.15346  -5899266.89342  26202070.60600  26202070.30300  26202069.29700
        38.00000        12.00000
 -32320538.10446 -25092724.10742  25964481.56600  25964481.32200  25964483.02200
        38.00000        14.00000
 11 04 10 00 52  0.0000000  0 10G05G21G15G26G18G30G25G29G16G02        .000000000
 -33666716.10848 -26196938.66145  23709484.97500  23709484.28100  23709483.83200
        48.00000        34.00000
 -29050269.71348 -22452776.42345  23781710.98500  23781709.72500  23781709.00200
        48.00000        32.00000
 -16167868.59047 -12489100.24644  24450157.58400  24450156.92000  24450157.50600
        45.00000        28.00000
 -24409280.33547 -18162276.69145  23535121.37300  23535120.96300  23535122.39900
        46.00000        30.00000
 -10413481.97846  -7874902.00943  25529244.77100  25529242.40700  25529242.79800
        41.00000        18.00000
 -17496543.91846 -12820734.87643  24785816.11200  24785815.81900  24785817.41100
        40.00000        20.00000
 -27074593.42846 -20997772.05243  25495544.20100  25495542.90200  25495547.22900
        41.00000        20.00000
 -44785908.10548 -34843192.93347  21854216.86700  21854216.01700  21854215.55800
        52.00000        44.00000
  -8160472.41746  -5969732.05641  26184863.67100  26184862.38200  26184862.02000
        39.00000        10.00000
 -32268297.49746 -25052017.31642  25974423.93100  25974422.09400  25974424.15500
        38.00000        14.00000
 11 04 10 00 52 30.0000000  0 10G05G21G15G26G18G30G25G29G16G02        .000000000
 -33619579.70048 -26160209.04845  23718454.87500  23718453.66300  23718453.91700
        48.00000        34.00000
 -29148334.68748 -22529190.70145  23763050.05300  23763048.68500  23763047.77700
        49.00000        32.00000
 -16296901.65547 -12589645.49644  24425603.99600  24425602.65800  24425603.15600
        45.00000        28.00000
 -24504282.57347 -18236304.41145  23517043.87800  23517042.78400  23517044.06400
        47.00000        30.00000
 -10543766.75546  -7976422.63443  25504451.52400  25504450.21500  25504450.03900
        41.00000        18.00000
 -17546607.53546 -12859745.48843  24776288.96400  24776288.61200  24776291.20100
        40.00000        20.00000
 -27010709.62846 -20947992.51443  25507701.36600  25507699.96000  25507703.62300
        41.00000        20.00000
 -44800112.42448 -34854261.26647  21851513.81200  21851513.03000  21851512.78600
        52.00000        44.00000
  -8250424.62946  -6039824.75042  26167748.24700  26167745.05300  26167744.55500
        40.00000        12.00000
 -32215975.21546 -25011246.86342  25984380.80100  25984379.38500  25984380.98700
        39.00000        14.00000
 11 04 10 00 53  0.0000000  0 10G05G21G15G26G18G30G25G29G16G02        .000000000
 -33572185.01248 -26123278.18545  23727473.99700  23727473.14700  23727473.06900
        48.00000        34.00000
 -29246280.83148 -22605512.38945  23744411.75300  23744410.63000  23744409.44800
        49.00000        32.00000
 -16425683.61447 -12689995.08244  24401096.24100  24401096.29000  24401096.94400
        44.00000        28.00000
 -24598702.63347 -18309878.49345  23499076.21000  23499075.36900  23499076.27800
        47.00000        30.00000
 -10673891.97846  -8077818.92943  25479689.50700  25479688.30600  25479688.48200
        41.00000        18.00000
 -17596054.24046 -12898275.40943  24766880.47200  24766879.35900  24766881.30300
        41.00000        20.00000
 -26946740.23247 -20898146.27643  25519875.45100  25519874.02400  25519876.59300
        42.00000        18.00000
 -44813804.55548 -34864930.48647  21848908.20600  21848907.42500  21848907.17100
        52.00000        44.00000
  -8339897.68646  -6109544.04542  26150721.35500  26150719.44000  26150718.33600
        40.00000        12.00000
 -32163572.13446 -24970413.46142  25994353.86700  25994351.97200  25994352.99800
        40.00000        14.00000
 11 04 10 00 53 30.0000000  0 10G05G21G15G26G18G30G25G29G16G02        .000000000
 -33524533.68548 -26086147.33545  23736541.24900  23736540.28200  23736540.31100
        48.00000        34.00000
 -29344106.07848 -22681739.87845  23725796.07800  23725794.95400  23725793.99700
        49.00000        34.00000
 -16554210.27447 -12790145.72644  24376639.44800  24376638.26600  24376639.09600
        45.00000        28.00000
 -24692536.32647 -18382995.67745  23481220.29100  23481219.37300  23481220.52600
        47.00000        30.00000
 -10803855.62146  -8179089.30343  25454957.83100  25454957.04000  25454957.05900
        40.00000        18.00000
 -17644882.71947 -12936323.61543  24757589.94400  24757588.44900  24757589.81700
        42.00000        22.00000
 -26882687.17446 -20848234.85543  25532063.95300  25532063.19100  25532066.17000
        41.00000        18.00000
 -44826982.73548 -34875199.22447  21846400.74400  21846399.74700  21846399.58100
        52.00000        44.00000
  -8428888.76346  -6178887.78942  26133786.07000  26133784.71200  26133784.17500
        39.00000        12.00000
 -32111087.71246 -24929516.66342  26004340.76600  26004340.21900  26004340.83400
        39.00000        14.00000
 11 04 10 00 54  0.0000000  0 10G05G21G15G26G18G30G25G29G16G02        .000000000
 -33476623.76748 -26048814.98845  23745658.51500  23745658.03600  23745658.27100
        48.00000        34.00000
 -29441806.18248 -22757869.84445  23707204.34400  23707203.47500  23707202.10700
        49.00000        34.00000
 -16682474.64347 -12890092.00044  24352230.66600  24352230.59800  24352231.36900
        45.00000        28.00000
 -24785777.02247 -18455650.77345  23463476.60200  23463476.26100  23463477.50100
        46.00000        30.00000
 -10933652.49046  -8280229.73043  25430258.14600  25430257.55000  25430257.72600
        40.00000        18.00000
 -17693088.77747 -12973886.81243  24748416.68600  24748416.19700  24748416.78300
        42.00000        22.00000
 -26818549.39747 -20798257.42943  25544269.83300  25544268.37800  25544271.06400
        42.00000        18.00000
 -44839643.11848 -34885064.49047  21843991.13100  21843990.48600  21843990.43800
        52.00000        44.00000
  -8517392.32046  -6247851.64842  26116944.64000  26116943.13600  26116941.95400
        39.00000        12.00000
 -32058518.15646 -24888553.56242  26014344.22200  26014344.11500  26014345.05200
        37.00000        14.00000
 11 04 10 00 54 30.0000000  0 10G05G21G15G26G18G30G25G29G16G02        .000000000
 -33428462.17948 -26011286.53945  23754823.54800  23754823.08000  23754822.35700
        48.00000        34.00000
 -29539384.96048 -22833905.28045  23688636.18200  23688634.69700  23688633.16400
        49.00000        34.00000
 -16810478.26247 -12989835.09344  24327872.81700  24327872.17200  24327873.15900
        45.00000        28.00000
 -24878426.36547 -18527845.06145  23445846.18800  23445845.37700  23445847.30200
        46.00000        30.00000
 -11063285.99146  -8381242.85243  25405589.64200  25405589.09500  25405589.14400
        40.00000        18.00000
 -17740677.39747 -13010968.89243  24739361.27300  24739360.73600  24739361.14600
        43.00000        22.00000
 -26754334.68746 -20748220.06243  25556488.47100  25556487.97300  25556491.07000
        41.00000        20.00000
 -44851790.41448 -34894529.94647  21841679.81800  21841679.01700  21841678.95900
        52.00000        44.00000
  -8605411.45546  -6316438.03542  26100194.04600  26100193.67500  26100192.48400
        38.00000        12.00000
 -32005868.91646 -24847528.38042  26024364.29400  26024362.41800  26024364.18700
        38.00000        14.00000
 11 04 10 00 55  0.0000000  0 10G05G21G15G26G18G30G25G29G16G02        .000000000
 -33380050.34348 -25973563.09045  23764036.27100  23764035.52900  23764035.27500
        48.00000        34.00000
 -29636841.30448 -22909845.30245  23670090.58500  23670089.54000  23670088.24100
        49.00000        34.00000
 -16938217.14947 -13089371.90145  24303565.37300  24303564.54300  24303565.18700
        46.00000        30.00000
 -24970480.78747 -18599575.77545  23428328.73500  23428327.85600  23428329.66300
        46.00000        30.00000
 -11192753.93346  -8482126.97243  25380953.73500  25380951.97700  25380952.30000
        41.00000        18.00000
 -17787647.66747 -13047569.12243  24730422.31000  24730422.59300  24730422.81800
        42.00000        22.00000
 -26690045.27446 -20698124.48143  25568722.24100  25568721.32200  25568725.24000
        41.00000        20.00000
 -44863423.86548 -34903595.00347  21839465.93500  21839465.29100  21839465.23200
        52.00000        44.00000
  -8692943.72046  -6384645.04042  26083536.85900  26083535.81300  26083535.29600
        37.00000        12.00000
 -31953139.11346 -24806440.42242  26034398.00300  26034396.74300  26034398.15900
        38.00000        14.00000
 11 04 10 00 55 30.0000000  0 10G05G21G15G26G18G30G25G29G16G02        .000000000
 -33331389.74048 -25935645.79445  23773295.83400  23773295.00300  23773294.93500
        48.00000        34.00000
 -29734173.68448 -22985688.73645  23651568.84200  23651567.83600  23651566.54700
        49.00000        34.00000
 -17065687.30047 -13188699.29845  24279308.28500  24279307.85500  24279308.18700
        46.00000        30.00000
 -25061936.46447 -18670839.93245  23410925.56300  23410924.63500  23410925.95400
        46.00000        30.00000
 -11322054.02247  -8582880.30943  25356348.85300  25356347.61300  25356347.29000
        42.00000        20.00000
 -17833998.27947 -13083686.51043  24721602.61900  24721601.74000  24721602.62900
        42.00000        22.00000
 -26625683.11146 -20647972.21443  25580970.00800  25580969.08000  25580972.97800
        41.00000        20.00000
 -44874542.37948 -34912258.81247  21837350.14700  21837349.48300  21837349.39500
        52.00000        44.00000
  -8779986.29746  -6452470.46942  26066972.21700  26066970.91700  26066971.88400
        37.00000        12.00000
 -31900328.38946 -24765289.40742  26044447.74100  26044446.14900  26044447.70200
        38.00000        12.00000
 11 04 10 00 56  0.0000000  0 10G05G21G15G26G18G30G25G29G16G02        .000000000
 -33282487.30348 -25897540.05545  23782601.48300  23782601.19000  23782600.80000
        48.00000        34.00000
 -29831386.48748 -23061438.98845  23633069.86000  23633068.51200  23633067.67200
        49.00000        34.00000
 -17192890.21347 -13287818.46145  24255101.83700  24255101.55300  24255102.82300
        45.00000        30.00000
 -25152795.43447 -18741639.12245  23393635.85200  23393635.10900  23393635.85200
        47.00000        30.00000
 -11451189.76347  -8683505.58843  25331775.20000  25331773.79400  25331773.56900
        42.00000        20.00000
 -17879734.31746 -13119325.01343  24712898.25400  24712899.19200  24712899.24000
        41.00000        22.00000
 -26561256.06346 -20597769.37943  25593230.51300  25593228.68700  25593232.87700
        41.00000        20.00000
 -44885150.64148 -34920525.02147  21835331.75900  21835330.82200  21835330.67500
        52.00000        44.00000
  -8866542.19946  -6519916.67142  26050501.79100  26050500.21800  26050500.76500
        36.00000        12.00000
 -31847441.93146 -24724079.38442  26054512.27900  26054510.38400  26054511.49800
        39.00000        14.00000
 11 04 10 00 56 30.0000000  0 10G05G21G15G26G18G30G25G29G16G02        .000000000
 -33233341.70648 -25859244.83945  23791953.83600  23791953.02500  23791952.72200
        48.00000        34.00000
 -29928475.51748 -23137092.79545  23614594.24400  23614593.11100  23614592.48600
        49.00000        34.00000
 -17319819.70047 -13386724.53645  24230948.48900  24230947.90300  24230948.97800
        45.00000        30.00000
 -25243051.71547 -18811968.70045  23376460.56700  23376459.60900  23376460.62500
        47.00000        30.00000
 -11580156.62747  -8783999.25243  25307233.87100  25307232.18100  25307232.24000
        42.00000        20.00000
 -17924852.49847 -13154482.08543  24704313.57100  24704313.33700  24704313.39500
        42.00000        22.00000
 -26496763.72746 -20547515.67343  25605503.31700  25605501.68600  25605505.33900
        41.00000        20.00000
 -44895245.53748 -34928391.20747  21833410.70400  21833410.05000  21833409.79600
        52.00000        44.00000
  -8952606.61546  -6586979.89342  26034123.73500  26034122.74900  26034123.33500
        37.00000        12.00000
 -31794476.80146 -24682808.07442  26064590.14100  26064589.29100  26064590.73700
        38.00000        14.00000
 11 04 10 00 57  0.0000000  0 10G05G21G15G26G18G30G25G29G16G02        .000000000
 -33183955.03648 -25820761.78445  23801352.15800  23801351.51400  23801351.63100
        48.00000        34.00000
 -30025439.59648 -23212649.23645  23596142.43300  23596141.37800  23596140.67500
        49.00000        34.00000
 -17446471.71047 -13485414.40845  24206847.17800  24206846.38700  24206847.33400
        45.00000        30.00000
 -25332701.93247 -18881826.02045  23359401.22300  23359400.03100  23359400.91100
        47.00000        30.00000
 -11708952.73547  -8884359.87943  25282723.75200  25282723.27400  25282723.10800
        42.00000        20.00000
 -17969352.26547 -13189157.26843  24695845.86500  24695845.62100  24695845.24000
        43.00000        22.00000
 -26432208.57246 -20497213.02243  25617787.72600  25617785.97700  25617789.87500
        41.00000        20.00000
 -44904826.10748 -34935856.61847  21831587.69400  21831586.94200  21831586.73700
        52.00000        44.00000
  -9038177.49346  -6653658.53042  26017840.90200  26017839.80800  26017839.47600
        37.00000        12.00000
 -31741432.78146 -24641475.25542  26074685.16600  26074683.23200  26074684.76600
        39.00000        14.00000
 11 04 10 00 57 30.0000000  0 10G05G21G15G26G18G30G25G29G16G02        .000000000
 -33134329.44847 -25782092.55045  23810795.43500  23810794.18500  23810793.64800
        47.00000        32.00000
 -30122278.19648 -23288107.90845  23577714.95600  23577713.52000  23577713.18800
        49.00000        34.00000
 -17572843.50147 -13583885.91945  24182798.52900  24182798.48900  24182799.60300
        44.00000        30.00000
 -25421743.22847 -18951208.84345  23342456.74600  23342456.00400  23342457.00000
        47.00000        30.00000
 -11837576.70447  -8984586.38443  25258247.54900  25258246.66000  25258246.20100
        42.00000        20.00000
 -18013233.57247 -13223350.54343  24687495.65400  24687495.43900  24687495.11700
        43.00000        22.00000
 -26367593.50046 -20446863.67743  25630082.66500  25630082.38200  25630085.66400
        41.00000        20.00000
 -44913892.31248 -34942921.22047  21829862.21200  21829861.64600  21829861.49900
        52.00000        44.00000
  -9123253.08946  -6719951.26042  26001651.23000  26001651.00500  26001650.72200
        37.00000        14.00000
 -31688310.29546 -24600081.29442  26084794.40400  26084792.84100  26084793.25200
        39.00000        14.00000
 11 04 10 00 58  0.0000000  0 10G05G21G15G26G18G30G25G29G16G02        .000000000
 -33084466.50347 -25743238.36145  23820283.62700  23820283.37300  23820283.75400
        47.00000        32.00000
 -30218990.12448 -23363467.86845  23559311.51800  23559310.07300  23559308.95900
        49.00000        34.00000
 -17698931.35547 -13682136.18644  24158805.77400  24158804.71900  24158806.27200
        44.00000        28.00000
 -25510172.51347 -19020114.76445  23325629.56900  23325628.45500  23325629.64700
        47.00000        30.00000
 -11966026.90747  -9084677.46843  25233805.09600  25233803.39600  25233803.60100
        42.00000        20.00000
 -18056496.19247 -13257061.72844  24679263.56200  24679263.09300  24679262.34100
        43.00000        24.00000
 -26302920.92846 -20396469.54343  25642390.32200  25642389.16000  25642392.14900
        41.00000        20.00000
 -44922444.03248 -34949584.93247  21828235.12800  21828234.31700  21828234.21900
        52.00000        44.00000
  -9207831.36946  -6785856.45342  25985558.25600  25985556.59500  25985556.21400
        39.00000        12.00000
 -31635109.23246 -24558626.08442  26094916.13600  26094916.81000  26094917.06400
        37.00000        12.00000
 11 04 10 00 58 30.0000000  0 10G05G21G15G26G18G30G25G29G16G02        .000000000
 -33034369.46847 -25704201.77345  23829816.74400  23829816.38300  23829815.68900
        47.00000        32.00000
 -30315575.76348 -23438729.42545  23540931.20300  23540930.16700  23540929.63000
        49.00000        34.00000
 -17824733.11447 -13780163.51345  24134866.42300  24134865.69000  24134866.73500
        45.00000        30.00000
 -25597987.84147 -19088542.28545  23308918.75200  23308917.56000  23308919.10400
        47.00000        30.00000
 -12094303.21047  -9184633.04543  25209394.74200  25209393.23700  25209393.18900
        42.00000        20.00000
 -18099141.25647 -13290291.69243  24671148.19300  24671147.48000  24671147.42100
        43.00000        22.00000
 -26238194.93246 -20346033.77043  25654706.86900  25654706.12700  25654709.15500
        41.00000        20.00000
 -44930482.36748 -34955848.60547  21826705.88300  21826704.84800  21826704.60400
        52.00000        44.00000
  -9291911.42446  -6851373.43842  25969557.90500  25969557.34800  25969556.53800
        39.00000        14.00000
 -31581831.23146 -24517110.92942  26105055.14800  26105054.99200  26105056.06700
        37.00000        12.00000
 11 04 10 00 59  0.0000000  0 10G05G21G15G26G18G30G25G29G16G02        .000000000
 -32984040.30247 -25664984.30745  23839394.14100  23839393.83800  23839393.86800
        47.00000        32.00000
 -30412034.77848 -23513892.31245  23522576.14800  23522574.70200  23522574.05800
        49.00000        34.00000
 -17950245.49947 -13877965.36845  24110981.83400  24110981.41400  24110982.43000
        45.00000        30.00000
 -25685186.84547 -19156489.55845  23292324.93200  23292324.08200  23292325.35200
        47.00000        30.00000
 -12222403.75547  -9284451.67143  25185018.09800  25185016.84800  25185016.72100
        42.00000        20.00000
 -18141168.60747 -13323040.32843  24663151.51000  24663150.06400  24663149.01900
        43.00000        22.00000
 -26173418.23646 -20295558.48143  25667033.69200  25667032.73500  25667035.66600
        40.00000        18.00000
 -44938007.05448 -34961712.02647  21825273.76600  21825272.97500  21825272.76000
        52.00000        44.00000
  -9375492.05846  -6916501.25042  25953654.07700  25953653.34400  25953651.80100
        40.00000        14.00000
 -31528475.70846 -24475535.42142  26115210.88400  26115208.33500  26115210.08300
        39.00000        14.00000
 11 04 10 00 59 30.0000000  0 10G05G21G15G26G18G30G25G29G16G02        .000000000
 -32933482.68747 -25625588.83045  23849015.48600  23849014.73400  23849014.86100
        47.00000        32.00000
 -30508367.14848 -23588956.51345  23504244.57700  23504243.30700  23504242.75000
        49.00000        34.00000
 -18075466.65847 -13975540.29645  24087153.92100  24087153.17800  24087154.09700
        47.00000        30.00000
 -25771767.91047 -19223955.31645  23275848.68400  23275847.90300  23275849.66100
        46.00000        30.00000
 -12350328.60747  -9384133.39443  25160674.83400  25160673.50500  25160673.57300
        42.00000        20.00000
 -18182579.65247 -13355308.71743  24655270.46500  24655269.45000  24655268.78500
        42.00000        22.00000
 -26108595.04146 -20245047.00043  25679369.29700  25679367.70500  25679371.66100
        40.00000        20.00000
 -44945019.41948 -34967176.23947  21823939.19700  21823938.50300  21823938.23000
        52.00000        44.00000
  -9458572.73146  -6981239.48142  25937845.05000  25937843.69200  25937842.14900
        41.00000        14.00000
 -31475044.97146 -24433901.28542  26125376.91600  26125376.72000  26125378.30300
        39.00000        14.00000
 11 04 10 01 00  0.0000000  0 10G05G21G15G26G18G30G25G29G16G02        .000000000
 -32882696.93847 -25586015.57845  23858679.61700  23858679.27500  23858678.68900
        47.00000        32.00000
 -30604570.57848 -23663920.23845  23485937.88600  23485936.41100  23485935.70700
        49.00000        34.00000
 -18200392.07647 -14072884.77845  24063381.65900  24063380.56400  24063380.98500
        46.00000        30.00000
 -25857726.61447 -19290936.10945  23259492.00200  23259490.80000  23259492.41200
        47.00000        30.00000
 -12478074.96347  -9483676.02443  25136365.31900  25136364.07800  25136364.46900
        42.00000        20.00000
 -18223373.11147 -13387095.87843  24647506.85700  24647506.39800  24647505.84100
        42.00000        20.00000
 -26043726.61446 -20194500.25643  25691713.30300  25691711.83800  25691715.83300
        41.00000        20.00000
 -44951517.89448 -34972240.01647  21822702.92600  21822702.16400  21822701.71500
        52.00000        44.00000
  -9541150.20446  -7045585.61442  25922131.07100  25922130.26000  25922128.10100
        41.00000        16.00000
 -31421537.79646 -24392207.60942  26135559.76900  26135558.80100  26135561.35100
        39.00000        14.00000
 11 04 10 01 00 30.0000000  0 10G05G21G15G26G18G30G25G29G16G02        .000000000
 -32831687.17147 -25546267.76845  23868386.63100  23868386.03500  23868386.49400
        47.00000        32.00000
 -30700646.30148 -23738784.45645  23467655.53700  23467654.14100  23467653.29100
        49.00000        34.00000
 -18325020.21547 -14169997.62045  24039665.49600  24039664.95900  24039665.23200
        47.00000        30.00000
 -25943062.30947 -19357431.44645  23243252.91200  23243252.01300  23243253.24400
        47.00000        30.00000
 -12605643.43847  -9583080.04143  25112090.11000  25112088.43000  25112088.76200
        42.00000        20.00000
 -18263550.83647 -13418403.24043  24639861.49500  24639860.24400  24639859.85300
        42.00000        20.00000
 -25978817.60546 -20143921.87143  25704064.71300  25704063.64800  25704067.54600
        41.00000        20.00000
 -44957504.28448 -34976904.76047  21821563.50000  21821562.97300  21821562.67000
        52.00000        44.00000
  -9623224.89246  -7109539.95142  25906511.43400  25906512.06900  25906509.80300
        40.00000        16.00000
 -31367955.94146 -24350455.66442  26145756.45300  26145755.47700  26145757.61600
        38.00000        12.00000
 11 04 10 01 01  0.0000000  0 10G05G21G15G26G18G30G25G29G16G02        .000000000
 -32780456.86647 -25506348.12745  23878135.56200  23878134.83900  23878133.97900
        47.00000        32.00000
 -30796595.07748 -23813549.75445  23449396.95600  23449395.71500  23449394.95300
        50.00000        34.00000
 -18449349.19647 -14266877.36445  24016006.26400  24016005.62900  24016006.05900
        46.00000        30.00000
 -26027773.53047 -19423440.19745  23227132.37100  23227132.00900  23227133.17200
        47.00000        30.00000
 -12733033.68447  -9682345.18443  25087848.73000  25087846.92300  25087847.20600
        43.00000        20.00000
 -18303114.14446 -13449231.84143  24632332.44500  24632331.61500  24632331.48800
        41.00000        20.00000
 -25913872.21947 -20093315.14643  25716424.65100  25716422.86400  25716426.45800
        42.00000        20.00000
 -44962979.79148 -34981171.41747  21820521.61100  21820520.97600  21820520.76200
        52.00000        44.00000
  -9704796.41446  -7173102.22142  25890990.01900  25890989.10100  25890987.28400
        40.00000        14.00000
 -31314300.90546 -24308646.72942  26155966.34500  26155965.80800  26155968.11300
        39.00000        14.00000
 11 04 10 01 01 30.0000000  0 10G05G21G15G26G18G30G25G29G16G02        .000000000
 -32729006.25947 -25466256.80345  23887926.17400  23887925.75400  23887925.47000
        47.00000        32.00000
 -30892414.56648 -23888214.30745  23431163.26400  23431161.94500  23431160.86100
        50.00000        34.00000
 -18573373.58447 -14363519.74545  23992405.03700  23992404.29500  23992405.34000
        46.00000        30.00000
 -26111855.91547 -19488958.93345  23211132.26500  23211131.18000  23211133.07500
        47.00000        30.00000
 -12860242.57647  -9781469.02843  25063641.29500  25063640.02500  25063639.79100
        42.00000        20.00000
 -18342061.75846 -13479580.67543  24624921.31000  24624920.02000  24624920.30300
        41.00000        22.00000
 -25848891.46646 -20042680.87243  25728790.41100  25728788.65300  25728792.07200
        41.00000        20.00000
 -44967942.96648 -34985038.85947  21819577.29900  21819576.52800  21819576.37100
        52.00000        44.00000
  -9785861.49746  -7236269.83542  25875563.51400  25875562.47800  25875561.34500
        40.00000        14.00000
 -31260571.48446 -24266779.82942  26166191.26100  26166190.11800  26166192.79400
        39.00000        14.00000
 11 04 10 01 02  0.0000000  0 10G05G21G15G26G18G30G25G29G16G02        .000000000
 -32677334.95647 -25425993.51545  23897759.31700  23897758.12600  23897758.20400
        47.00000        32.00000
 -30988101.42648 -23962775.51245  23412954.79400  23412953.51400  23412952.44000
        50.00000        34.00000
 -18697088.67347 -14459921.11545  23968862.57700  23968862.30300  23968862.77200
        46.00000        30.00000
 -26195304.82647 -19553984.04145  23195252.60300  23195251.44000  23195253.35500
        47.00000        32.00000
 -12987266.85647  -9880449.00143  25039469.53400  25039468.10800  25039467.65800
        43.00000        20.00000
 -18380391.56246 -13509448.10043  24617626.18400  24617625.75400  24617626.54500
        40.00000        20.00000
 -25783876.03646 -19992019.57343  25741161.65100  25741160.71300  25741163.75100
        41.00000        18.00000
 -44972391.67548 -34988505.41947  21818730.59300  21818729.88000  21818729.79200
        52.00000        44.00000
  -9866416.47946  -7299040.01842  25860233.50100  25860233.14000  25860232.08500
        39.00000        14.00000
 -31206765.74746 -24224853.45542  26176429.56900  26176429.15900  26176431.51300
        39.00000        14.00000
 11 04 10 01 02 30.0000000  0 10G05G21G15G26G18G30G25G29G16G02        .000000000
 -32625445.18847 -25385560.00045  23907632.72700  23907632.00400  23907632.52100
        47.00000        32.00000
 -31083655.01748 -24037232.87345  23394771.76100  23394770.26700  23394769.21200
        50.00000        34.00000
 -18820491.24247 -14556078.95645  23945380.64100  23945379.30300  23945380.61200
        46.00000        30.00000
 -26278117.38047 -19618513.29845  23179493.65900  23179492.89700  23179494.46000
        47.00000        30.00000
 -13114105.49847  -9979284.33343  25015332.83200  25015331.81600  25015331.21000
        43.00000        20.00000
 -18418103.79446 -13538834.28443  24610449.75400  24610448.73800  24610450.21300
        40.00000        20.00000
 -25718828.67346 -19941333.38643  25753540.49100  25753538.87000  25753542.10300
        41.00000        18.00000
 -44976326.00348 -34991571.15947  21817981.78600  21817981.17100  21817981.11200
        52.00000        44.00000
  -9946459.47746  -7361411.23242  25845002.81300  25845001.02600  25845000.24400
        40.00000        14.00000
 -31152883.87846 -24182867.77342  26186683.74100  26186682.20700  26186684.46400
        39.00000        14.00000
 11 04 10 01 03  0.0000000  0 10G05G21G15G26G18G30G25G29G16G02        .000000000
 -32573341.31947 -25344959.65845  23917547.74900  23917547.87600  23917548.18900
        46.00000        32.00000
 -31179076.71348 -24111587.46245  23376613.02200  23376611.75200  23376611.07800
        49.00000        34.00000
 -18943579.93747 -14651992.21845  23921956.92600  23921956.66200  23921956.75000
        46.00000        30.00000
 -26360293.41448 -19682546.56945  23163856.61500  23163855.78500  23163856.98700
        48.00000        32.00000
 -13240758.74347 -10077975.17443  24991231.24700  24991230.15300  24991230.10400
        43.00000        20.00000
 -18455200.94946 -13567741.18643  24603390.89700  24603389.26600  24603390.95600
        40.00000        20.00000
 -25653754.33046 -19890626.19343  25765923.90300  25765922.11500  25765925.42600
        41.00000        18.00000
 -44979747.95948 -34994237.64347  21817330.71200  21817329.97900  21817329.88200
        52.00000        44.00000
 -10025991.47446  -7423384.25742  25829867.48500  25829865.99000  25829865.28700
        39.00000        14.00000
 -31098928.33446 -24140824.68642  26196951.16800  26196950.36700  26196951.76400
        38.00000        14.00000
 11 04 10 01 03 30.0000000  0 10G05G21G15G26G18G30G25G29G16G02        .000000000
 -32521024.83047 -25304193.64145  23927503.46700  23927502.95900  23927503.21300
        46.00000        32.00000
 -31274364.85448 -24185837.97745  23358480.09200  23358479.16400  23358478.47000
        49.00000        34.00000
 -19066350.93447 -14747657.92445  23898594.20400  23898594.03800  23898594.56500
        46.00000        32.00000
 -26441829.40448 -19746081.11845  23148341.36400  23148340.21200  23148341.24700
        48.00000        32.00000
 -13367224.77347 -10176520.16243  24967165.37600  24967164.22300  24967164.13500
        42.00000        20.00000
 -18491682.57246 -13596168.46243  24596448.44000  24596446.72100  24596448.76300
        40.00000        20.00000
 -25588655.22646 -19839899.69443  25778311.48500  25778309.90300  25778313.25300
        41.00000        18.00000
 -44982657.24248 -34996504.64947  21816777.13600  21816776.36500  21816776.34500
        52.00000        44.00000
 -10105010.20046  -7484957.30242  25814830.57300  25814828.76600  25814829.03900
        39.00000        12.00000
 -31044898.63646 -24098723.78542  26207232.79900  26207231.66600  26207233.28800
        37.00000        12.00000
 11 04 10 01 04  0.0000000  0 10G05G21G15G26G18G30G25G29G16G02        .000000000
 -32468498.69447 -25263264.25045  23937499.02000  23937498.66900  23937499.40100
        46.00000        32.00000
 -31369520.27848 -24259985.07445  23340372.91000  23340371.52300  23340370.84000
        49.00000        34.00000
 -19188802.30747 -14843074.56945  23875293.24800  23875292.65200  23875292.53500
        47.00000        32.00000
 -26522724.37847 -19809116.17945  23132946.87000  23132946.42100  23132947.19300
        47.00000        30.00000
 -13493503.60947 -10274919.26043  24943136.08700  24943134.06500  24943134.28000
        43.00000        22.00000
 -18527550.30746 -13624117.38443  24589623.00900  24589621.11400  24589622.88200
        40.00000        18.00000
 -25523535.19646 -19789156.88243  25790703.34600  25790702.13500  25790705.54400
        41.00000        18.00000
 -44985054.96248 -34998373.03347  21816320.69800  21816320.12100  21816320.09200
        52.00000        42.00000
 -10183515.33246  -7546130.19242  25799890.62300  25799889.47000  25799889.87000
        39.00000        14.00000
 -30990796.24046 -24056566.27341  26217528.76100  26217527.57900  26217528.34100
        36.00000        10.00000
 11 04 10 01 04 30.0000000  0 10G05G21G15G26G18G30G25G29G16G02        .000000000
 -32415767.96147 -25222175.45245  23947533.55900  23947533.02200  23947533.03200
        47.00000        32.00000
 -31464544.94748 -24334030.28245  23322290.21900  23322289.26100  23322288.25500
        50.00000        34.00000
 -19310934.10647 -14938242.19745  23852052.27900  23852051.43900  23852052.14300
        47.00000        32.00000
 -26602978.42847 -19871651.81945  23117675.00900  23117674.43200  23117675.76100
        47.00000        32.00000
 -13619596.62447 -10373173.56743  24919140.93900  24919139.58200  24919139.84500
        42.00000        22.00000
 -18562807.48046 -13651590.55743  24582914.58400  24582912.48400  24582913.23600
        41.00000        20.00000
 -25458399.90246 -19738402.18943  25803098.08900  25803097.09300  25803100.45300
        40.00000        18.00000
 -44986944.21648 -34999845.20847  21815961.58200  21815960.59500  21815960.42900
        52.00000        44.00000
 -10261508.27246  -7606903.96042  25785050.08500  25785048.32700  25785048.61000
        39.00000        14.00000
 -30936624.31146 -24014354.57941  26227836.54200  26227835.45700  26227837.71400
        36.00000        10.00000
 11 04 10 01 05  0.0000000  0 10G05G21G15G26G18G30G25G29G16G02        .000000000
 -32362830.99347 -25180925.93445  23957607.29900  23957606.50800  23957606.98600
        46.00000        32.00000
 -31559434.43548 -24407970.15746  23304233.65700  23304232.30000  23304231.51800
        50.00000        36.00000
 -19432739.44248 -15033155.45245  23828874.00500  23828872.83300  23828872.72500
        48.00000        32.00000
 -26682585.52547 -19933683.32345  23102526.21000  23102525.53600  23102526.77600
        47.00000        32.00000
 -13745498.75847 -10471279.13943  24895182.41300  24895181.20200  24895181.29900
        42.00000        20.00000
 -18597450.81646 -13678585.40443  24576321.93400  24576320.91800  24576320.78100
        41.00000        20.00000
 -25393248.66446 -19687635.08443  25815496.43700  25815494.98100  25815498.42000
        40.00000        18.00000
 -44988321.82648 -35000918.70147  21815699.19200  21815698.53800  21815698.54800
        52.00000        42.00000
 -10338984.11046  -7667274.79342  25770307.88600  25770305.25900  25770304.97500
        39.00000        14.00000
 -30882379.67045 -23972086.18642  26238158.58400  26238158.73100  26238160.58700
        35.00000        12.00000
 11 04 10 01 05 30.0000000  0 10G05G21G15G26G18G30G25G29G16G02        .000000000
 -32309691.63447 -25139518.72545  23967719.63400  23967718.67600  23967719.08700
        47.00000        32.00000
 -31654189.53348 -24481805.31345  23286202.28900  23286201.15600  23286199.89600
        50.00000        34.00000
 -19554216.63247 -15127813.01145  23805756.53900  23805756.26500  23805756.87100
        47.00000        32.00000
 -26761545.08047 -19995210.24445  23087501.13700  23087500.31700  23087501.33200
        47.00000        32.00000
 -13871210.63747 -10569236.46043  24871260.73300  24871259.37500  24871259.62900
        43.00000        22.00000
 -18631482.26547 -13705103.45443  24569846.48500  24569845.62500  24569844.97100
        42.00000        20.00000
 -25328085.89846 -19636858.98642  25827895.96600  25827895.01800  25827898.80900
        40.00000        16.00000
 -44989189.55448 -35001594.87347  21815534.14500  21815533.45200  21815533.42200
        52.00000        42.00000
 -10415943.40446  -7727243.11142  25755661.69100  25755660.43100  25755660.70500
        39.00000        14.00000
 -30828064.42046 -23929762.80842  26248495.18200  26248494.21500  26248496.89200
        36.00000        12.00000
 11 04 10 01 06  0.0000000  0 10G05G21G15G26G18G30G25G29G16G02        .000000000
 -32256350.47847 -25097954.26545  23977869.76200  23977869.49900  23977869.37200
        46.00000        30.00000
 -31748808.02748 -24555534.02746  23268197.15800  23268195.76100  23268194.71600
        50.00000        36.00000
 -19675361.13347 -15222211.32645  23782703.52400  23782703.16300  23782703.88600
        46.00000        32.00000
 -26839853.23947 -20056229.58745  23072599.42000  23072598.43300  23072599.93800
        47.00000        32.00000
 -13996729.84747 -10667043.65643  24847374.54200  24847373.53600  24847373.90700
        43.00000        22.00000
 -18664900.91946 -13731143.98543  24563487.37800  24563486.53800  24563486.38200
        41.00000        20.00000
 -25262912.98846 -19586074.96543  25840299.11900  25840297.18500  25840300.37000
        41.00000        18.00000
 -44989546.15648 -35001872.77447  21815466.32300  21815465.44400  21815465.45400
        52.00000        44.00000
 -10492383.03946  -7786806.48942  25741116.43300  25741114.90000  25741115.58300
        39.00000        14.00000
 -30773677.00346 -23887383.17842  26258845.18200  26258843.68800  26258847.23400
        37.00000        14.00000
 11 04 10 01 06 30.0000000  0 10G05G21G15G26G18G30G25G29G16G02        .000000000
 -32202810.37247 -25056234.77645  23988058.66200  23988057.72400  23988057.34300
        46.00000        30.00000
 -31843289.23748 -24629155.76646  23250217.83600  23250216.55600  23250215.42300
        50.00000        36.00000
 -19796170.78147 -15316348.71045  23759714.47300  23759713.72100  23759714.66900
        46.00000        32.00000
 -26917508.30748 -20116740.03345  23057822.82700  23057821.60600  23057822.54300
        48.00000        32.00000
 -14122055.13747 -10764699.74243  24823526.82900  24823525.71500  24823525.49000
        43.00000        22.00000
 -18697707.85946 -13756707.88443  24557243.73400  24557243.20600  24557243.73400
        41.00000        20.00000
 -25197733.34246 -19535285.71443  25852701.77500  25852700.62200  25852703.30800
        41.00000        18.00000
 -44989392.63948 -35001753.18947  21815495.28700  21815494.68100  21815494.84700
        51.00000        42.00000
 -10568302.05446  -7845964.21042  25726669.43600  25726668.43000  25726669.29900
        39.00000        16.00000
 -30719218.44346 -23844948.09742  26269207.46100  26269206.48400  26269210.44100
        37.00000        14.00000
 11 04 10 01 07  0.0000000  0 10G05G21G15G26G18G30G25G29G16G02        .000000000
 -32149074.42947 -25014362.68845  23998283.47000  23998282.89400  23998283.70400
        46.00000        30.00000
 -31937634.42248 -24702671.50546  23232264.63400  23232263.30500  23232261.88900
        50.00000        36.00000
 -19916643.33447 -15410223.42245  23736788.62400  23736788.40000  23736789.48400
        45.00000        32.00000
 -26994509.05848 -20176740.62545  23043169.82300  23043168.73900  23043169.70600
        48.00000        32.00000
 -14247186.61847 -10862204.80943  24799714.81900  24799713.47100  24799713.80300
        43.00000        22.00000
 -18729904.98546 -13781796.60443  24551116.33300  24551116.28400  24551117.06600
        41.00000        20.00000
 -25132550.84146 -19484494.20943  25865105.08400  25865103.97100  25865107.71200
        40.00000        18.00000
 -44988730.23148 -35001237.06547  21815621.75800  21815620.92800  21815620.97700
        52.00000        42.00000
 -10643700.41046  -7904716.24142  25712321.62700  25712321.07000  25712321.60700
        39.00000        16.00000
 -30664690.24146 -23802458.79142  26279584.01200  26279583.27900  26279586.98100
        36.00000        12.00000
 11 04 10 01 07 30.0000000  0 10G05G21G15G26G18G30G25G29G16G02        .000000000
 -32095147.40547 -24972341.71145  24008545.79900  24008545.59300  24008545.40800
        46.00000        30.00000
 -32031845.34948 -24776082.63845  23214336.28300  23214335.51100  23214334.24100
        49.00000        34.00000
 -20036778.73747 -15503835.41045  23713928.61400  23713927.90100  23713928.60400
        46.00000        32.00000
 -27070856.20748 -20236231.91745  23028641.47400  23028640.35100  23028641.31800
        48.00000        32.00000
 -14372126.08147 -10959560.25043  24775939.77200  24775938.27800  24775938.58100
        43.00000        22.00000
 -18761495.60247 -13806412.73543  24545106.69100  24545105.69500  24545105.69500
        43.00000        22.00000
 -25067371.31546 -19433705.04842  25877508.82400  25877506.99700  25877511.58900
        40.00000        16.00000
 -44987562.51348 -35000327.18747  21815843.95000  21815843.19800  21815843.19800
        52.00000        42.00000
 -10718580.20246  -7963064.15742  25698072.68300  25698072.05800  25698072.82000
        40.00000        16.00000
 -30610095.67246 -23759917.73842  26289972.40200  26289971.36600  26289976.17200
        36.00000        12.00000
 11 04 10 01 08  0.0000000  0 10G05G21G15G26G18G30G25G29G16G02        .000000000
 -32041028.14447 -24930170.94745  24018844.45600  24018843.83100  24018844.43600
        46.00000        30.00000
 -32125918.41248 -24849386.34746  23196435.04900  23196434.28700  23196432.50900
        50.00000        36.00000
 -20156570.55447 -15597179.67545  23691133.13400  23691132.14700  23691133.11500
        47.00000        32.00000
 -27146544.00848 -20295209.44045  23014238.06300  23014236.95000  23014238.46400
        48.00000        32.00000
 -14496868.83547 -11056762.41443  24752201.43600  24752200.20500  24752200.73300
        43.00000        22.00000
 -18792476.83947 -13830553.99643  24539210.76300  24539210.87100  24539210.35300
        42.00000        22.00000
 -25002194.07946 -19382917.66742  25889910.87400  25889909.78900  25889914.10700
        39.00000        16.00000
 -44985885.94148 -34999020.80647  21816162.75200  21816162.14700  21816162.40000
        51.00000        42.00000
 -10792936.41346  -8021004.12942  25683923.50500  25683922.15700  25683922.80200
        40.00000        14.00000
 -30555431.83746 -23717322.66041  26300375.01400  26300373.84200  26300377.98400
        36.00000        10.00000
 11 04 10 01 08 30.0000000  0 10G05G21G15G26G18G30G25G29G16G02        .000000000
 -31986718.90447 -24887852.14745  24029179.36400  24029178.38700  24029179.08000
        46.00000        30.00000
 -32219852.29248 -24922581.59946  23178560.39500  23178559.10600  23178557.55300
        50.00000        36.00000
 -20276016.08147 -15690254.10345  23668403.06300  23668402.50600  23668403.17100
        47.00000        32.00000
 -27221570.65147 -20353671.76045  22999960.86000  22999959.91300  22999961.54400
        47.00000        32.00000
 -14621414.34747 -11153810.88143  24728501.47000  24728499.94600  24728500.17000
        43.00000        22.00000
 -18822849.95547 -13854221.39943  24533430.76600  24533430.82500  24533430.91300
        42.00000        22.00000
 -24937022.20846 -19332134.49842  25902313.41200  25902311.48700  25902316.31300
        39.00000        16.00000
 -44983701.57448 -34997318.73047  21816578.69100  21816577.89000  21816577.99700
        51.00000        42.00000
 -10866768.10246  -8078535.34542  25669873.75900  25669872.92900  25669873.57400
        40.00000        16.00000
 -30500699.00146 -23674673.78842  26310791.02900  26310789.25100  26310793.21700
        38.00000        12.00000
 11 04 10 01 09  0.0000000  0 10G05G21G15G26G18G30G25G29G16G02        .000000000
 -31932221.08747 -24845386.39745  24039549.84800  24039549.36900  24039549.48700
        46.00000        30.00000
 -32313645.68848 -24995667.38246  23160711.88200  23160710.84600  23160709.41000
        50.00000        36.00000
 -20395111.54748 -15783055.75545  23645740.13100  23645739.63300  23645740.15000
        48.00000        34.00000
 -27295933.28347 -20411616.66645  22985809.49400  22985808.77100  22985810.62700
        47.00000        32.00000
 -14745760.46447 -11250703.98243  24704839.16100  24704838.03700  24704837.87100
        43.00000        22.00000
 -18852614.68347 -13877414.72443  24527766.39800  24527766.36900  24527767.05300
        42.00000        22.00000
 -24871857.88246 -19281357.17942  25914714.42600  25914712.06200  25914716.58500
        40.00000        16.00000
 -44981008.91548 -34995220.59047  21817090.96600  21817090.27200  21817090.30200
        51.00000        42.00000
 -10940073.36746  -8135656.35442  25655923.64200  25655923.35800  25655923.86600
        39.00000        16.00000
 -30445897.07646 -23631971.08442  26321220.65200  26321218.01400  26321221.80400
        39.00000        12.00000
 11 04 10 01 09 30.0000000  0 10G05G21G15G26G18G30G25G29G16G02        .000000000
 -31877537.76047 -24802776.09245  24049955.97700  24049955.25500  24049956.28000
        46.00000        30.00000
 -32407298.77848 -25068643.84146  23142890.41700  23142889.26400  23142887.85700
        50.00000        36.00000
 -20513855.13148 -15875583.22745  23623143.86800  23623143.56500  23623143.58400
        48.00000        34.00000
 -27369630.77547 -20469043.26645  22971785.79100  22971784.72600  22971786.35700
        47.00000        32.00000
 -14869906.68447 -11347441.31343  24681214.77200  24681213.72700  24681213.35600
        43.00000        22.00000
 -18881772.76547 -13900135.34843  24522219.25100  24522218.39200  24522218.38200
        43.00000        22.00000
 -24806704.90046 -19230588.68542  25927112.18700  25927110.61400  25927114.68800
        40.00000        16.00000
 -44977809.29248 -34992727.41347  21817699.98700  21817698.96100  21817699.16700
        51.00000        42.00000
 -11012852.08946  -8192367.07242  25642074.49000  25642073.99200  25642074.45100
        40.00000        16.00000
 -30391027.29646 -23589215.48642  26331661.37100  26331660.09100  26331662.79700
        38.00000        12.00000
 11 04 10 01 10  0.0000000  0 10G05G21G15G26G18G30G25G29G16G02        .000000000
 -31822670.23347 -24760022.25445  24060396.92100  24060396.58900  24060396.27700
        46.00000        30.00000
 -32500809.99148 -25141509.73846  23125096.05900  23125094.59400  23125093.53900
        50.00000        36.00000
 -20632242.56948 -15967833.18345  23600615.80800  23600614.70400  23600615.17300
        48.00000        34.00000
 -27442659.83847 -20525949.02845  22957888.81300  22957888.01200  22957889.39900
        47.00000        32.00000
 -14993850.92347 -11444021.26743  24657628.93100  24657627.81700  24657627.63100
        43.00000        22.00000
 -18910323.67547 -13922382.86243  24516786.52200  24516785.70100  24516785.51600
        43.00000        22.00000
 -24741564.98346 -19179830.38942  25939508.66900  25939506.75400  25939510.37800
        40.00000        16.00000
 -44974102.21448 -34989838.81447  21818405.28600  21818404.60200  21818404.91400
        51.00000        42.00000
 -11085102.01546  -8248665.77542  25628326.54900  25628325.35800  25628325.65100
        40.00000        16.00000
 -30336088.97346 -23546406.48942  26342115.38500  26342114.16400  26342116.90900
        37.00000        12.00000
 11 04 10 01 10 30.0000000  0 10G05G21G15G26G18G30G25G29G16G02        .000000000
 -31767622.08647 -24717127.67445  24070871.94700  24070871.53700  24070872.73800
        45.00000        30.00000
 -32594180.25648 -25214265.80646  23107328.20300  23107327.00100  23107325.82900
        50.00000        36.00000
 -20750272.44648 -16059804.50645  23578155.21800  23578154.50500  23578154.83700
        48.00000        32.00000
 -27515020.30548 -20582333.80745  22944119.56700  22944118.35600  22944119.75300
        48.00000        32.00000
 -15117594.02247 -11540444.48643  24634081.74200  24634080.26700  24634079.50500
        44.00000        22.00000
 -18938270.10847 -13944159.35943  24511468.25800  24511467.74000  24511467.46700
        43.00000        22.00000
 -24676442.66046 -19129085.80442  25951899.60200  25951899.10400  25951902.83500
        39.00000        14.00000
 -44969889.98548 -34986556.59047  21819206.95900  21819206.21700  21819206.49100
        51.00000        42.00000
 -11156823.70346  -8304552.83842  25614678.54900  25614677.25000  25614677.40600
        40.00000        16.00000
 -30281084.26146 -23503545.73141  26352583.55300  26352582.14700  26352585.13600
        38.00000        10.00000
 11 04 10 01 11  0.0000000  0 10G05G21G15G26G18G30G25G29G16G02        .000000000
 -31712394.39147 -24674093.18745  24081381.64100  24081381.52400  24081381.59200
        45.00000        30.00000
 -32687408.31748 -25286911.06646  23089587.65900  23089586.25300  23089585.20800
        50.00000        36.00000
 -20867941.09147 -16151494.35545  23555763.39800  23555762.59700  23555763.20300
        47.00000        32.00000
 -27586708.99748 -20638195.13345  22930477.78900  22930477.13500  22930477.45700
        48.00000        32.00000
 -15241134.44047 -11636709.77143  24610572.95300  24610571.73200  24610570.97000
        44.00000        22.00000
 -18965611.91147 -13965464.71443  24506266.56100  24506265.25200  24506264.69500
        44.00000        22.00000
 -24611339.83946 -19078356.41442  25964287.69300  25964287.09700  25964291.71700
        38.00000        14.00000
 -44965172.02348 -34982880.29347  21820104.79300  21820104.00200  21820104.25600
        51.00000        42.00000
 -11228015.33846  -8360026.88242  25601131.09500  25601129.41500  25601129.87400
        40.00000        16.00000
 -30226012.50046 -23460632.74441  26363064.15700  26363062.27200  26363065.32900
        37.00000        10.00000
 11 04 10 01 11 30.0000000  0 10G05G21G15G26G18G30G25G29G16G02        .000000000
 -31656988.75047 -24630920.04045  24091925.26100  24091924.28400  24091925.69100
        46.00000        30.00000
 -32780491.99048 -25359443.81146  23071874.12600  23071873.02200  23071872.30900
        50.00000        36.00000
 -20985244.72547 -16242899.77545  23533440.95300  23533440.47400  23533441.07000
        47.00000        32.00000
 -27657723.79948 -20693531.36445  22916964.12400  22916963.30400  22916964.04600
        48.00000        32.00000
 -15364469.43247 -11732814.97843  24587102.82800  24587101.91000  24587101.70500
        44.00000        22.00000
 -18992349.41247 -13986299.17144  24501178.12900  24501177.90400  24501177.33700
        43.00000        24.00000
 -24546258.75846 -19027643.94842  25976673.40000  25976671.50500  25976676.27200
        39.00000        16.00000
 -44959948.38248 -34978809.96447  21821098.81700  21821098.09400  21821098.42600
        51.00000        42.00000
 -11298675.08346  -8415086.46942  25587684.19700  25587683.20000  25587683.51300
        39.00000        14.00000
 -30170873.68246 -23417667.48441  26373555.78900  26373555.36000  26373556.88300
        36.00000         8.00000
 11 04 10 01 12  0.0000000  0 10G05G21G15G26G18G30G25G29G16G02        .000000000
 -31601409.40147 -24587611.52944  24102501.24300  24102500.80400  24102501.59500
        45.00000        28.00000
 -32873433.69348 -25431865.93246  23054188.14800  23054187.03500  23054185.91100
        50.00000        36.00000
 -21102183.19147 -16334020.64845  23511188.84100  23511187.96200  23511188.65500
        47.00000        32.00000
 -27728064.69348 -20748342.46145  22903578.73800  22903578.33700  22903578.75700
        49.00000        32.00000
 -15487600.53547 -11828761.29044  24563672.64600  24563670.96500  24563670.79000
        44.00000        24.00000
 -19018486.07047 -14006665.42543  24496203.37100  24496203.51800  24496203.32200
        43.00000        22.00000
 -24481204.58846 -18976952.45042  25989052.88400  25989051.41900  25989055.55100
        39.00000        14.00000
 -44954221.87648 -34974347.78747  21822188.73700  21822187.91600  21822188.10200
        51.00000        42.00000
 -11368804.36046  -8469732.68142  25574338.94900  25574337.55200  25574338.06900
        39.00000        14.00000
 -30115670.39546 -23374652.01941  26384061.23400  26384060.38400  26384062.83600
        36.00000        10.00000
 11 04 10 01 12 30.0000000  0 10G05G21G15G26G18G30G25G29G16G02        .000000000
 -31545657.39447 -24544168.48545  24113111.34700  24113110.48700  24113111.10300
        46.00000        30.00000
 -32966231.11548 -25504175.62946  23036529.50300  23036528.08700  23036527.39300
        50.00000        36.00000
 -21218751.82347 -16424853.34045  23489006.22100  23489005.63500  23489006.48500
        47.00000        34.00000
 -27797728.63848 -20802626.07145  22890322.28400  22890321.27800  22890322.24500
        49.00000        32.00000
 -15610525.25747 -11924546.81344  24540279.61300  24540278.51900  24540278.99700
        44.00000        24.00000
 -19044021.24447 -14026563.03543  24491345.90300  24491344.11600  24491344.39900
        44.00000        22.00000
 -24416178.73446 -18926283.02142  26001427.58200  26001425.71700  26001429.57500
        40.00000        16.00000
 -44947991.62548 -34969493.07747  21823374.42600  21823373.61600  21823373.54700
        52.00000        42.00000
 -11438401.00646  -8523963.86342  25561095.47800  25561093.87600  25561094.30500
        38.00000        16.00000
 -30060401.61045 -23331585.54541  26394578.45000  26394577.97100  26394580.36400
        35.00000        10.00000
 11 04 10 01 13  0.0000000  0 10G05G21G15G26G18G30G25G29G16G02        .000000000
 -31489735.19747 -24500592.82944  24123752.37700  24123751.53700  24123752.83600
        45.00000        28.00000
 -33058883.62948 -25576372.41146  23018898.41500  23018897.06700  23018896.11900
        50.00000        36.00000
 -21334948.78548 -16515396.40845  23466895.00800  23466894.31500  23466894.82300
        48.00000        32.00000
 -27866714.47048 -20856381.27045  22877194.78400  22877193.28000  22877194.89100
        48.00000        32.00000
 -15733243.41547 -12020171.36444  24516927.50900  24516926.07300  24516926.58100
        44.00000        24.00000
 -19068956.64247 -14045993.24843  24486599.79500  24486598.75000  24486599.42400
        43.00000        22.00000
 -24351184.67246 -18875638.38242  26013794.69000  26013794.24100  26013797.92400
        39.00000        16.00000
 -44941259.10148 -34964246.98247  21824655.73900  21824654.98600  21824654.81100
        52.00000        42.00000
 -11507464.44446  -8577779.55342  25547952.84600  25547951.54700  25547951.93700
        38.00000        16.00000
 -30005068.36345 -23288468.89341  26405107.32900  26405108.09100  26405109.58500
        34.00000         8.00000
 11 04 10 01 13 30.0000000  0 10G05G21G15G26G18G30G25G29G16G02        .000000000
 -31433645.39547 -24456886.56844  24134425.29100  24134425.41800  24134426.30700
        45.00000        28.00000
 -33151391.35048 -25648456.37246  23001294.77500  23001293.28100  23001292.39200
        50.00000        36.00000
 -21450771.15247 -16605647.59845  23444854.48900  23444854.09900  23444854.51900
        47.00000        34.00000
 -27935020.51548 -20909606.75345  22864196.44100  22864195.61100  22864196.64600
        48.00000        32.00000
 -15855754.23747 -12115634.35644  24493614.95800  24493613.46300  24493613.93200
        44.00000        24.00000
 -19093293.34247 -14064956.94943  24481968.06500  24481967.42000  24481968.37700
        42.00000        22.00000
 -24286225.60046 -18825021.00642  26026156.47500  26026155.18500  26026159.41500
        39.00000        16.00000
 -44934025.40048 -34958610.36347  21826032.29300  21826031.55100  21826031.42400
        52.00000        42.00000
 -11575994.08546  -8631179.29642  25534912.07900  25534910.85800  25534911.56100
        38.00000        14.00000
 -29949671.83545 -23245302.94641  26415648.15500  26415648.99500  26415651.58300
        34.00000         8.00000
 11 04 10 01 14  0.0000000  0 10G05G21G15G26G18G30G25G29G16G02        .000000000
 -31377388.09347 -24413049.79044  24145131.72100  24145130.35300  24145132.07300
        45.00000        28.00000
 -33243751.06148 -25720424.99246  22983719.34700  22983717.97000  22983717.24700
        50.00000        36.00000
 -21566214.08847 -16695603.12445  23422886.14900  23422885.70000  23422886.39400
        47.00000        34.00000
 -28002643.23948 -20962299.79045  22851327.70600  22851327.23700  22851328.14600
        48.00000        32.00000
 -15978054.77947 -12210933.49844  24470341.60700  24470340.29800  24470340.67000
        44.00000        24.00000
 -19117030.63347 -14083453.60743  24477451.32900  24477450.65500  24477451.44600
        42.00000        22.00000
 -24221302.41446 -18774431.58342  26038510.28800  26038509.40900  26038513.72600
        39.00000        16.00000
 -44926288.93748 -34952581.97647  21827504.67500  21827503.61100  21827503.67900
        52.00000        42.00000
 -11643987.23346  -8684161.00142  25521973.98800  25521972.48400  25521972.87400
        38.00000        14.00000
 -29894209.98445 -23202086.03841  26426204.08300  26426202.04100  26426206.56400
        35.00000         8.00000
 11 04 10 01 14 30.0000000  0 10G05G21G15G26G18G30G25G29G16G02        .000000000
 -31320966.40647 -24369084.92844  24155868.19800  24155867.39700  24155868.87200
        45.00000        28.00000
 -33335963.66248 -25792278.97946  22966171.23200  22966170.38200  22966169.52200
        50.00000        36.00000
 -21681276.28248 -16785261.96845  23400991.08200  23400990.30100  23400990.77000
        48.00000        34.00000
 -28069581.96448 -21014459.83545  22838590.04300  22838589.06600  22838590.32600
        48.00000        32.00000
 -16100144.86247 -12306068.63844  24447108.34600  24447107.44800  24447107.85800
        44.00000        24.00000
 -19140170.49347 -14101484.71243  24473048.13100  24473047.99400  24473048.14000
        43.00000        22.00000
 -24156419.04146 -18723873.18343  26050857.98600  26050856.28600  26050860.86800
        40.00000        18.00000
 -44918051.56648 -34946163.27947  21829071.79200  21829071.07900  21829071.17700
        52.00000        42.00000
 -11711443.84246  -8736724.64042  25509137.74200  25509135.77900  25509135.60300
        39.00000        14.00000
 -29838684.55245 -23158819.64241  26436770.15000  26436768.48900  26436772.56300
        35.00000         6.00000
 11 04 10 01 15  0.0000000  0 10G05G21G15G26G18G30G25G29G16G02        .000000000
 -31264380.24047 -24324991.89044  24166636.00300  24166635.33900  24166636.64800
        45.00000        28.00000
 -33428025.67848 -25864015.63246  22948652.67500  22948651.61100  22948650.59500
        50.00000        36.00000
 -21795952.41648 -16874619.99345  23379168.56500  23379168.01800  23379168.48700
        48.00000        34.00000
 -28135832.66748 -21066083.76145  22825982.51500  22825981.80200  22825983.14000
        48.00000        32.00000
 -16222021.55447 -12401037.49344  24423915.99500  24423914.75500  24423915.28200
        44.00000        24.00000
 -19162712.01947 -14119049.59443  24468758.70500  24468757.96300  24468758.87100
        42.00000        22.00000
 -24091576.01846 -18673346.20842  26063197.79100  26063195.31000  26063200.43900
        39.00000        16.00000
 -44909311.85648 -34939353.15147  21830734.94200  21830734.18900  21830734.33600
        52.00000        42.00000
 -11778360.97146  -8788867.90042  25496403.82100  25496401.33000  25496401.63300
        39.00000        14.00000
 -29783093.61845 -23115502.17941  26447348.47700  26447346.31800  26447350.66500
        35.00000         8.00000
 11 04 10 01 15 30.0000000  0 10G05G21G15G26G18G30G25G29G16G02        .000000000
 -31207634.61547 -24280774.60145  24177435.72100  24177434.96900  24177435.21300
        46.00000        30.00000
 -33519939.68448 -25935636.95246  22931162.27100  22931160.84500  22931159.72200
        50.00000        36.00000
 -21910242.94848 -16963677.54845  23357420.50300  23357419.53500  23357419.82900
        48.00000        34.00000
 -28201396.62148 -21117172.56445  22813506.55800  22813505.58100  22813506.27400
        48.00000        32.00000
 -16343686.67047 -12495841.47244  24400763.72400  24400762.77700  24400762.95300
        44.00000        24.00000
 -19184659.16047 -14136151.32443  24464581.73400  24464581.41100  24464582.57400
        42.00000        22.00000
 -24026779.23046 -18622855.29242  26075527.60400  26075525.82600  26075530.51500
        39.00000        16.00000
 -44900073.50348 -34932154.47747  21832493.02100  21832492.16100  21832492.32700
        51.00000        42.00000
 -11844741.07846  -8840592.71442  25483772.38900  25483769.78100  25483769.34200
        39.00000        14.00000
 -29727440.81946 -23072136.52641  26457938.95600  26457937.04100  26457940.58700
        36.00000         6.00000
 11 04 10 01 16  0.0000000  0 10G05G21G15G26G18G30G25G29G16G02        .000000000
 -31150730.71647 -24236433.96644  24188263.65000  24188262.41900  24188262.77100
        45.00000        28.00000
 -33611704.16448 -26007141.75246  22913700.00100  22913698.60400  22913697.24600
        50.00000        36.00000
 -22024143.67448 -17052431.36845  23335745.67400  23335744.93200  23335745.07800
        48.00000        34.00000
 -28266271.41848 -21167724.36345  22801161.41900  22801160.45200  22801161.37000
        48.00000        32.00000
 -16465138.37147 -12590479.16944  24377652.82200  24377651.26900  24377651.47400
        44.00000        24.00000
 -19206012.23847 -14152790.14343  24460518.31000  24460518.02700  24460519.69700
        42.00000        22.00000
 -23962030.50346 -18572401.81042  26087849.09300  26087847.36400  26087851.54500
        39.00000        14.00000
 -44890336.35148 -34924567.12547  21834345.82400  21834345.03300  21834345.34500
        51.00000        42.00000
 -11910582.20646  -8891897.51942  25471241.77800  25471240.55700  25471240.00000
        38.00000        14.00000
 -29671725.38446 -23028722.02741  26468541.12700  26468540.08200  26468543.16900
        36.00000         8.00000
 11 04 10 01 16 30.0000000  0 10G05G21G15G26G18G30G25G29G16G02        .000000000
 -31093669.95947 -24191971.11544  24199121.58800  24199121.79300  24199121.93000
        45.00000        28.00000
 -33703318.07348 -26078529.23146  22896266.23400  22896265.01300  22896263.73300
        50.00000        36.00000
 -22137651.44448 -17140878.99045  23314145.55400  23314145.03600  23314145.32900
        48.00000        34.00000
 -28330454.92448 -21217737.50145  22788947.67500  22788947.02000  22788948.03600
        49.00000        32.00000
 -16586375.21547 -12684949.44544  24354581.55100  24354580.56400  24354580.77900
        44.00000        24.00000
 -19226771.90547 -14168966.55044  24456568.74700  24456567.77000  24456569.20600
        43.00000        24.00000
 -23897332.14846 -18521987.59942  26100161.26400  26100158.80200  26100163.60800
        39.00000        14.00000
 -44880100.55348 -34916591.21347  21836293.66400  21836292.89300  21836293.19500
        51.00000        42.00000
 -11975883.09446  -8942781.38342  25458815.61000  25458814.08600  25458814.07600
        38.00000        14.00000
 -29615947.07346 -22985258.46641  26479156.04600  26479154.82500  26479157.18900
        36.00000         8.00000
 11 04 10 01 17  0.0000000  0 10G05G21G15G26G18G30G25G29G16G02        .000000000
 -31036455.80747 -24147388.74344  24210009.40700  24210008.57700  24210008.90900
        45.00000        28.00000
 -33794781.68748 -26149799.60146  22878861.59700  22878860.23900  22878858.69600
        50.00000        36.00000
 -22250764.84348 -17229019.31045  23292620.52400  23292620.19200  23292620.36800
        48.00000        34.00000
 -28393946.98948 -21267211.85045  22776865.33500  22776864.60300  22776865.50100
        48.00000        32.00000
 -16707397.51847 -12779252.53144  24331552.93800  24331550.91600  24331551.31600
        44.00000        24.00000
 -19246940.58947 -14184682.45243  24452729.27400  24452730.06500  24452731.16000
        42.00000        22.00000
 -23832688.31646 -18471615.85242  26112462.44500  26112460.73500  26112465.15100
        39.00000        16.00000
 -44869368.21648 -34908228.38147  21838336.09200  21838335.36900  21838335.52500
        51.00000        42.00000
 -12040644.34146  -8993244.72742  25446491.06300  25446490.47700  25446490.47700
        38.00000        14.00000
 -29560108.03245 -22941747.60641  26489781.33000  26489780.09900  26489783.23500
        33.00000         8.00000
 11 04 10 01 17 30.0000000  0 10G05G21G15G26G18G30G25G29G16G02        .000000000
 -30979093.43047 -24102690.86844  24220925.05700  24220924.73400  24220924.74400
        44.00000        28.00000
 -33886097.03848 -26220954.44746  22861485.01400  22861483.68600  22861482.17200
        50.00000        36.00000
 -22363483.87647 -17316852.33945  23271170.63200  23271170.25100  23271170.96500
        47.00000        34.00000
 -28456748.37448 -21316148.01345  22764914.90900  22764913.87300  22764914.59600
        49.00000        32.00000
 -16828206.68647 -12873389.54244  24308563.30100  24308561.87500  24308561.86500
        45.00000        24.00000
 -19266522.22647 -14199940.91543  24449004.98100  24449003.92600  24449004.74600
        43.00000        22.00000
 -23768104.41046 -18421290.78542  26124751.06400  26124750.76100  26124755.41100
        38.00000        16.00000
 -44858142.69648 -34899481.24447  21840472.18900  21840471.65200  21840471.52500
        51.00000        42.00000
 -12104867.69446  -9043288.92942  25434270.95000  25434268.98600  25434269.03500
        38.00000        16.00000
 -29504211.39245 -22898191.90541  26500417.62300  26500417.15400  26500420.59200
        34.00000         6.00000
 11 04 10 01 18  0.0000000  0 10G05G21G15G26G18G30G25G29G16G02        .000000000
 -30921582.15947 -24057876.97844  24231869.50400  24231867.89200  24231869.00500
        44.00000        28.00000
 -33977261.07948 -26291991.39146  22844137.19000  22844135.80300  22844134.36700
        51.00000        36.00000
 -22475803.90047 -17404374.43845  23249797.07100  23249796.37800  23249797.02200
        47.00000        34.00000
 -28518856.05448 -21364543.62745  22753096.17000  22753094.98800  22753096.20900
        48.00000        32.00000
 -16948800.21747 -12967358.53444  24285614.88700  24285613.59700  24285613.83200
        44.00000        24.00000
 -19285516.31547 -14214741.56044  24445389.27200  24445389.67300  24445390.28800
        43.00000        24.00000
 -23703581.40846 -18371013.23342  26137029.38700  26137028.88800  26137033.89000
        38.00000        16.00000
 -44846423.36248 -34890349.32147  21842702.41400  21842701.60400  21842701.62300
        51.00000        42.00000
 -12168550.81946  -9092912.18942  25422152.55500  25422150.55300  25422151.16800
        39.00000        16.00000
 -29448255.37845 -22854589.86941  26511066.30100  26511065.12900  26511068.58700
        35.00000         8.00000
 11 04 10 01 18 30.0000000  0 10G05G21G15G26G18G30G25G29G16G02        .000000000
 -30863919.16647 -24012944.87744  24242841.22400  24242841.16500  24242842.40600
        44.00000        28.00000
 -34068267.72748 -26362905.67846  22826819.06200  22826817.98700  22826816.64900
        51.00000        36.00000
 -22587716.29948 -17491578.90845  23228500.73900  23228500.38700  23228501.10100
        48.00000        34.00000
 -28580262.81748 -21412393.06845  22741410.38900  22741409.43100  22741410.79900
        48.00000        32.00000
 -17069171.11547 -13061154.04244  24262709.39500  24262707.85200  24262708.01800
        45.00000        24.00000
 -19303918.36147 -14229080.86343  24441888.35300  24441887.33700  24441888.24600
        43.00000        22.00000
 -23639116.33746 -18320780.79642  26149297.81400  26149296.41700  26149301.15500
        38.00000        14.00000
 -44834205.15848 -34880828.68347  21845027.30500  21845026.48500  21845026.81700
        51.00000        42.00000
 -12231687.07046  -9142109.30942  25410137.02200  25410135.70300  25410137.47100
        38.00000        16.00000
 -29392234.61145 -22810937.34641  26521726.44900  26521724.86600  26521728.51000
        33.00000         6.00000
 11 04 10 01 19  0.0000000  0 10G05G21G15G26G18G30G25G29G16G02        .000000000
 -30806110.69747 -23967899.41544  24253842.42500  24253841.75100  24253842.89400
        44.00000        26.00000
 -34159120.10048 -26433699.75546  22809530.45400  22809529.46700  22809527.95300
        51.00000        36.00000
 -22699222.74948 -17578467.05245  23207282.86700  23207281.60700  23207281.90000
        48.00000        34.00000
 -28640971.60547 -21459698.62545  22729857.09600  22729856.72500  22729858.34700
        47.00000        32.00000
 -17189323.11247 -13154778.97944  24239845.22400  24239843.68000  24239843.71900
        45.00000        24.00000
 -19321734.20047 -14242963.39743  24438497.88500  24438497.15200  24438497.70900
        42.00000        22.00000
 -23574716.39146 -18270599.08042  26161552.03800  26161552.19500  26161555.62300
        37.00000        12.00000
 -44821493.35548 -34870923.42847  21847446.30500  21847445.43600  21847446.05100
        51.00000        42.00000
 -12294280.53946  -9190883.49042  25398226.34300  25398224.47700  25398226.96800
        38.00000        16.00000
 -29336154.17445 -22767238.33841  26532398.40600  26532397.16500  26532400.50600
        35.00000         8.00000
 11 04 10 01 19 30.0000000  0 10G05G21G15G26G18G30G25G29G16G02        .000000000
 -30748158.77147 -23922742.16244  24264870.26500  24264869.47300  24264870.54800
        44.00000        26.00000
 -34249818.33948 -26504373.72846  22792271.20000  22792269.82300  22792268.55300
        51.00000        36.00000
 -22810320.84348 -17665037.00345  23186141.25700  23186140.59200  23186140.78800
        48.00000        34.00000
 -28700981.14148 -21506459.31145  22718438.38400  22718437.37800  22718439.34100
        48.00000        32.00000
 -17309255.22147 -13248232.56744  24217022.18700  24217021.74700  24217021.37600
        45.00000        24.00000
 -19338965.09347 -14256390.11243  24435218.62000  24435218.23000  24435219.00100
        42.00000        22.00000
 -23510384.51146 -18220470.44842  26173794.57000  26173793.77900  26173797.26600
        38.00000        14.00000
 -44808288.85748 -34860634.26147  21849959.10100  21849958.14400  21849958.71100
        51.00000        42.00000
 -12356330.55346  -9239234.19042  25386417.65600  25386416.87400  25386419.37500
        37.00000        16.00000
 -29280014.12245 -22723492.90041  26543081.62600  26543080.69800  26543083.91100
        35.00000         8.00000
 11 04 10 01 20  0.0000000  0  9G05G21G15G26G18G30G25G29G16           .000000000
 -30690061.12347 -23877471.37144  24275926.42300  24275925.77800  24275926.30600
        44.00000        28.00000
 -34340356.58448 -26574923.02646  22775042.15000  22775041.02600  22775039.90300
        50.00000        36.00000
 -22921003.55348 -17751283.28345  23165078.74100  23165078.22300  23165078.41900
        48.00000        34.00000
 -28760285.71048 -21552670.67345  22707153.25400  22707152.15000  22707154.04500
        48.00000        32.00000
 -17428962.57947 -13341511.03244  24194243.40100  24194241.81900  24194241.68200
        45.00000        24.00000
 -19355608.25447 -14269358.85543  24432052.92300  24432051.38000  24432052.19100
        43.00000        22.00000
 -23446119.22646 -18170393.66742  26186024.94000  26186022.89800  26186026.45400
        39.00000        12.00000
 -44794588.54948 -34849958.74247  21852566.47500  21852565.46900  21852565.99600
        51.00000        42.00000
 -12417832.16746  -9287157.54742  25374714.99500  25374713.75400  25374715.63000
        38.00000        14.00000
 11 04 10 01 20 30.0000000  0  9G05G21G15G26G18G30G25G29G16           .000000000
 -30631822.17247 -23832090.46344  24287009.04400  24287008.53600  24287009.21000
        44.00000        28.00000
 -34430737.17548 -26645349.48446  22757843.24500  22757841.92600  22757840.91000
        50.00000        36.00000
 -23031270.52148 -17837205.61145  23144095.48600  23144094.79300  23144095.73100
        48.00000        34.00000
 -28818886.55048 -21598333.67145  22696001.75600  22696001.24800  22696002.58600
        48.00000        34.00000
 -17548446.41947 -13434615.33844  24171506.15100  24171504.88100  24171504.82200
        45.00000        26.00000
 -19371667.79347 -14281872.83643  24428995.35300  24428995.69500  24428996.35900
        42.00000        22.00000
 -23381925.71346 -18120372.81842  26198240.01200  26198238.28300  26198242.89400
        38.00000        14.00000
 -44780395.70648 -34838899.42647  21855267.17600  21855266.50200  21855266.70700
        51.00000        42.00000
 -12478787.53546  -9334655.24642  25363115.41000  25363114.32600  25363115.65400
        37.00000        14.00000
 11 04 10 01 21  0.0000000  0  9G05G21G15G26G18G30G25G29G16           .000000000
 -30573444.02347 -23786601.08944  24298118.42100  24298117.62000  24298117.81500
        45.00000        28.00000
 -34520959.08148 -26715652.29246  22740674.51500  22740673.36200  22740672.32700
        50.00000        36.00000
 -23141119.29948 -17922802.07545  23123191.99100  23123191.34600  23123192.01000
        48.00000        34.00000
 -28876782.31148 -21643447.25745  22684984.89600  22684984.07500  22684984.99400
        48.00000        34.00000
 -17667706.17847 -13527545.02244  24148812.16400  24148810.67000  24148810.56200
        45.00000        26.00000
 -19387145.09347 -14293933.11043  24426050.46100  24426050.27500  24426050.82200
        42.00000        22.00000
 -23317806.77646 -18070410.10042  26210440.41300  26210439.41600  26210444.49600
        37.00000        14.00000
 -44765711.30248 -34827457.07047  21858061.69300  21858060.96100  21858061.05800
        51.00000        42.00000
 -12539195.96046  -9381726.77142  25351620.43500  25351619.23400  25351620.14200
        38.00000        14.00000
 11 04 10 01 21 30.0000000  0  9G05G21G15G26G18G30G25G29G16           .000000000
 -30514928.55847 -23741004.71744  24309254.00600  24309253.21500  24309254.17200
        45.00000        28.00000
 -34611021.35948 -26785830.70246  22723536.77000  22723535.22700  22723533.87900
        51.00000        36.00000
 -23250546.89448 -18008070.34345  23102368.56700  23102367.94200  23102368.73300
        48.00000        34.00000
 -28933971.57148 -21688010.33845  22674101.90200  22674101.24800  22674102.44900
        48.00000        34.00000
 -17786740.65847 -13620299.17044  24126160.55300  24126159.20500  24126158.64900
        46.00000        26.00000
 -19402041.22047 -14305540.53443  24423215.36600  24423215.06300  24423215.91300
        42.00000        22.00000
 -23253764.94446 -18020507.45442  26222627.70400  26222626.89300  26222631.11300
        38.00000        14.00000
 -44750536.21848 -34815632.36047  21860949.30300  21860948.61900  21860948.61000
        51.00000        42.00000
 -12599056.60846  -9428371.47342  25340229.93400  25340229.04500  25340229.68000
        39.00000        16.00000
 11 04 10 01 22  0.0000000  0  9G05G21G15G26G18G30G25G29G16           .000000000
 -30456280.22447 -23695304.81144  24320415.20400  24320413.98300  24320413.59200
        46.00000        28.00000
 -34700926.15148 -26855886.39746  22706427.97900  22706427.00200  22706425.65400
        51.00000        36.00000
 -23359553.10148 -18093010.25645  23081625.33200  23081624.81400  23081625.36100
        48.00000        34.00000
 -28990455.31848 -21732023.65645  22663354.17200  22663353.06800  22663354.21100
        49.00000        34.00000
 -17905550.75247 -13712878.46044  24103551.27900  24103550.08700  24103549.90100
        45.00000        26.00000
 -19416360.07647 -14316698.13743  24420491.18200  24420490.02900  24420491.13300
        42.00000        22.00000
 -23189805.33046 -17970668.86242  26234799.49300  26234798.22300  26234802.25700
        38.00000        14.00000
 -44734873.48048 -34803427.65947  21863929.63500  21863928.95100  21863929.27400
        51.00000        42.00000
 -12658371.44046  -9474590.86342  25328943.28000  25328942.11800  25328942.99700
        40.00000        16.00000
 11 04 10 01 22 30.0000000  0  9G05G21G15G26G18G30G25G29G16           .000000000
 -30397494.49747 -23649497.83744  24331600.88100  24331600.34400  24331600.52000
        45.00000        28.00000
 -34790665.14848 -26925812.91546  22689351.41400  22689350.26100  22689349.05900
        51.00000        36.00000
 -23468128.67748 -18177614.60845  23060964.04400  23060963.55600  23060964.32700
        48.00000        34.00000
 -29046225.88748 -21775481.25745  22652741.22600  22652740.33700  22652741.46000
        49.00000        34.00000
 -18024129.29747 -13805277.32144  24080986.48000  24080985.29800  24080985.20000
        45.00000        26.00000
 -19430096.61747 -14327402.00743  24417877.09700  24417876.15900  24417877.60500
        43.00000        22.00000
 -23125924.11046 -17920891.39242  26246955.20200  26246954.13800  26246958.81700
        38.00000        12.00000
 -44718717.65248 -34790838.74347  21867003.81200  21867003.11800  21867003.82100
        50.00000        42.00000
 -12717133.35946  -9520379.41542  25317761.95900  25317760.45500  25317761.06100
        40.00000        16.00000
 11 04 10 01 23  0.0000000  0  9G05G21G15G26G18G30G25G29G16           .000000000
 -30338577.70347 -23603588.75444  24342812.06400  24342811.84900  24342811.97600
        44.00000        26.00000
 -34880242.25848 -26995613.28646  22672305.85300  22672304.41700  22672303.28400
        51.00000        36.00000
 -23576275.61648 -18261884.95246  23040384.54700  23040383.96100  23040384.73300
        48.00000        36.00000
 -29101287.04848 -21818386.07545  22642263.05400  22642262.34100  22642263.16200
        49.00000        34.00000
 -18142480.18447 -13897498.78344  24058464.58400  24058463.47000  24058464.24200
        45.00000        26.00000
 -19443256.99947 -14337656.90343  24415372.70200  24415372.02800  24415373.81500
        43.00000        22.00000
 -23062128.62246 -17871180.70842  26259094.53100  26259094.41300  26259098.72100
        37.00000        12.00000
 -44702074.56248 -34777870.14947  21870171.14000  21870170.24100  21870171.07200
        51.00000        42.00000
 -12775346.48346  -9565740.34543  25306684.60400  25306683.22600  25306683.75400
        40.00000        18.00000
 11 04 10 01 23 30.0000000  0  9G05G21G15G26G18G30G25G29G16           .000000000
 -30279531.59647 -23557578.89244  24354048.22500  24354047.79500  24354047.76600
        44.00000        26.00000
 -34969657.13648 -27065287.23546  22655290.74100  22655289.25600  22655288.12300
        51.00000        38.00000
 -23683991.04648 -18345819.06346  23019887.11400  23019886.18600  23019887.22200
        49.00000        36.00000
 -29155637.09548 -21860736.78545  22631920.56600  22631919.98000  22631920.35100
        48.00000        32.00000
 -18260602.28947 -13989541.98444  24035986.51800  24035985.50200  24035986.19600
        45.00000        26.00000
 -19455842.53647 -14347463.87843  24412977.71300  24412977.50700  24412978.93400
        43.00000        22.00000
 -22998421.33046 -17821538.73641  26271218.13200  26271217.10600  26271221.78500
        36.00000        10.00000
 -44684944.94448 -34764522.44647  21873430.98500  21873429.97900  21873430.68200
        51.00000        42.00000
 -12833010.10646  -9610673.10142  25295709.67000  25295710.33400  25295710.33400
        39.00000        16.00000
 11 04 10 01 24  0.0000000  0  9G05G21G15G26G18G30G25G29G16           .000000000
 -30220360.99347 -23511472.01844  24365307.93700  24365307.54700  24365307.75200
        44.00000        26.00000
 -35058911.26848 -27134835.93546  22638305.68600  22638304.66100  22638303.70300
        51.00000        38.00000
 -23791274.66748 -18429416.69346  22999471.33600  22999470.74000  22999471.87300
        48.00000        36.00000
 -29209277.56848 -21902534.58345  22621713.05800  22621712.45200  22621713.46800
        48.00000        32.00000
 -18378497.15047 -14081408.11744  24013552.39100  24013551.10200  24013551.76600
        45.00000        26.00000
 -19467857.29947 -14356826.08343  24410691.33800  24410690.88900  24410692.74500
        42.00000        22.00000
 -22934807.51746 -17771969.62842  26283323.78800  26283321.97100  26283327.25600
        38.00000        12.00000
 -44667332.25548 -34750798.31247  21876782.73100  21876781.79300  21876782.19400
        51.00000        42.00000
 -12890126.51946  -9655179.45342  25284841.16200  25284841.09400  25284841.10400
        39.00000        14.00000
 11 04 10 01 24 30.0000000  0  9G05G21G15G26G18G30G25G29G16           .000000000
 -30161064.74347 -23465267.24344  24376591.86600  24376591.25000  24376591.04500
        44.00000        26.00000
 -35148000.47448 -27204256.11846  22621353.16000  22621351.72400  22621350.79600
        51.00000        38.00000
 -23898120.92748 -18512673.52046  22979139.50700  22979138.77500  22979139.41900
        49.00000        36.00000
 -29262204.14347 -21943776.08145  22611640.79300  22611640.05100  22611642.17100
        47.00000        32.00000
 -18496161.35847 -14173094.52044  23991161.47000  23991160.17100  23991161.10800
        45.00000        28.00000
 -19479299.74147 -14365742.31243  24408514.24300  24408513.36400  24408514.90800
        42.00000        22.00000
 -22871286.64646 -17722472.91142  26295411.06100  26295409.72300  26295415.33900
        38.00000        14.00000
 -44649234.48948 -34736696.19447  21880226.68100  21880225.96800  21880226.11500
        51.00000        42.00000
 -12946692.08646  -9699256.56442  25274078.03700  25274076.63000  25274076.53200
        39.00000        16.00000
 11 04 10 01 25  0.0000000  0  9G05G21G15G26G18G30G25G29G16           .000000000
 -30101646.87547 -23418967.69844  24387899.07200  24387898.41800  24387898.35900
        44.00000        26.00000
 -35236926.29448 -27273548.98446  22604430.91600  22604429.53900  22604428.83600
        51.00000        38.00000
 -24004529.52348 -18595589.30946  22958890.67100  22958889.99700  22958890.47500
        49.00000        36.00000
 -29314418.23548 -21984462.38145  22601705.10100  22601704.21200  22601705.94100
        48.00000        32.00000
 -18613595.46847 -14264601.60244  23968815.75700  23968814.25200  23968813.83200
        46.00000        28.00000
 -19490173.58147 -14374215.49843  24406445.02100  24406444.04400  24406445.49000
        42.00000        22.00000
 -22807863.73346 -17673052.52942  26307481.39500  26307479.86100  26307484.36400
        39.00000        14.00000
 -44630654.95248 -34722218.67147  21883762.09300  21883761.49700  21883761.53600
        51.00000        42.00000
 -13002708.72546  -9742905.93142  25263417.96800  25263416.87400  25263417.32300
        39.00000        16.00000
 11 04 10 01 25 30.0000000  0  9G05G21G15G26G18G30G25G29G16           .000000000
 -30042107.27547 -23372573.29944  24399229.51800  24399228.60900  24399228.40400
        44.00000        26.00000
 -35325685.35948 -27342711.91446  22587540.92800  22587539.34500  22587538.66200
        51.00000        38.00000
 -24110496.16048 -18678160.72145  22938725.49100  22938725.20800  22938725.19800
        49.00000        34.00000
 -29365916.80348 -22024591.14945  22591906.06800  22591905.15000  22591905.72600
        49.00000        32.00000
 -18730796.94347 -14355927.44344  23946512.21400  23946511.64700  23946510.97300
        46.00000        28.00000
 -19500478.74147 -14382245.54943  24404484.08100  24404483.29000  24404484.30600
        42.00000        22.00000
 -22744539.53746 -17623709.09342  26319531.20500  26319530.64900  26319534.38000
        38.00000        12.00000
 -44611592.74848 -34707365.04247  21887389.53300  21887388.63400  21887389.34700
        51.00000        42.00000
 -13058174.00746  -9786125.69542  25252863.66200  25252862.24500  25252862.41100
        39.00000        16.00000
 11 04 10 01 26  0.0000000  0  9G05G21G15G26G18G30G25G29G16           .000000000
 -29982447.87447 -23326085.53344  24410581.59000  24410581.17000  24410581.40500
        44.00000        26.00000
 -35414277.18948 -27411744.53046  22570682.27600  22570680.84000  22570680.03900
        51.00000        38.00000
 -24216017.88648 -18760385.44946  22918646.11700  22918645.32600  22918645.06200
        49.00000        36.00000
 -29416698.86748 -22064161.61145  22582242.44500  22582241.69300  22582242.27900
        49.00000        34.00000
 -18847764.78147 -14447071.22444  23924254.69900  23924253.52700  23924252.52100
        46.00000        28.00000
 -19510216.51447 -14389833.49043  24402630.90700  24402629.94900  24402631.24900
        42.00000        22.00000
 -22681316.58746 -17574444.54041  26331562.20200  26331561.30300  26331564.49800
        38.00000        10.00000
 -44592049.05248 -34692136.23646  21891108.43400  21891107.81900  21891108.26800
        51.00000        40.00000
 -13113087.59846  -9828915.53642  25242413.78900  25242412.42200  25242413.10600
        39.00000        16.00000
 11 04 10 01 26 30.0000000  0  9G05G21G15G26G18G30G25G29G16           .000000000
 -29922670.58147 -23279505.92544  24421957.53700  24421956.30600  24421957.41000
        44.00000        26.00000
 -35502701.68248 -27480646.74746  22553855.60600  22553854.16100  22553853.40900
        51.00000        38.00000
 -24321091.91448 -18842261.32545  22898650.77100  22898650.18500  22898650.40900
        49.00000        34.00000
 -29466763.21648 -22103172.80945  22572714.99400  22572714.01700  22572715.59000
        48.00000        34.00000
 -18964498.32547 -14538032.42844  23902040.79100  23902039.49200  23902039.19900
        46.00000        28.00000
 -19519388.84246 -14396980.83143  24400885.38000  24400884.24700  24400885.92700
        41.00000        20.00000
 -22618197.38946 -17525260.80142  26343573.25200  26343572.29400  26343576.02600
        40.00000        12.00000
 -44572024.54948 -34676532.77947  21894919.36400  21894918.40700  21894918.64100
        51.00000        42.00000
 -13167448.95846  -9871275.08442  25232068.37100  25232067.88200  25232068.84000
        38.00000        16.00000
 11 04 10 01 27  0.0000000  0  9G05G21G15G26G18G30G25G29G16           .000000000
 -29862776.74547 -23232835.48444  24433354.31000  24433354.02700  24433354.98400
        44.00000        26.00000
 -35590956.90048 -27549417.06546  22537060.70300  22537059.72700  22537058.78900
        50.00000        38.00000
 -24425715.44248 -18923786.15546  22878741.23000  22878740.95700  22878741.17200
        49.00000        36.00000
 -29516108.53848 -22141623.71245  22563325.46300  22563324.65200  22563325.87300
        49.00000        34.00000
 -19080995.95547 -14628809.79444  23879871.78900  23879870.70400  23879870.35300
        46.00000        28.00000
 -19527996.55346 -14403688.20043  24399246.43600  24399246.22200  24399247.94100
        41.00000        20.00000
 -22555184.10446 -17476159.63342  26355564.73500  26355563.38700  26355567.27500
        36.00000        12.00000
 -44551520.23548 -34660555.43746  21898821.20800  21898820.48500  21898820.58300
        51.00000        40.00000
 -13221257.34046  -9913203.71442  25221829.63300  25221828.43100  25221830.00400
        39.00000        16.00000
 11 04 10 01 27 30.0000000  0  8G05G21G15G26G18G30G29G16              .000000000
 -29802769.12147 -23186076.39744  24444773.97000  24444773.12000  24444774.93700
        43.00000        26.00000
 -35679042.47448 -27618055.19446  22520298.88600  22520297.40100  22520296.75700
        51.00000        38.00000
 -24529886.75948 -19004958.60946  22858918.10100  22858917.49600  22858918.16000
        48.00000        36.00000
 -29564735.03748 -22179514.51645  22554072.63100  22554071.88900  22554072.79700
        49.00000        34.00000
 -19197257.81347 -14719403.45444  23857748.07200  23857746.43100  23857746.91000
        46.00000        28.00000
 -19536042.77047 -14409958.05643  24397716.84000  24397715.41400  24397717.03600
        42.00000        20.00000
 -44530538.08448 -34644205.75147  21902814.29900  21902813.40100  21902813.50800
        52.00000        42.00000
 -13274513.61246  -9954702.15242  25211695.97400  25211694.53800  25211695.80800
        39.00000        16.00000
 11 04 10 01 28  0.0000000  0  8G05G21G15G26G18G30G29G16              .000000000
 -29742649.34547 -23139229.93444  24456214.68100  24456213.04000  24456214.97500
        44.00000        26.00000
 -35766957.37848 -27686560.33346  22503568.98200  22503567.80000  22503567.03800
        50.00000        38.00000
 -24633603.63548 -19085776.95046  22839181.45200  22839180.65100  22839181.60800
        48.00000        36.00000
 -29612641.61448 -22216844.34145  22544956.54700  22544955.89300  22544956.31300
        50.00000        34.00000
 -19313282.92147 -14809812.63144  23835668.53900  23835667.65900  23835667.78600
        46.00000        28.00000
 -19543528.98546 -14415791.53043  24396291.05300  24396291.36600  24396291.89300
        41.00000        20.00000
 -44509079.31448 -34627484.67347  21906897.50400  21906896.89800  21906897.10300
        51.00000        42.00000
 -13327217.43746  -9995770.10742  25201666.97300  25201665.07800  25201666.24100
        39.00000        16.00000
 11 04 10 01 28 30.0000000  0  8G05G21G15G26G18G30G29G16              .000000000
 -29682418.61947 -23092296.99644  24467675.62300  24467674.82200  24467676.86400
        43.00000        26.00000
 -35854700.03148 -27754931.24246  22486872.52500  22486871.08000  22486870.45400
        51.00000        38.00000
 -24736861.89448 -19166237.91146  22819531.89800  22819531.45800  22819532.30800
        48.00000        36.00000
 -29659826.29048 -22253611.64745  22535976.52700  22535976.06800  22535977.01600
        49.00000        34.00000
 -19429069.25847 -14900035.75244  23813635.65900  23813634.46700  23813634.65300
        46.00000        28.00000
 -19550455.93147 -14421189.22043  24394973.85200  24394973.06100  24394973.54900
        42.00000        20.00000
 -44487143.84748 -34610392.13647  21911071.74000  21911070.98800  21911071.41800
        51.00000        42.00000
 -13379367.29446 -10036406.39842  25191742.30000  25191741.19600  25191741.81100
        39.00000        16.00000
 11 04 10 01 29  0.0000000  0  8G05G21G15G26G18G30G29G16              .000000000
 -29622079.08947 -23045279.27144  24479158.40700  24479156.96100  24479159.08100
        44.00000        26.00000
 -35942269.82348 -27823167.45746  22470208.91000  22470207.37600  22470206.06700
        51.00000        38.00000
 -24839659.72348 -19246340.10946  22799970.62000  22799969.95600  22799970.64000
        49.00000        36.00000
 -29706288.83548 -22289816.25545  22527135.16000  22527133.85100  22527135.34600
        48.00000        34.00000
 -19544616.67947 -14990072.69544  23791647.71300  23791646.17000  23791646.38500
        46.00000        28.00000
 -19556825.72147 -14426152.75843  24393761.43600  24393760.77200  24393761.16200
        42.00000        20.00000
 -44464733.15548 -34592929.30346  21915336.37300  21915335.45500  21915336.01200
        51.00000        40.00000
 -13430963.58246 -10076611.32542  25181923.71100  25181922.68500  25181923.15400
        39.00000        16.00000
 11 04 10 01 29 30.0000000  0  8G05G21G15G26G18G30G29G16              .000000000
 -29561633.28647 -22998178.74744  24490660.87400  24490660.02400  24490662.07500
        43.00000        26.00000
 -36029666.45648 -27891268.74346  22453578.00900  22453576.52400  22453575.03900
        51.00000        38.00000
 -24941995.03048 -19326081.90346  22780496.97600  22780496.39900  22780496.71200
        49.00000        36.00000
 -29752029.13547 -22325458.05845  22518430.25800  22518429.78900  22518431.19600
        47.00000        34.00000
 -19659924.60447 -15079923.02644  23769705.01600  23769703.70700  23769704.33200
        46.00000        28.00000
 -19562640.55947 -14430683.86243  24392655.13400  24392654.12800  24392654.85100
        42.00000        20.00000
 -44441849.11048 -34575097.63346  21919690.91500  21919690.04600  21919690.64100
        51.00000        40.00000
 -13482006.28746 -10116384.91142  25172210.14200  25172209.59500  25172210.17100
        38.00000        16.00000
 11 04 10 01 30  0.0000000  0  8G05G21G15G26G18G30G29G16              .000000000
 -29501078.62547 -22950993.40344  24502183.55200  24502183.03400  24502185.66200
        43.00000        26.00000
 -36116885.10548 -27959231.33646  22436980.48600  22436979.26500  22436977.82900
        51.00000        38.00000
 -25043861.57148 -19405458.43446  22761112.29200  22761111.91100  22761112.01800
        49.00000        36.00000
 -29797042.47348 -22360533.40245  22509865.15100  22509864.54600  22509865.63000
        48.00000        32.00000
 -19774988.44347 -15169583.15644  23747808.73700  23747807.53600  23747807.96500
        46.00000        28.00000
 -19567898.56247 -14434781.07943  24391655.04500  24391654.06800  24391654.62500
        42.00000        22.00000
 -44418489.04848 -34556895.03446  21924136.02900  21924135.46300  21924135.76500
        51.00000        40.00000
 -13532491.42146 -10155723.98342  25162603.93800  25162602.18000  25162603.42000
        38.00000        16.00000
 11 04 10 01 30 30.0000000  0  8G05G21G15G26G18G30G29G16              .000000000
 -29440424.01047 -22903730.15944  24513725.54200  24513725.11200  24513727.55400
        43.00000        26.00000
 -36203931.91148 -28027060.02946  22420416.27400  22420414.76000  22420413.50000
        51.00000        38.00000
 -25145263.63348 -19484473.04146  22741816.40300  22741815.85600  22741815.77800
        49.00000        36.00000
 -29841334.80448 -22395046.93845  22501436.79300  22501436.20600  22501437.24200
        48.00000        32.00000
 -19889814.12747 -15259057.72044  23725958.30200  23725957.46200  23725957.54000
        45.00000        28.00000
 -19572607.69247 -14438450.59043  24390758.44200  24390758.09000  24390758.45100
        42.00000        20.00000
 -44394660.80148 -34538327.60146  21928670.97400  21928670.08500  21928670.16300
        51.00000        40.00000
 -13582425.47246 -10194633.66242  25153101.28900  25153099.96000  25153101.28900
        38.00000        16.00000
 11 04 10 01 31  0.0000000  0  8G05G21G15G26G18G30G29G16              .000000000
 -29379669.90447 -22856389.41044  24525287.49900  24525286.50200  24525289.07100
        43.00000        26.00000
 -36290803.82248 -28094752.44446  22403884.60000  22403883.43800  22403882.19700
        51.00000        38.00000
 -25246197.68748 -19563122.96646  22722609.05500  22722608.54700  22722608.96700
        49.00000        36.00000
 -29884904.30048 -22428997.22345  22493145.43600  22493144.85000  22493146.26600
        48.00000        32.00000
 -20004399.60647 -15348345.10044  23704153.75800  23704152.60600  23704151.93200
        46.00000        28.00000
 -19576769.22447 -14441693.41043  24389966.61400  24389966.43900  24389966.13600
        42.00000        20.00000
 -44370364.64648 -34519395.55546  21933294.36200  21933293.83400  21933293.70700
        51.00000        40.00000
 -13631807.35346 -10233113.08142  25143704.99800  25143702.50700  25143704.18700
        39.00000        16.00000
 11 04 10 01 31 30.0000000  0  8G05G21G15G26G18G30G29G16              .000000000
 -29318816.18247 -22808971.02744  24536866.37400  24536866.69700  24536868.96300
        42.00000        24.00000
 -36377498.42548 -28162306.69846  22387387.17500  22387385.96300  22387384.96700
        51.00000        38.00000
 -25346658.56148 -19641404.16646  22703491.85900  22703490.99900  22703492.06400
        49.00000        36.00000
 -29927748.09148 -22462382.02645  22484992.50700  22484991.51100  22484993.54300
        48.00000        32.00000
 -20118741.74647 -15437442.87644  23682395.12700  23682393.76900  23682393.81800
        46.00000        28.00000
 -19580382.74247 -14444509.21643  24389279.68000  24389278.86000  24389278.99700
        43.00000        22.00000
 -44345599.45848 -34500098.03246  21938006.77900  21938006.31900  21938006.48600
        51.00000        40.00000
 -13680634.65446 -10271160.36642  25134413.90300  25134411.34400  25134412.88700
        39.00000        16.00000
 11 04 10 01 32  0.0000000  0  8G05G21G15G26G18G30G29G16              .000000000
 -29257863.55547 -22761475.59444  24548466.50600  24548465.23600  24548467.67800
        43.00000        26.00000
 -36464013.27648 -28229720.89146  22370924.19200  22370922.62900  22370921.79900
        51.00000        38.00000
 -25446643.25548 -19719314.30846  22684465.13800  22684464.50300  22684465.58800
        49.00000        36.00000
 -29969864.58448 -22495200.08345  22476978.03600  22476977.18600  22476978.72900
        48.00000        32.00000
 -20232838.60447 -15526349.51244  23660682.94300  23660681.87900  23660681.21400
        46.00000        28.00000
 -19583449.15447 -14446898.69343  24388697.11200  24388695.84200  24388695.33400
        43.00000        20.00000
 -44320365.45548 -34480435.21046  21942808.50800  21942807.87300  21942808.52800
        51.00000        40.00000
 -13728906.35546 -10308774.72942  25125227.13500  25125225.82600  25125226.24600
        39.00000        16.00000
 11 04 10 01 32 30.0000000  0  9G05G21G15G26G18G30G29G16G22           .000000000
 -29196815.06147 -22713905.45944  24560083.56600  24560082.91200  24560084.78700
        43.00000        24.00000
 -36550349.23148 -28296995.67546  22354495.01900  22354493.54400  22354492.75200
        51.00000        38.00000
 -25546150.61548 -19796852.50746  22665529.77200  22665529.08800  22665530.11400
        49.00000        36.00000
 -30011254.64548 -22527452.09845  22469102.24700  22469101.78800  22469102.06100
        49.00000        32.00000
 -20346690.76847 -15615065.49044  23639017.60000  23639016.17400  23639016.38900
        46.00000        28.00000
 -19585971.59247 -14448864.29243  24388216.44800  24388215.97900  24388215.36300
        43.00000        20.00000
 -44294665.36048 -34460409.21246  21947698.75900  21947698.08500  21947699.24800
        50.00000        40.00000
 -13776623.63846 -10345957.06342  25116146.93000  25116145.90500  25116145.89500
        39.00000        16.00000
   -913522.52955    -75413.50151  26337817.68600  26337815.50700  26337815.63400
        35.00000        10.00000
 11 04 10 01 33  0.0000000  0  9G05G21G15G26G18G30G29G16G22           .000000000
 -29135674.57747 -22666263.62644  24571718.20000  24571718.18000  24571719.43100
        43.00000        26.00000
 -36636507.35948 -28364131.89846  22338099.25300  22338098.30500  22338097.37700
        51.00000        38.00000
 -25645180.55648 -19874018.68846  22646684.99800  22646684.59700  22646685.17400
        49.00000        36.00000
 -30051919.90848 -22559139.36245  22461364.64100  22461363.77200  22461363.51800
        49.00000        34.00000
 -20460299.94047 -15703592.12844  23617398.74400  23617397.77700  23617397.05400
        46.00000        28.00000
 -19587954.14546 -14450409.22343  24387838.29300  24387838.64500  24387838.59600
        41.00000        20.00000
 -44268502.86148 -34440022.90846  21952677.51200  21952676.65200  21952677.72700
        50.00000        40.00000
 -13823788.57046 -10382709.00742  25107172.40000  25107170.79800  25107171.45300
        39.00000        16.00000
  -1048552.30145   -180631.64241  26312122.56100  26312120.94900  26312121.22300
        34.00000        10.00000
 11 04 10 01 33 30.0000000  0  9G05G21G15G26G18G30G29G16G22           .000000000
 -29074440.21747 -22618548.66344  24583371.15900  24583370.65100  24583371.95000
        43.00000        24.00000
 -36722483.27748 -28431126.14746  22321738.81000  22321737.57900  22321736.76800
        51.00000        38.00000
 -25743726.88348 -19950808.04546  22627932.88700  22627931.93000  22627932.49600
        50.00000        38.00000
 -30091856.35748 -22590258.71145  22453764.63400  22453764.30200  22453764.24300
        49.00000        34.00000
 -20573661.63647 -15791925.91144  23595827.66600  23595825.38000  23595825.44800
        47.00000        28.00000
 -19589395.67447 -14451532.56643  24387564.54300  24387564.15200  24387564.52400
        42.00000        20.00000
 -44241875.39548 -34419274.28846  21957744.92300  21957744.15100  21957744.82500
        51.00000        40.00000
 -13870397.54846 -10419027.70842  25098303.58400  25098302.13800  25098301.88400
        40.00000        16.00000
  -1183496.05446   -285782.72341  26286443.88600  26286442.41100  26286443.98400
        36.00000         8.00000
 11 04 10 01 34  0.0000000  0 10G05G21G15G06G26G18G30G29G16G22        .000000000
 -29013115.83547 -22570763.53144  24595041.27200  24595040.53900  24595041.25200
        43.00000        24.00000
 -36808277.76748 -28497979.01646  22305412.98600  22305411.69600  22305410.69000
        51.00000        38.00000
 -25841788.97348 -20027220.07646  22609271.93500  22609271.08500  22609271.76800
        49.00000        36.00000
   -921472.73846   -130734.93941  26241473.06400  26241471.42300  26241472.18500
        36.00000         8.00000
 -30131065.23448 -22620811.11545  22446303.61100  22446302.88900  22446303.66000
        49.00000        34.00000
 -20686776.58247 -15880067.43944  23574301.95200  23574300.62400  23574300.42800
        47.00000        28.00000
 -19590299.39547 -14452236.81943  24387393.75200  24387392.25800  24387392.94200
        42.00000        20.00000
 -44214786.10648 -34398165.79646  21962900.26900  21962899.43800  21962899.75100
        51.00000        40.00000
 -13916452.45246 -10454914.68942  25089539.81700  25089538.75300  25089537.32600
        40.00000        16.00000
  -1318354.36146   -390867.24241  26260781.51500  26260779.66900  26260780.45100
        36.00000         8.00000
 11 04 10 01 34 30.0000000  0 10G05G21G15G06G26G18G30G29G16G22        .000000000
 -28951703.84347 -22522910.14144  24606727.70700  24606726.83800  24606727.88300
        43.00000        24.00000
 -36893890.27448 -28564690.08046  22289121.46800  22289120.25700  22289119.31900
        51.00000        38.00000
 -25939365.26648 -20103253.55946  22590703.75300  22590702.48300  22590703.43100
        49.00000        36.00000
  -1056852.61746   -236225.91741  26215711.04500  26215710.01000  26215709.05300
        36.00000         8.00000
 -30169546.95548 -22650796.88545  22438980.60700  22438979.55200  22438981.26100
        49.00000        34.00000
 -20799645.11147 -15968016.94744  23552823.52700  23552822.27700  23552822.18900
        46.00000        28.00000
 -19590668.08847 -14452524.18343  24387322.61900  24387322.07200  24387322.83400
        42.00000        20.00000
 -44187237.09448 -34376699.06946  21968142.29000  21968141.79100  21968142.09400
        51.00000        40.00000
 -13961954.09146 -10490370.54042  25080880.52400  25080880.31800  25080878.88300
        40.00000        16.00000
  -1453126.90546   -495884.93241  26235135.13500  26235133.89400  26235133.38600
        37.00000         8.00000
 11 04 10 01 35  0.0000000  0 10G05G21G15G06G26G18G30G29G16G22        .000000000
 -28890202.91847 -22474987.46644  24618430.31000  24618430.06500  24618430.65100
        43.00000        24.00000
 -36979317.10648 -28631256.45646  22272865.14700  22272864.12100  22272863.09500
        51.00000        38.00000
 -26036450.95148 -20178904.74446  22572228.17600  22572227.43300  22572228.81100
        48.00000        36.00000
  -1192103.52545   -341616.34041  26189972.69600  26189972.38300  26189974.15100
        35.00000        10.00000
 -30207298.34748 -22680213.57345  22431797.04600  22431795.94200  22431797.58300
        49.00000        34.00000
 -20912263.35547 -16055771.42244  23531392.89900  23531391.65800  23531392.02900
        46.00000        28.00000
 -19590501.20647 -14452394.23143  24387355.20600  24387353.85800  24387354.71800
        42.00000        20.00000
 -44159226.96748 -34354873.02646  21973472.85200  21973471.83600  21973472.06000
        51.00000        40.00000
 -14006899.69846 -10525393.14642  25072328.37000  25072327.22700  25072326.30900
        40.00000        16.00000
  -1587810.22246   -600833.10241  26209505.51700  26209503.57300  26209502.90900
        36.00000         8.00000
 11 04 10 01 35 30.0000000  0 10G05G21G15G06G26G18G30G29G16G22        .000000000
 -28828617.62747 -22426999.03744  24630149.31300  24630149.03000  24630150.27000
        42.00000        24.00000
 -37064559.97948 -28697679.48946  22256644.20600  22256642.88700  22256641.88100
        51.00000        38.00000
 -26133045.95248 -20254173.57446  22553847.04000  22553846.29700  22553847.25400
        49.00000        36.00000
  -1327225.50346   -446906.28241  26164262.44000  26164258.88400  26164261.49200
        36.00000         8.00000
 -30244321.48748 -22709062.79645  22424751.67900  22424750.73200  22424752.51900
        49.00000        34.00000
 -21024632.92547 -16143332.13445  23510009.87200  23510008.64100  23510008.62200
        47.00000        30.00000
 -19589803.25747 -14451850.46443  24387487.12900  24387486.71800  24387487.55800
        42.00000        20.00000
 -44130759.59648 -34332690.70646  21978889.33600  21978888.87700  21978889.33600
        50.00000        40.00000
 -14051291.80346 -10559984.42842  25063879.99600  25063879.72200  25063879.14600
        40.00000        16.00000
  -1722405.18046   -705712.38741  26183893.17000  26183891.08000  26183890.15200
        36.00000        10.00000
 11 04 10 01 36  0.0000000  0 10G05G21G15G06G26G18G30G29G16G22        .000000000
 -28766948.63247 -22378945.41343  24641885.29400  24641884.71800  24641885.75300
        42.00000        22.00000
 -37149616.76448 -28763957.52646  22240458.40300  22240457.01500  22240455.98000
        51.00000        38.00000
 -26229146.77348 -20329057.32746  22535560.07100  22535559.47500  22535560.09000
        49.00000        38.00000
  -1462215.38145   -552093.35641  26138572.52200  26138571.63300  26138573.57700
        34.00000         6.00000
 -30280615.18548 -22737343.62045  22417844.85800  22417843.96900  22417845.66800
        49.00000        34.00000
 -21136752.28147 -16230697.86645  23488674.13400  23488672.98100  23488673.19600
        46.00000        30.00000
 -19588575.10846 -14450893.52343  24387720.95500  24387720.27100  24387720.81800
        41.00000        20.00000
 -44101835.27648 -34310152.32046  21984393.65900  21984392.83800  21984393.43400
        50.00000        40.00000
 -14095129.56146 -10594143.77943  25055538.15600  25055537.42300  25055536.83700
        40.00000        18.00000
  -1856909.73945   -810521.17642  26158297.27300  26158295.97400  26158294.99700
        35.00000        12.00000
 11 04 10 01 36 30.0000000  0 10G05G21G15G06G26G18G30G29G16G22        .000000000
 -28705200.91047 -22330830.42243  24653635.54600  24653634.85300  24653635.85900
        42.00000        22.00000
 -37234489.24248 -28830091.95146  22224307.41400  22224306.14400  22224305.34300
        51.00000        38.00000
 -26324754.38148 -20403556.76846  22517366.81000  22517366.04800  22517366.66400
        50.00000        38.00000
  -1597073.84945   -657177.92541  26112909.60300  26112908.81200  26112911.66500
        35.00000         8.00000
 -30316181.94248 -22765057.99845  22411076.06400  22411075.53600  22411077.41200
        48.00000        34.00000
 -21248623.68547 -16317870.38245  23467385.92000  23467384.90400  23467384.57200
        47.00000        30.00000
 -19586822.15846 -14449527.64243  24388053.64700  24388053.56900  24388055.12200
        41.00000        20.00000
 -44072458.47148 -34287261.35846  21989984.01200  21989983.31800  21989983.80600
        50.00000        40.00000
 -14138416.00346 -10627873.51242  25047301.68800  25047300.10500  25047300.34000
        40.00000        16.00000
  -1991325.81446   -915261.06042  26132718.55900  26132716.58500  26132716.47800
        36.00000        12.00000
 11 04 10 01 37  0.0000000  0 10G05G21G15G06G26G18G30G29G16G22        .000000000
 -28643373.86847 -22282653.61943  24665400.26600  24665400.13900  24665401.39900
        42.00000        22.00000
 -37319175.16748 -28896081.00046  22208192.28400  22208190.88800  22208190.13500
        51.00000        38.00000
 -26419864.94548 -20477668.90446  22499267.63900  22499267.10200  22499267.78600
        50.00000        38.00000
  -1731797.32445   -762157.35241  26087273.03100  26087271.04800  26087274.55400
        35.00000         8.00000
 -30351020.14848 -22792204.67645  22404446.66500  22404445.98100  22404447.87600
        48.00000        32.00000
 -21360244.77547 -16404847.85245  23446145.09200  23446143.27500  23446143.77300
        47.00000        30.00000
 -19584545.13047 -14447753.41643  24388487.93100  24388487.37500  24388488.41000
        42.00000        20.00000
 -44042629.32248 -34264017.90946  21995660.61000  21995659.68200  21995660.22900
        51.00000        40.00000
 -14181149.76646 -10661172.58142  25039168.82300  25039168.14000  25039168.68700
        39.00000        16.00000
  -2125650.83246  -1019930.02941  26107157.16300  26107155.32700  26107155.69800
        36.00000        10.00000
 11 04 10 01 37 30.0000000  0 10G05G21G15G06G26G18G30G29G16G22        .000000000
 -28581469.28547 -22234416.40843  24677180.71300  24677180.44900  24677181.99200
        42.00000        22.00000
 -37403673.05948 -28961923.53046  22192112.58500  22192111.41300  22192110.84600
        50.00000        38.00000
 -26514476.05448 -20551391.84946  22481263.75900  22481263.05600  22481263.68100
        50.00000        38.00000
  -1866383.10046   -867029.48141  26061663.67300  26061660.52700  26061663.33100
        37.00000         8.00000
 -30385129.48048 -22818783.39745  22397956.28000  22397955.49900  22397956.73900
        48.00000        32.00000
 -21471614.71447 -16491629.62545  23424951.59100  23424950.36100  23424950.67300
        46.00000        30.00000
 -19581745.60846 -14445572.02643  24389020.27100  24389020.60300  24389021.42300
        41.00000        20.00000
 -44012348.75048 -34240422.69346  22001423.03300  22001422.04600  22001422.58400
        51.00000        40.00000
 -14223330.67146 -10694040.85642  25031142.09300  25031141.07700  25031142.13200
        39.00000        16.00000
  -2259883.22846  -1124526.81242  26081615.18800  26081612.70700  26081612.77500
        38.00000        12.00000
 11 04 10 01 38  0.0000000  0 10G05G21G15G06G26G18G30G29G16G22        .000000000
 -28519486.86447 -22186118.54943  24688975.77300  24688975.19700  24688977.16000
        42.00000        22.00000
 -37487979.95748 -29027617.23446  22176069.18600  22176068.09100  22176067.70100
        50.00000        38.00000
 -26608582.94448 -20624721.88946  22463355.23800  22463354.77900  22463355.59000
        49.00000        36.00000
  -2000826.76446   -971790.89441  26036078.49100  26036076.94800  26036079.26300
        37.00000        10.00000
 -30418507.12648 -22844791.96945  22391604.58700  22391603.80600  22391605.28100
        48.00000        32.00000
 -21582730.50247 -16578213.35445  23403807.24600  23403805.87800  23403805.90800
        47.00000        30.00000
 -19578423.50946 -14442983.43043  24389652.68700  24389652.24700  24389654.51400
        41.00000        20.00000
 -43981616.00248 -34216475.14046  22007271.30100  22007270.75400  22007270.81200
        51.00000        40.00000
 -14264956.78146 -10726476.81542  25023220.93900  25023219.57100  25023221.10500
        39.00000        16.00000
  -2394019.81646  -1229048.91642  26056090.00400  26056088.12900  26056087.72800
        38.00000        14.00000
 11 04 10 01 38 30.0000000  0 10G05G21G15G06G26G18G30G29G16G22        .000000000
 -28457432.77047 -22137764.84643  24700784.10900  24700783.51300  24700786.11100
        42.00000        22.00000
 -37572099.09848 -29093164.63346  22160062.44700  22160060.77600  22160060.28800
        50.00000        38.00000
 -26702188.00548 -20697660.89546  22445543.08200  22445542.26200  22445542.93600
        49.00000        36.00000
  -2135130.35846  -1076443.16641  26010521.53100  26010520.11500  26010522.28300
        37.00000        10.00000
 -30451157.72548 -22870234.01445  22385391.64500  22385390.90300  22385392.18200
        48.00000        32.00000
 -21693595.79447 -16664601.89545  23382709.98400  23382708.76300  23382709.33000
        47.00000        30.00000
 -19574585.18247 -14439992.60243  24390383.56900  24390382.29900  24390384.92700
        42.00000        20.00000
 -43950437.03748 -34192179.88346  22013204.71000  22013203.74300  22013204.00700
        51.00000        40.00000
 -14306032.75246 -10758484.11442  25015404.28800  25015403.17400  25015404.37600
        39.00000        16.00000
  -2528064.05746  -1333499.07642  26030580.88000  26030579.81500  26030579.57100
        36.00000        12.00000
 11 04 10 01 39  0.0000000  0 10G05G21G15G06G26G18G30G29G16G22        .000000000
 -28395308.06547 -22089356.12144  24712606.31500  24712605.72900  24712608.25900
        42.00000        24.00000
 -37656028.96348 -29158564.54246  22144091.05000  22144089.52600  22144089.06700
        50.00000        38.00000
 -26795288.59048 -20770206.80646  22427826.74500  22427826.10000  22427826.51000
        49.00000        36.00000
  -2269291.40646  -1180984.33941  25984991.70700  25984990.41800  25984991.73700
        36.00000        10.00000
 -30483080.60448 -22895109.00545  22379317.03300  22379316.28100  22379317.61900
        48.00000        34.00000
 -21804209.05747 -16750794.04045  23361661.73100  23361660.22600  23361659.67900
        47.00000        30.00000
 -19570232.58846 -14436601.04243  24391211.07100  24391210.89500  24391213.02400
        41.00000        20.00000
 -43918812.87848 -34167537.72346  22019222.44100  22019221.29800  22019221.87400
        51.00000        40.00000
 -14346558.09446 -10790062.33642  25007692.49100  25007691.44600  25007692.45200
        39.00000        16.00000
  -2662013.78746  -1437875.57542  26005089.80800  26005089.44600  26005090.09100
        36.00000        14.00000
 11 04 10 01 39 30.0000000  0 10G05G21G15G06G26G18G30G29G16G22        .000000000
 -28333111.22847 -22040891.17044  24724441.95300  24724442.42200  24724443.88800
        42.00000        24.00000
 -37739765.53948 -29223813.83446  22128156.59700  22128155.16100  22128154.60400
        51.00000        38.00000
 -26887879.65848 -20842355.69446  22410207.28100  22410206.82200  22410207.11500
        50.00000        36.00000
  -2403304.64345  -1285410.34141  25959488.60000  25959487.96600  25959490.08500
        35.00000        10.00000
 -30514272.86148 -22919414.69245  22373381.69000  22373380.88900  22373381.69000
        49.00000        34.00000
 -21914567.00347 -16836787.23845  23340661.17600  23340659.84800  23340659.93600
        47.00000        30.00000
 -19565365.38746 -14432808.49343  24392137.58500  24392137.05700  24392138.56100
        41.00000        20.00000
 -43886742.03448 -34142547.50146  22025325.02000  22025324.02300  22025324.98100
        50.00000        40.00000
 -14386530.42146 -10821209.65742  25000086.79800  25000084.83500  25000086.33900
        39.00000        16.00000
  -2795865.40946  -1542175.61142  25979620.40200  25979618.41900  25979618.76000
        37.00000        12.00000
 11 04 10 01 40  0.0000000  0 10G05G21G15G06G26G18G30G29G16G22        .000000000
 -28270846.14647 -21992373.05844  24736291.18900  24736290.39800  24736292.73300
        42.00000        24.00000
 -37823310.02148 -29288913.44046  22112258.75600  22112257.35000  22112256.50000
        51.00000        38.00000
 -26979960.77848 -20914107.23746  22392685.28600  22392684.48500  22392685.00300
        50.00000        38.00000
  -2537169.64946  -1389720.77841  25934015.93200  25934014.30000  25934016.39100
        36.00000        10.00000
 -30544736.29348 -22943152.46445  22367584.69600  22367583.93400  22367584.35400
        49.00000        34.00000
 -22024670.52548 -16922582.20045  23319709.65900  23319707.86200  23319707.57800
        48.00000        30.00000
 -19559987.34046 -14428617.86443  24393161.61700  24393160.55200  24393161.80200
        41.00000        20.00000
 -43854227.97948 -34117211.92546  22031512.09500  22031511.47000  22031512.34900
        50.00000        40.00000
 -14425951.80946 -10851927.65342  24992583.81000  24992583.87900  24992584.54300
        38.00000        16.00000
  -2929619.83546  -1646399.91942  25954168.26600  25954165.70700  25954165.83400
        38.00000        12.00000
 11 04 10 01 40 30.0000000  0 10G05G21G15G06G26G18G30G29G16G22        .000000000
 -28208513.28347 -21943802.12543  24748152.28400  24748152.25500  24748153.66100
        42.00000        22.00000
 -37906660.29148 -29353861.71346  22096397.79200  22096396.52200  22096395.58400
        51.00000        38.00000
 -27071528.96448 -20985459.07946  22375260.20300  22375259.75400  22375260.30100
        50.00000        38.00000
  -2670883.19246  -1493913.24642  25908570.34100  25908569.24700  25908571.54300
        36.00000        12.00000
 -30574470.04348 -22966321.65845  22361926.68700  22361926.00300  22361925.69100
        49.00000        34.00000
 -22134518.58847 -17008178.09745  23298805.80200  23298804.44400  23298804.46400
        47.00000        30.00000
 -19554099.67747 -14424030.14943  24394282.48300  24394280.74400  24394282.37500
        42.00000        20.00000
 -43821271.34148 -34091531.47446  22037783.59900  22037783.01300  22037783.85300
        50.00000        40.00000
 -14464821.75046 -10882215.96742  24985188.04100  24985187.35700  24985187.95300
        40.00000        16.00000
  -3063274.98046  -1750546.87942  25928733.55700  25928732.62000  25928732.10200
        36.00000        14.00000
 11 04 10 01 41  0.0000000  0 10G05G21G15G06G26G18G30G29G16G22        .000000000
 -28146114.44647 -21895179.77244  24760028.12900  24760026.56600  24760028.27600
        43.00000        24.00000
 -37989815.30848 -29418657.84846  22080573.53600  22080572.56900  22080571.83700
        51.00000        38.00000
 -27162582.23548 -21056409.68246  22357933.36200  22357932.64900  22357933.51800
        50.00000        38.00000
  -2804443.16846  -1597986.04742  25883154.64200  25883154.08500  25883155.84300
        36.00000        12.00000
 -30603474.07548 -22988922.23445  22356407.21400  22356405.95400  22356406.49100
        49.00000        32.00000
 -22244110.00148 -17093573.99845  23277951.88100  23277950.29900  23277949.74200
        48.00000        30.00000
 -19547704.76046 -14419047.16043  24395498.87400  24395498.23900  24395499.05000
        41.00000        20.00000
 -43787873.55248 -34065507.27746  22044138.89600  22044138.31000  22044139.13100
        50.00000        40.00000
 -14503140.57046 -10912074.82142  24977896.00200  24977895.43600  24977895.49400
        39.00000        16.00000
  -3196829.74946  -1854615.56742  25903319.88000  25903317.87800  25903317.97500
        38.00000        12.00000
 11 04 10 01 41 30.0000000  0 10G05G21G15G06G26G18G30G29G16G22        .000000000
 -28083649.45646 -21846505.88443  24771912.62900  24771912.99000  24771915.27600
        41.00000        22.00000
 -38072772.05148 -29483299.48246  22064788.00300  22064786.57700  22064785.71700
        51.00000        38.00000
 -27253116.48748 -21126955.85046  22340705.03500  22340704.14600  22340705.32800
        49.00000        38.00000
  -2937845.14546  -1701935.68642  25857769.08800  25857768.18900  25857770.90500
        37.00000        12.00000
 -30631746.66348 -23010952.85045  22351027.71200  22351026.25700  22351026.74500
        49.00000        34.00000
 -22353442.18848 -17178767.90645  23257145.86500  23257144.44800  23257144.52600
        48.00000        30.00000
 -19540803.05347 -14413669.25543  24396812.79400  24396811.97300  24396812.63700
        42.00000        18.00000
 -43754034.39748 -34039139.14846  22050578.47500  22050577.69400  22050578.64100
        50.00000        40.00000
 -14540906.72146 -10941503.04342  24970710.33100  24970708.84700  24970708.80800
        40.00000        16.00000
  -3330281.14246  -1958603.76442  25877924.83100  25877922.85800  25877923.12200
        38.00000        14.00000
 11 04 10 01 42  0.0000000  0 10G05G21G15G06G26G18G30G29G16G22        .000000000
 -28021121.72446 -21797783.11243  24783811.75200  24783811.25400  24783814.28200
        41.00000        22.00000
 -38155531.43948 -29547787.33346  22049039.05200  22049037.75300  22049036.94200
        51.00000        38.00000
 -27343131.67948 -21197097.54746  22323575.50500  22323574.82100  22323575.73000
        49.00000        38.00000
  -3071089.03446  -1805762.17042  25832413.41500  25832413.24000  25832415.53500
        36.00000        12.00000
 -30659289.68648 -23032414.97145  22345786.49200  22345785.54500  22345785.60300
        49.00000        34.00000
 -22462516.67947 -17263761.01045  23236389.76500  23236388.33800  23236388.54300
        47.00000        30.00000
 -19533398.78847 -14407899.77243  24398222.46300  24398221.09500  24398221.22200
        42.00000        18.00000
 -43719757.31348 -34012429.78346  22057100.80300  22057100.32400  22057101.10600
        50.00000        40.00000
 -14578122.65046 -10970502.49943  24963628.08900  24963627.13100  24963626.67200
        39.00000        18.00000
  -3463629.80046  -2062511.90742  25852548.46000  25852547.61900  25852547.95200
        38.00000        14.00000
 11 04 10 01 42 30.0000000  0 10G05G21G15G06G26G18G30G29G16G22        .000000000
 -27958531.25947 -21749011.48443  24795723.67200  24795721.77700  24795725.22500
        42.00000        22.00000
 -38238090.45248 -29612119.05046  22033328.19900  22033326.99700  22033326.55700
        50.00000        38.00000
 -27432623.53948 -21266831.45446  22306545.64300  22306545.33000  22306546.03300
        49.00000        38.00000
  -3204170.39846  -1909461.99042  25807089.61700  25807089.00200  25807091.53200
        37.00000        14.00000
 -30686101.74048 -23053307.50045  22340684.02300  22340683.10400  22340683.48500
        49.00000        34.00000
 -22571331.01347 -17348551.39745  23215682.72100  23215681.14900  23215682.12600
        47.00000        30.00000
 -19525492.21947 -14401738.86243  24399727.21800  24399725.76200  24399726.31000
        42.00000        20.00000
 -43685041.93348 -33985378.88946  22063707.32400  22063706.55200  22063707.34300
        50.00000        40.00000
 -14614786.54746 -10999071.80243  24956650.95400  24956650.35800  24956649.78200
        39.00000        18.00000
  -3596873.02346  -2166337.89342  25827193.19700  25827192.33800  25827192.21100
        36.00000        14.00000
 11 04 10 01 43  0.0000000  0 10G05G21G15G06G26G18G30G29G16G22        .000000000
 -27895879.38946 -21700191.98643  24807644.95000  24807643.96300  24807647.24500
        41.00000        22.00000
 -38320448.04848 -29676293.82546  22017656.33000  22017654.91400  22017654.43500
        51.00000        38.00000
 -27521590.38148 -21336156.27346  22289616.45300  22289615.68200  22289615.98400
        50.00000        38.00000
  -3337087.10546  -2013033.52042  25781796.92200  25781795.83700  25781798.26000
        37.00000        14.00000
 -30712182.76048 -23073630.39445  22335720.56700  22335719.94200  22335720.16700
        49.00000        34.00000
 -22679884.21047 -17433138.29745  23195025.57500  23195024.52000  23195024.72500
        47.00000        30.00000
 -19517086.00747 -14395188.62943  24401326.93200  24401325.73000  24401325.77900
        42.00000        20.00000
 -43649890.16548 -33957987.94646  22070397.01300  22070395.97800  22070396.73000
        50.00000        40.00000
 -14650899.19746 -11027211.56743  24949779.52300  24949778.38100  24949778.10700
        40.00000        18.00000
  -3730009.74546  -2270080.84442  25801858.35100  25801856.36800  25801857.23800
        37.00000        14.00000
 11 04 10 01 43 30.0000000  0 10G05G21G15G06G26G18G30G29G16G22        .000000000
 -27833172.09746 -21651329.29343  24819578.40900  24819577.10900  24819579.90300
        41.00000        22.00000
 -38402607.64348 -29740314.30246  22002021.56300  22002020.43900  22002020.00000
        50.00000        38.00000
 -27610034.35048 -21405073.67346  22272786.23800  22272785.45600  22272785.51500
        50.00000        38.00000
  -3469841.28846  -2116478.39342  25756534.38100  25756533.39500  25756536.19800
        37.00000        12.00000
 -30737537.22148 -23093387.13945  22330896.18500  22330895.18800  22330895.69600
        49.00000        34.00000
 -22788179.91747 -17517524.55845  23174417.36900  23174416.56800  23174416.47000
        47.00000        30.00000
 -19508186.82847 -14388254.26443  24403019.57200  24403019.23000  24403019.13300
        42.00000        18.00000
 -43614307.84148 -33930261.50646  22077167.68300  22077167.21400  22077167.88800
        50.00000        40.00000
 -14686465.09446 -11054925.29442  24943011.03200  24943010.06500  24943010.30900
        39.00000        16.00000
  -3863043.22146  -2373743.35942  25776544.09700  25776541.45000  25776541.76200
        39.00000        14.00000
 11 04 10 01 44  0.0000000  0 10G05G21G15G06G26G18G30G29G16G22        .000000000
 -27770408.23547 -21602422.51043  24831522.31000  24831521.54800  24831523.42400
        42.00000        22.00000
 -38484565.28848 -29804177.41346  21986425.91800  21986424.46200  21986423.99300
        51.00000        38.00000
 -27697950.67748 -21473579.91446  22256055.80600  22256055.43500  22256055.52300
        50.00000        36.00000
  -3602427.73946  -2219792.54942  25731303.30500  25731302.26000  25731305.81500
        36.00000        14.00000
 -30762162.99048 -23112576.07745  22326209.74200  22326208.93100  22326209.45900
        49.00000        32.00000
 -22896214.87047 -17601707.62745  23153859.40200  23153858.39500  23153857.82900
        47.00000        30.00000
 -19498794.38747 -14380935.53743  24404806.85900  24404806.77100  24404806.81000
        42.00000        18.00000
 -43578293.71548 -33902198.59846  22084021.07100  22084020.31900  22084021.01300
        50.00000        38.00000
 -14721482.13446 -11082211.33743  24936347.98100  24936346.92600  24936346.70200
        40.00000        18.00000
  -3995969.74446  -2477322.56842  25751248.49000  25751247.15200  25751246.13600
        37.00000        14.00000
 11 04 10 01 44 30.0000000  0 10G05G21G15G06G26G18G30G29G16G22        .000000000
 -27707591.12747 -21553474.23843  24843476.07800  24843475.48200  24843477.11300
        42.00000        20.00000
 -38566321.85448 -29867883.84146  21970868.23200  21970866.73800  21970866.30800
        50.00000        38.00000
 -27785339.51948 -21541675.12146  22239425.85200  22239425.62800  22239426.34100
        49.00000        38.00000
  -3734846.18446  -2322975.77942  25706105.08900  25706103.63400  25706107.72700
        36.00000        14.00000
 -30786062.02048 -23131198.72045  22321662.10800  22321661.15100  22321661.81500
        49.00000        32.00000
 -23003990.65048 -17685688.74345  23133350.54000  23133349.29000  23133348.83000
        48.00000        30.00000
 -19488912.88347 -14373235.71643  24406687.42400  24406687.43400  24406686.92600
        42.00000        18.00000
 -43541851.55548 -33873802.16346  22090955.83100  22090955.10800  22090955.79200
        50.00000        38.00000
 -14755952.82146 -11109071.64043  24929788.33900  24929787.13700  24929787.12700
        40.00000        18.00000
  -4128789.91746  -2580818.84342  25725974.00300  25725972.11800  25725971.65900
        37.00000        12.00000
 11 04 10 01 45  0.0000000  0 10G05G21G15G06G26G18G30G29G16G22        .000000000
 -27644720.32246 -21504484.16343  24855439.37900  24855439.07600  24855441.15700
        41.00000        22.00000
 -38647873.84448 -29931430.85346  21955348.99600  21955347.83300  21955347.44300
        50.00000        38.00000
 -27872196.16648 -21609355.62446  22222898.03700  22222897.11900  22222898.27200
        49.00000        38.00000
  -3867091.68945  -2426024.26042  25680938.90500  25680938.05500  25680942.46000
        35.00000        12.00000
 -30809232.27548 -23149253.47345  22317252.28700  22317251.48600  22317252.87300
        48.00000        34.00000
 -23111503.72848 -17769465.15945  23112891.48700  23112890.07100  23112890.20800
        48.00000        30.00000
 -19478541.87047 -14365154.46843  24408660.40800  24408661.11100  24408660.62300
        42.00000        18.00000
 -43504980.14648 -33845071.24946  22097971.80400  22097971.42400  22097972.31200
        50.00000        38.00000
 -14789874.95046 -11135504.50843  24923332.90500  24923331.76200  24923332.01600
        40.00000        18.00000
  -4261500.23646  -2684229.53642  25700719.78500  25700718.76900  25700717.89000
        37.00000        12.00000
 11 04 10 01 45 30.0000000  0 10G05G21G15G06G26G18G30G29G16G22        .000000000
 -27581802.22147 -21455457.21643  24867413.73900  24867412.49800  24867414.20700
        42.00000        22.00000
 -38729225.18348 -29994821.52346  21939868.59800  21939867.35800  21939866.72300
        51.00000        38.00000
 -27958523.60448 -21676623.74746  22206470.33900  22206469.67400  22206470.65100
        49.00000        38.00000
  -3999166.91246  -2528940.04242  25655806.54800  25655805.37600  25655808.51100
        36.00000        12.00000
 -30831678.95048 -23166744.39345  22312981.28500  22312980.80600  22312981.58800
        48.00000        32.00000
 -23218758.49948 -17853040.29845  23092481.88300  23092480.58300  23092479.96800
        48.00000        30.00000
 -19467689.07246 -14356697.79143  24410725.13700  24410725.78200  24410725.81100
        41.00000        18.00000
 -43467686.48548 -33816011.30546  22105068.72900  22105068.15300  22105069.17800
        50.00000        40.00000
 -14823254.05746 -11161514.25543  24916981.05600  24916979.74700  24916980.08900
        40.00000        18.00000
  -4394104.78346  -2787557.83641  25675486.72600  25675485.26100  25675483.92200
        38.00000        10.00000
 11 04 10 01 46  0.0000000  0 10G05G21G15G06G26G18G30G29G16G22        .000000000
 -27518836.97546 -21406393.49843  24879394.67200  24879394.74100  24879396.52800
        41.00000        22.00000
 -38810373.34848 -30058053.87346  21924426.52200  21924425.34000  21924424.78300
        50.00000        38.00000
 -28044318.65548 -21743477.03346  22190144.63200  22190143.77200  22190144.38800
        50.00000        38.00000
  -4131068.35246  -2631720.46742  25630707.27700  25630705.61600  25630708.20500
        37.00000        12.00000
 -30853401.16748 -23183670.80645  22308848.02700  22308847.06000  22308847.82200
        49.00000        34.00000
 -23325753.12448 -17936412.73245  23072121.34400  23072119.94800  23072119.60600
        48.00000        30.00000
 -19456355.80846 -14347866.74343  24412881.94300  24412882.12900  24412882.52900
        41.00000        18.00000
 -43429970.85448 -33786622.55546  22112246.23300  22112245.57900  22112246.37000
        50.00000        40.00000
 -14856089.51346 -11187100.37642  24910732.59600  24910731.30700  24910731.81500
        40.00000        16.00000
  -4526601.22146  -2890801.89542  25650271.37700  25650271.66000  25650271.30800
        37.00000        12.00000
 11 04 10 01 46 30.0000000  0 10G05G21G15G06G26G18G30G29G16G22        .000000000
 -27455825.99746 -21357294.22043  24891385.42300  24891384.78800  24891386.86900
        41.00000        20.00000
 -38891317.38248 -30121127.16546  21909023.73500  21909022.47500  21909021.69300
        51.00000        38.00000
 -28129579.63448 -21809914.16246  22173919.57900  22173919.22700  22173919.67700
        50.00000        38.00000
  -4262793.78146  -2734363.69742  25605641.14900  25605639.31300  25605642.58500
        37.00000        12.00000
 -30874399.48548 -23200033.14245  22304851.81000  22304850.64800  22304851.97600
        48.00000        34.00000
 -23432486.85248 -18019581.86845  23051810.39100  23051809.19900  23051809.18900
        48.00000        32.00000
 -19444544.40446 -14338663.13443  24415130.05400  24415129.26300  24415130.25000
        41.00000        18.00000
 -43391834.95648 -33756906.33146  22119503.40900  22119502.49000  22119503.23300
        50.00000        40.00000
 -14888381.98646 -11212263.40843  24904587.38800  24904586.32300  24904587.55400
        39.00000        18.00000
  -4658988.42246  -2993960.78242  25625080.23400  25625077.88900  25625079.09100
        37.00000        12.00000
 11 04 10 01 47  0.0000000  0 10G05G21G15G06G26G18G30G29G16G22        .000000000
 -27392771.91846 -21308161.27243  24903384.56500  24903384.21300  24903385.02400
        41.00000        20.00000
 -38972056.99648 -30184041.17446  21893659.73700  21893658.18400  21893657.38300
        51.00000        38.00000
 -28214305.50548 -21875934.33646  22157797.05500  22157796.37100  22157796.72300
        50.00000        38.00000
  -4394342.04746  -2836868.88242  25580606.96500  25580606.92600  25580609.07500
        36.00000        14.00000
 -30894675.49048 -23215832.64545  22300992.86900  22300992.04800  22300993.67000
        48.00000        32.00000
 -23538960.28748 -18102548.17345  23031549.05100  23031547.62500  23031547.88800
        48.00000        32.00000
 -19432258.41046 -14329089.71443  24417467.59500  24417467.11700  24417467.74200
        41.00000        20.00000
 -43353281.82548 -33726864.98846  22126840.05000  22126838.97600  22126839.81600
        50.00000        40.00000
 -14920133.38846 -11237004.79242  24898544.75800  24898543.97600  24898544.97300
        39.00000        16.00000
  -4791266.57046  -3097034.67542  25599910.25900  25599907.08400  25599907.13300
        39.00000        14.00000
 11 04 10 01 47 30.0000000  0 10G05G21G15G06G26G18G30G29G16G22        .000000000
 -27329675.01946 -21258994.99943  24915391.92200  24915391.67800  24915392.92800
        41.00000        22.00000
 -39052589.72348 -30246793.96446  21878334.33500  21878333.32900  21878332.61600
        51.00000        38.00000
 -28298493.10448 -21941535.07746  22141776.18100  22141775.66300  22141776.00500
        49.00000        38.00000
  -4525708.85646  -2939232.67742  25555609.51000  25555608.99200  25555610.60400
        37.00000        14.00000
 -30914228.00348 -23231068.37745  22297272.17000  22297271.63300  22297272.91200
        48.00000        32.00000
 -23645171.21248 -18185309.93045  23011337.86200  23011336.77800  23011336.45500
        48.00000        32.00000
 -19419498.67846 -14319147.13943  24419896.45200  24419895.64100  24419896.28600
        41.00000        20.00000
 -43314311.22948 -33696498.34346  22134255.87400  22134254.65300  22134255.46400
        50.00000        38.00000
 -14951342.34846 -11261323.51142  24892605.61400  24892604.68600  24892606.06400
        39.00000        16.00000
  -4923432.80246  -3200021.40842  25574758.90200  25574757.94500  25574756.02100
        39.00000        14.00000
 11 04 10 01 48  0.0000000  0 10G05G21G15G06G26G18G30G29G16G22        .000000000
 -27266532.81246 -21209793.42443  24927406.36100  24927407.01600  24927408.68600
        40.00000        20.00000
 -39132910.79548 -30309381.83046  21863049.93100  21863048.68100  21863048.15300
        51.00000        38.00000
 -28382136.55948 -22006711.81346  22125859.44800  22125858.61800  22125859.29200
        49.00000        38.00000
  -4656888.47446  -3041450.59242  25530647.68000  25530646.28300  25530648.20800
        38.00000        14.00000
 -30933053.89347 -23245737.91345  22293689.10800  22293688.99100  22293690.30000
        47.00000        32.00000
 -23751115.18148 -18267863.66745  22991177.20500  22991175.95500  22991176.08200
        48.00000        32.00000
 -19406264.28147 -14308834.70343  24422415.54800  24422414.41500  24422415.37300
        42.00000        18.00000
 -43274921.37048 -33665805.00346  22141751.14500  22141750.38300  22141751.11500
        50.00000        38.00000
 -14982006.18946 -11285217.45942  24886771.08100  24886769.40100  24886771.37400
        39.00000        16.00000
  -5055482.53946  -3302917.31542  25549630.40400  25549629.64200  25549628.30400
        38.00000        14.00000
 11 04 10 01 48 30.0000000  0 10G05G21G15G06G26G18G30G29G16G22        .000000000
 -27203346.16546 -21160557.22743  24939429.99200  24939430.91100  24939432.60000
        39.00000        18.00000
 -39213018.48948 -30371803.43746  21847806.28100  21847804.76700  21847804.09300
        51.00000        38.00000
 -28465233.42948 -22071462.63446  22110046.51500  22110046.00700  22110046.65100
        49.00000        38.00000
  -4787877.87046  -3143520.31042  25505721.41700  25505719.82500  25505721.60300
        38.00000        14.00000
 -30951153.10148 -23259841.22445  22290246.01700  22290245.15800  22290246.43700
        48.00000        32.00000
 -23856791.25748 -18350208.66645  22971067.91000  22971066.61100  22971066.39600
        48.00000        32.00000
 -19392556.88847 -14298153.68643  24425023.59600  24425023.31300  24425024.06500
        42.00000        18.00000
 -43235113.58648 -33634786.00146  22149326.27200  22149325.59800  22149326.34000
        50.00000        38.00000
 -15012124.89146 -11308686.62342  24881039.01800  24881037.89400  24881040.42400
        39.00000        16.00000
  -5187414.24546  -3405721.26742  25524525.82800  25524523.86500  25524523.13200
        39.00000        14.00000
 11 04 10 01 49  0.0000000  0 10G05G21G15G06G26G18G30G29G16G22        .000000000
 -27140119.37646 -21111289.76843  24951462.46400  24951462.31700  24951464.95500
        40.00000        18.00000
 -39292914.44548 -30434060.05146  21832602.29000  21832601.10800  21832600.30700
        51.00000        40.00000
 -28547784.60648 -22135788.23346  22094338.23000  22094337.42900  22094337.83000
        50.00000        38.00000
  -4918677.08846  -3245441.83342  25480829.66600  25480829.56800  25480831.65900
        37.00000        12.00000
 -30968528.48248 -23273380.50745  22286939.58700  22286938.38500  22286940.63200
        48.00000        34.00000
 -23962201.19748 -18432346.28845  22951008.64000  22951007.54600  22951007.77000
        48.00000        32.00000
 -19378381.37046 -14287107.88743  24427720.32200  24427720.12600  24427721.66000
        41.00000        18.00000
 -43194891.94648 -33603444.51546  22156980.49400  22156979.55600  22156980.50400
        50.00000        38.00000
 -15041701.41946 -11331733.30042  24875410.80300  24875409.59100  24875412.58000
        38.00000        16.00000
  -5319229.27346  -3508434.32742  25499441.00500  25499439.97900  25499439.69600
        38.00000        14.00000
 11 04 10 01 49 30.0000000  0 10G05G21G15G06G26G18G30G29G16G22        .000000000
 -27076854.65446 -21061992.73443  24963501.15800  24963500.67900  24963503.68800
        39.00000        18.00000
 -39372597.75748 -30496150.97046  21817439.24900  21817438.01800  21817437.12900
        51.00000        38.00000
 -28629789.30648 -22199688.00646  22078732.68000  22078732.36700  22078733.12900
        50.00000        38.00000
  -5049284.75846  -3347214.08942  25455977.39900  25455975.29900  25455977.31100
        38.00000        12.00000
 -30985182.02648 -23286357.31345  22283770.59800  22283769.54300  22283771.39900
        48.00000        34.00000
 -24067345.63348 -18514277.02745  22931000.52600  22930999.54900  22930999.05100
        48.00000        32.00000
 -19363741.74846 -14275700.47443  24430507.66900  24430505.98800  24430507.97100
        41.00000        18.00000
 -43154258.93148 -33571782.47846  22164712.53100  22164711.80900  22164712.99100
        50.00000        38.00000
 -15070737.71846 -11354359.03642  24869885.68300  24869883.73900  24869887.33400
        38.00000        16.00000
  -5450927.14546  -3611056.04742  25474379.90800  25474378.13000  25474378.38400
        38.00000        14.00000
 11 04 10 01 50  0.0000000  0 10G05G21G15G06G26G18G30G29G16G22        .000000000
 -27013555.51046 -21012668.86943  24975546.38700  24975545.87900  24975548.80000
        39.00000        18.00000
 -39452069.90748 -30558077.33446  21802316.44300  21802315.01700  21802314.14800
        51.00000        38.00000
 -28711247.79048 -22263162.15146  22063231.96400  22063231.39700  22063231.98300
        50.00000        38.00000
  -5179700.70446  -3448836.94942  25431160.52300  25431158.49100  25431160.96200
        38.00000        14.00000
 -31001116.28648 -23298773.64245  22280737.92700  22280737.37000  22280739.05100
        48.00000        34.00000
 -24172225.93948 -18596001.94445  22911042.24100  22911041.02000  22911041.36200
        48.00000        32.00000
 -19348642.39146 -14263934.81842  24433379.41500  24433378.59400  24433380.82100
        40.00000        16.00000
 -43113218.67648 -33539803.11046  22172522.17900  22172521.52400  22172522.72600
        49.00000        38.00000
 -15099236.50546 -11376565.92842  24864462.91700  24864460.96400  24864464.71500
        39.00000        16.00000
  -5582509.51246  -3713587.78142  25449339.70700  25449339.11100  25449339.46200
        38.00000        16.00000
 11 04 10 01 50 30.0000000  0 10G05G21G15G06G26G18G30G29G16G22        .000000000
 -26950220.92346 -20963317.40743  24987600.01700  24987598.36600  24987600.97500
        41.00000        18.00000
 -39531326.93448 -30619836.06846  21787234.06000  21787232.74100  21787231.90100
        51.00000        38.00000
 -28792155.64048 -22326207.22346  22047835.60400  22047834.95900  22047835.74100
        50.00000        38.00000
  -5309919.99446  -3550306.53242  25406380.10200  25406378.93000  25406381.54800
        38.00000        14.00000
 -31016329.31748 -23310627.99045  22277843.53800  22277842.57100  22277844.30000
        48.00000        34.00000
 -24276838.72948 -18677518.41145  22891135.61200  22891134.21500  22891134.03900
        48.00000        32.00000
 -19333083.30746 -14251810.92942  24436339.58400  24436339.17400  24436341.19600
        39.00000        16.00000
 -43071770.41348 -33507505.81246  22180409.75800  22180408.98700  22180409.84600
        50.00000        38.00000
 -15127195.63146 -11398352.29942  24859142.92500  24859140.85400  24859144.42900
        39.00000        16.00000
  -5713972.72946  -3816026.69142  25424323.61300  25424321.86500  25424322.74400
        38.00000        14.00000
 11 04 10 01 51  0.0000000  0 11G05G21G15G06G26G18G30G08G29G16G22     .000000000
 -26886849.00846 -20913936.82943  24999659.23500  24999658.28700  24999659.58700
        40.00000        18.00000
 -39610364.46248 -30681423.77046  21772193.59200  21772192.51800  21772191.83400
        51.00000        38.00000
 -28872507.79448 -22388819.28946  22032544.99700  22032544.36200  22032545.16300
        50.00000        38.00000
  -5439937.03446  -3651618.53742  25381639.57500  25381637.98300  25381639.96600
        38.00000        14.00000
 -31030818.66248 -23321918.41945  22275086.39500  22275085.61300  22275087.01000
        48.00000        34.00000
 -24381180.42948 -18758823.63245  22871280.05200  22871278.39100  22871278.30300
        48.00000        32.00000
 -19317063.98846 -14239328.42943  24439389.57500  24439387.40600  24439390.07300
        41.00000        18.00000
   -741037.82946    -51267.21541  26656975.94500  26656974.51900  26656977.36200
        38.00000        10.00000
 -43029912.65948 -33474889.43946  22188374.72300  22188374.26400  22188375.17300
        50.00000        38.00000
 -15154612.89946 -11419716.44242  24853926.20400  24853923.52700  24853927.24900
        40.00000        16.00000
  -5845312.46346  -3918369.38542  25399331.44300  25399328.74700  25399329.98700
        39.00000        16.00000
 11 04 10 01 51 30.0000000  0 11G05G21G15G06G26G18G30G08G29G16G22     .000000000
 -26823445.00246 -20864531.25243  25011725.17300  25011724.28400  25011724.90900
        40.00000        18.00000
 -39689185.10148 -30742842.46046  21757194.72800  21757193.54600  21757192.90200
        51.00000        40.00000
 -28952306.31648 -22450999.95846  22017359.84000  22017359.14600  22017359.80100
        50.00000        38.00000
  -5569753.05746  -3752773.92542  25356936.00300  25356934.79200  25356936.75500
        38.00000        12.00000
 -31044588.87648 -23332648.48245  22272465.90200  22272465.30600  22272466.61500
        48.00000        34.00000
 -24485253.97448 -18839919.90845  22851475.83400  22851474.37900  22851474.17300
        48.00000        32.00000
 -19300590.51146 -14226492.01542  24442524.84300  24442522.70400  24442524.30600
        41.00000        16.00000
   -802530.56546    -99183.84341  26645273.52900  26645273.29400  26645274.76900
        37.00000         8.00000
 -42987651.01648 -33441958.34646  22196417.14200  22196416.50700  22196417.37600
        50.00000        38.00000
 -15181492.88246 -11440661.94242  24848809.34500  24848808.59300  24848812.37400
        39.00000        16.00000
  -5976531.01546  -4020617.62642  25374361.23200  25374358.46700  25374359.68800
        39.00000        16.00000
 11 04 10 01 52  0.0000000  0 10G05G21G15G06G26G18G30G29G16G22        .000000000
 -26760007.11846 -20815099.26543  25023797.44100  25023796.74800  25023796.95300
        40.00000        18.00000
 -39767784.64648 -30804088.86846  21742237.90800  21742236.57900  21742235.81700
        51.00000        40.00000
 -29031546.15648 -22512745.29146  22002281.09000  22002280.48400  22002280.93400
        49.00000        38.00000
  -5699362.21746  -3853768.12042  25332272.54900  25332270.46800  25332273.69200
        38.00000        12.00000
 -31057637.26648 -23342816.09645  22269983.38800  22269982.10800  22269983.52500
        49.00000        34.00000
 -24589055.53248 -18920804.24245  22831722.97900  22831721.51400  22831721.47500
        48.00000        32.00000
 -19283662.36746 -14213301.31242  24445746.44500  24445744.46200  24445745.57500
        39.00000        16.00000
 -42944983.57248 -33408711.04146  22204536.75100  22204536.28200  22204536.99500
        50.00000        38.00000
 -15207832.89146 -11461186.66942  24843796.71600  24843796.02200  24843799.52900
        36.00000        16.00000
  -6107624.36746  -4122768.29542  25349415.10000  25349413.05800  25349413.48800
        39.00000        16.00000
 11 04 10 01 52 30.0000000  0 11G05G21G15G06G26G18G30G08G29G16G22     .000000000
 -26696536.08246 -20765641.43943  25035874.57400  25035875.58000  25035875.87300
        39.00000        18.00000
 -39846160.66048 -30865161.09746  21727323.16900  21727321.99700  21727321.28400
        51.00000        40.00000
 -29110225.25348 -22574053.68546  21987308.87400  21987308.13200  21987308.66900
        50.00000        38.00000
  -5828761.98246  -3954599.11842  25307647.80800  25307646.84100  25307649.35100
        38.00000        14.00000
 -31069964.14548 -23352421.50145  22267637.17300  22267636.28400  22267637.76800
        48.00000        32.00000
 -24692583.91348 -19001475.71245  22812021.98400  22812020.53800  22812020.71400
        49.00000        32.00000
 -19266281.43046 -14199757.78743  24449053.99800  24449052.48400  24449052.78700
        41.00000        18.00000
   -924057.48745   -193880.27541  26622147.75900  26622144.44800  26622148.31600
        34.00000         6.00000
 -42901912.01648 -33375148.83546  22212732.52300  22212732.14200  22212733.02200
        49.00000        38.00000
 -15233633.64946 -11481291.20143  24838887.20200  24838886.63500  24838890.25900
        39.00000        18.00000
  -6238591.03046  -4224820.25042  25324492.38300  25324490.63400  25324490.57600
        39.00000        16.00000
 11 04 10 01 53  0.0000000  0 11G05G21G15G06G26G18G30G08G29G16G22     .000000000
 -26633035.12846 -20716160.32943  25047958.01700  25047958.50600  25047959.98100
        39.00000        18.00000
 -39924314.44048 -30926060.16446  21712450.96300  21712449.90800  21712449.04800
        51.00000        40.00000
 -29188343.63648 -22634925.16246  21972443.72000  21972442.80200  21972443.32000
        50.00000        38.00000
  -5957951.69446  -4055266.44242  25283064.56200  25283063.01900  25283065.09000
        39.00000        14.00000
 -31081572.30548 -23361466.85445  22265428.54500  22265427.54900  22265428.94600
        48.00000        32.00000
 -24795840.52848 -19081935.41545  22792372.82100  22792371.56100  22792371.89300
        48.00000        32.00000
 -19248452.65746 -14185865.28143  24452445.76600  24452445.65800  24452446.05900
        40.00000        18.00000
   -984090.23545   -240659.02641  26610722.70700  26610721.44700  26610724.69900
        35.00000         6.00000
 -42858440.16948 -33341274.72846  22221004.90000  22221004.45100  22221005.29100
        49.00000        38.00000
 -15258897.88246 -11500977.65743  24834080.52000  24834079.29800  24834082.82500
        39.00000        18.00000
  -6369431.65946  -4326774.03042  25299594.56600  25299593.18800  25299591.98700
        40.00000        16.00000
 11 04 10 01 53 30.0000000  0 11G05G21G15G06G26G18G30G08G29G16G22     .000000000
 -26569507.48346 -20666658.40443  25060047.55600  25060046.93100  25060049.66600
        39.00000        18.00000
 -40002246.33648 -30986786.33046  21697621.14100  21697620.10600  21697619.22700
        51.00000        40.00000
 -29265901.61448 -22695359.95946  21957684.63200  21957683.93800  21957684.75900
        50.00000        38.00000
  -6086930.50746  -4155769.45642  25258519.22800  25258519.25800  25258521.60200
        38.00000        16.00000
 -31092464.31448 -23369954.17045  22263355.84500  22263355.03400  22263355.90400
        48.00000        32.00000
 -24898826.76648 -19162184.43945  22772775.21500  22772774.21800  22772774.13000
        48.00000        32.00000
 -19230180.28146 -14171627.11643  24455923.09400  24455922.67400  24455924.40300
        41.00000        18.00000
  -1043636.47745   -287058.65641  26599390.53200  26599389.21400  26599394.32200
        35.00000         6.00000
 -42814571.41648 -33307091.34246  22229353.35300  22229352.76700  22229353.52900
        49.00000        38.00000
 -15283628.03346 -11520247.92343  24829374.50100  24829374.11000  24829377.07000
        39.00000        18.00000
  -6500147.11046  -4428630.21742  25274719.88000  25274718.63900  25274718.06300
        39.00000        16.00000
 11 04 10 01 54  0.0000000  0 10G05G21G15G06G26G18G30G29G16G22        .000000000
 -26505952.92746 -20617135.52043  25072141.71500  25072140.58200  25072144.32300
        40.00000        18.00000
 -40079953.29048 -31047337.22446  21682834.07600  21682832.94300  21682832.17100
        51.00000        40.00000
 -29342895.54948 -22755355.23746  21943033.31800  21943032.57600  21943033.38700
        50.00000        38.00000
  -6215694.36846  -4256104.95342  25234016.82600  25234016.21100  25234019.16100
        39.00000        16.00000
 -31102639.36048 -23377882.81245  22261419.75600  22261418.78900  22261419.68800
        48.00000        32.00000
 -25001540.01548 -19242220.73645  22753229.60600  22753227.92600  22753228.44400
        48.00000        34.00000
 -19211464.84746 -14157043.70643  24459484.44100  24459484.05100  24459486.02400
        41.00000        18.00000
 -42770305.62448 -33272598.56746  22237776.68100  22237775.94900  22237777.35500
        49.00000        38.00000
 -15307823.02746 -11539101.22243  24824771.75400  24824770.26900  24824772.31000
        40.00000        18.00000
  -6630734.53346  -4530386.60242  25249870.36700  25249868.32600  25249868.57000
        40.00000        16.00000
 11 04 10 01 54 30.0000000  0 11G05G21G15G06G26G18G30G08G29G16G22     .000000000
 -26442374.52546 -20567594.04743  25084239.73300  25084239.20500  25084242.96600
        39.00000        18.00000
 -40157436.80548 -31107714.00746  21668089.69900  21668088.14600  21668087.25700
        51.00000        40.00000
 -29419326.40548 -22814911.75046  21928489.42800  21928488.42200  21928489.20300
        50.00000        38.00000
  -6344243.61446  -4356273.20242  25209554.37700  25209554.24000  25209557.54200
        39.00000        16.00000
 -31112100.62448 -23385255.26545  22259618.76500  22259618.06100  22259619.83900
        48.00000        32.00000
 -25103982.37248 -19322045.94245  22733735.43800  22733734.08000  22733734.42200
        48.00000        32.00000
 -19192311.72846 -14142119.27843  24463128.50700  24463128.11600  24463130.36300
        40.00000        18.00000
  -1161260.57245   -378713.67940  26577007.88500  26577006.41000  26577012.45600
        33.00000         4.00000
 -42725647.34448 -33237799.96446  22246274.89400  22246274.43500  22246275.57800
        49.00000        38.00000
 -15331486.54446 -11557540.39143  24820268.67400  24820267.68700  24820269.43600
        40.00000        18.00000
  -6761195.34046  -4632044.38243  25225044.07400  25225042.87300  25225043.06800
        40.00000        18.00000
 11 04 10 01 55  0.0000000  0 11G05G21G15G06G26G18G30G08G29G16G22     .000000000
 -26378772.60846 -20518034.28343  25096343.14300  25096342.10700  25096346.15100
        39.00000        18.00000
 -40234693.61748 -31167914.13646  21653387.67800  21653386.55400  21653385.82200
        50.00000        40.00000
 -29495190.50648 -22874026.62946  21914052.81400  21914052.03300  21914052.58000
        50.00000        40.00000
  -6472573.37146  -4456270.43942  25185135.10400  25185133.47300  25185137.12600
        39.00000        16.00000
 -31120847.27448 -23392070.87545  22257954.65800  22257953.65200  22257955.01900
        48.00000        32.00000
 -25206151.17148 -19401657.98445  22714293.58900  22714291.95800  22714291.70400
        49.00000        32.00000
 -19172721.56346 -14126854.26543  24466855.82900  24466855.81900  24466857.82200
        39.00000        18.00000
  -1219336.51845   -423967.56940  26565956.92300  26565954.21700  26565959.75600
        35.00000         2.00000
 -42680596.54648 -33202695.49746  22254848.06000  22254847.63000  22254848.44100
        50.00000        38.00000
 -15354617.40746 -11575564.49043  24815867.23400  24815866.44300  24815867.61500
        41.00000        18.00000
  -6891526.68246  -4733601.28142  25200242.77800  25200241.32300  25200241.41100
        39.00000        16.00000
 11 04 10 01 55 30.0000000  0 10G05G21G15G06G26G18G30G29G16G22        .000000000
 -26315148.62746 -20468457.28843  25108449.51200  25108449.49300  25108453.16600
        38.00000        18.00000
 -40311723.19648 -31227937.19346  21638729.18400  21638728.01200  21638727.76800
        50.00000        38.00000
 -29570486.90048 -22932699.15146  21899724.16100  21899723.52600  21899724.17100
        50.00000        40.00000
  -6600682.03246  -4556095.37542  25160757.34700  25160755.29600  25160758.93000
        40.00000        16.00000
 -31128880.78148 -23398330.78445  22256426.46800  22256425.79400  22256426.36100
        49.00000        34.00000
 -25308046.53148 -19481056.97045  22694903.47400  22694901.99900  22694901.65700
        49.00000        32.00000
 -19152697.47446 -14111251.15843  24470666.57300  24470666.35800  24470668.41900
        40.00000        18.00000
 -42635155.42248 -33167286.89146  22263495.01600  22263494.22400  22263495.28900
        49.00000        38.00000
 -15377217.16046 -11593174.73443  24811566.67200  24811566.26200  24811567.06300
        41.00000        20.00000
  -7021728.09046  -4835056.86542  25175467.16400  25175464.64400  25175464.86800
        39.00000        16.00000
 11 04 10 01 56  0.0000000  0 11G05G21G15G06G26G18G30G08G29G16G22     .000000000
 -26251504.04646 -20418864.27943  25120562.29000  25120561.04900  25120565.05500
        40.00000        18.00000
 -40388524.03548 -31287782.02146  21624114.74600  21624113.16400  21624112.91000
        50.00000        38.00000
 -29645214.54348 -22990928.49346  21885503.91700  21885503.35100  21885503.98600
        50.00000        38.00000
  -6728567.43646  -4655746.34142  25136421.29200  25136419.82600  25136422.85400
        40.00000        16.00000
 -31136202.59148 -23404036.13045  22255033.13200  22255032.44800  22255032.96600
        49.00000        32.00000
 -25409668.25448 -19560242.72945  22675565.58100  22675564.04700  22675563.74500
        49.00000        32.00000
 -19132242.51846 -14095312.29643  24474559.33300  24474558.95200  24474560.91500
        40.00000        18.00000
  -1334009.51945   -513322.78641  26544134.25900  26544132.66700  26544137.94200
        33.00000         6.00000
 -42589326.32548 -33131575.97346  22272215.94800  22272215.42100  22272216.54400
        49.00000        38.00000
 -15399286.87346 -11610371.95143  24807367.57600  24807366.72600  24807367.37000
        41.00000        18.00000
  -7151798.64746  -4936410.51242  25150714.30000  25150712.74700  25150713.85100
        39.00000        16.00000
 11 04 10 01 56 30.0000000  0 12G05G21G15G06G26G18G30G08G29G16G22G03  .000000000
 -26187836.07746 -20369253.01443  25132677.90100  25132677.55900  25132680.51900
        40.00000        18.00000
 -40465090.87948 -31347444.50946  21609544.42300  21609542.98700  21609542.81100
        50.00000        38.00000
 -29719367.36648 -23048709.90846  21871393.03100  21871392.63100  21871393.10900
        50.00000        38.00000
  -6856222.71346  -4755217.98942  25112129.21300  25112127.92400  25112130.55100
        40.00000        16.00000
 -31142809.24448 -23409184.21645  22253775.65400  22253774.42400  22253776.06500
        48.00000        32.00000
 -25511011.40148 -19639211.40945  22656280.28100  22656278.85500  22656278.85500
        49.00000        34.00000
 -19111355.40346 -14079036.69142  24478533.92200  24478533.80500  24478535.63200
        39.00000        16.00000
  -1390600.28345   -557419.30441  26533365.20400  26533363.61200  26533370.95800
        33.00000         6.00000
 -42543106.92748 -33095560.92446  22281011.84300  22281010.86600  22281011.73600
        50.00000        36.00000
 -15420823.31146 -11627153.63643  24803268.67300  24803268.49700  24803268.84900
        41.00000        18.00000
  -7281733.12546  -5037658.15142  25125988.47500  25125986.70700  25125988.23100
        39.00000        16.00000
  -1418908.32355    -78088.79950  25529358.05500  25529355.43700  25529359.42300
        35.00000         4.00000
 11 04 10 01 57  0.0000000  0 11G05G21G15G06G26G18G30G29G16G22G03     .000000000
 -26124148.03946 -20319626.10943  25144798.41500  25144798.13200  25144799.87000
        41.00000        18.00000
 -40541424.42248 -31406925.20346  21595018.68200  21595017.22600  21595017.01100
        50.00000        40.00000
 -29792945.79148 -23106043.74146  21857391.85400  21857391.13100  21857391.60000
        51.00000        38.00000
  -6983647.54946  -4854510.07142  25087881.10200  25087880.20400  25087881.96200
        39.00000        16.00000
 -31148703.80148 -23413777.42345  22252653.67500  22252652.71700  22252654.29000
        48.00000        32.00000
 -25612077.20048 -19717963.97545  22637048.08200  22637046.91900  22637046.66500
        49.00000        34.00000
 -19090040.64846 -14062427.83642  24482590.44900  24482589.87300  24482591.44600
        39.00000        16.00000
 -42496500.66048 -33059244.40446  22289880.48400  22289880.08300  22289880.75700
        49.00000        38.00000
 -15441829.44246 -11643522.09843  24799270.82500  24799270.87400  24799271.68500
        40.00000        18.00000
  -7411532.60146  -5138800.57143  25101289.06400  25101286.49500  25101288.41900
        39.00000        18.00000
  -1558621.33445   -186956.31341  25502772.48100  25502768.41800  25502772.35400
        34.00000         6.00000
 11 04 10 01 57 30.0000000  0 11G05G21G15G06G26G18G30G29G16G22G03     .000000000
 -26060445.05447 -20269987.55043  25156921.74300  25156921.24400  25156921.72300
        42.00000        18.00000
 -40617527.40648 -31466226.23946  21580536.84000  21580535.53100  21580535.30700
        50.00000        40.00000
 -29865952.37148 -23162931.98946  21843498.94000  21843498.28600  21843498.86200
        50.00000        38.00000
  -7110843.54546  -4953623.82842  25063676.02200  25063675.43500  25063677.67200
        39.00000        16.00000
 -31153891.50548 -23417819.82045  22251666.66500  22251665.51200  22251666.56700
        48.00000        32.00000
 -25712869.36948 -19796503.33645  22617867.56800  22617866.47300  22617866.97200
        48.00000        34.00000
 -19068304.85446 -14045490.90042  24486726.03200  24486725.82700  24486727.13600
        39.00000        16.00000
 -42449513.77748 -33022631.29646  22298822.01600  22298821.36100  22298821.84000
        49.00000        36.00000
 -15462310.43546 -11659481.35743  24795374.97900  24795373.45500  24795374.28500
        41.00000        18.00000
  -7541199.84146  -5239839.95743  25076614.05400  25076612.02200  25076613.21400
        39.00000        18.00000
  -1698127.49045   -295662.57241  25476224.11500  25476221.58500  25476223.90100
        33.00000         8.00000
 11 04 10 01 58  0.0000000  0 11G05G21G15G06G26G18G30G29G16G22G03     .000000000
 -25996729.05046 -20220338.82643  25169044.58200  25169045.66600  25169046.95600
        39.00000        18.00000
 -40693399.38148 -31525347.27446  21566099.25000  21566097.94100  21566097.42300
        51.00000        40.00000
 -29938386.32148 -23219374.03446  21829715.48100  21829714.61200  21829715.21700
        51.00000        38.00000
  -7237808.88446  -5052557.84942  25039515.28900  25039514.46900  25039517.13500
        39.00000        16.00000
 -31158374.09748 -23421312.78345  22250813.58000  22250812.74000  22250814.09800
        48.00000        32.00000
 -25813387.97148 -19874829.51945  22598739.31400  22598738.09300  22598739.14800
        48.00000        34.00000
 -19046151.47346 -14028228.57942  24490942.43900  24490941.52000  24490943.27900
        40.00000        16.00000
 -42402148.90948 -32985723.66246  22307835.04300  22307834.28100  22307835.13100
        49.00000        36.00000
 -15482268.19146 -11675032.91243  24791577.07000  24791575.77100  24791576.36700
        41.00000        18.00000
  -7670734.60446  -5340776.12243  25051964.49100  25051962.73300  25051962.88900
        39.00000        18.00000
  -1837424.82045   -404206.12841  25449716.23000  25449713.77800  25449717.18700
        34.00000         6.00000
 11 04 10 01 58 30.0000000  0 11G05G21G15G06G26G18G30G29G16G22G03     .000000000
 -25932998.67146 -20170678.95643  25181173.02800  25181172.47100  25181174.75700
        40.00000        18.00000
 -40769036.41348 -31584285.24446  21551706.23200  21551704.82600  21551704.12200
        51.00000        40.00000
 -30010243.37048 -23275366.55146  21816041.29200  21816040.59800  21816041.21400
        50.00000        38.00000
  -7364538.14746  -5151307.94342  25015399.45200  25015398.70000  25015400.93700
        39.00000        16.00000
 -31162149.93848 -23424255.03545  22250095.16200  22250094.12700  22250095.32800
        48.00000        32.00000
 -25913629.75648 -19952939.99345  22579664.02500  22579662.72600  22579663.56600
        48.00000        34.00000
 -19023580.50446 -14010640.84742  24495236.83600  24495236.74800  24495238.74100
        39.00000        16.00000
 -42354404.97448 -32948520.66246  22316920.57200  22316919.54600  22316920.95200
        49.00000        36.00000
 -15501700.88546 -11690175.31643  24787878.01800  24787877.95000  24787878.92600
        41.00000        18.00000
  -7800132.97446  -5441606.01042  25027341.02900  25027339.20200  25027338.83100
        40.00000        16.00000
  -1976507.68645   -512582.58541  25423251.32500  25423248.86400  25423251.40400
        35.00000         8.00000
 11 04 10 01 59  0.0000000  0 11G05G21G15G06G26G18G30G29G16G22G03     .000000000
 -25869255.47246 -20121009.08843  25193302.04100  25193302.42200  25193304.79600
        40.00000        18.00000
 -40844437.15848 -31643039.08446  21537358.03200  21537356.66500  21537355.83500
        51.00000        40.00000
 -30081522.55948 -23330908.78546  21802477.60300  21802476.72300  21802476.99700
        50.00000        38.00000
  -7491029.52346  -5249872.64542  24991329.91800  24991328.13000  24991330.41600
        39.00000        16.00000
 -31165220.60848 -23426647.80145  22249510.57200  22249510.04400  22249511.36300
        48.00000        32.00000
 -26013594.63048 -20030834.69545  22560641.85700  22560640.26400  22560641.16300
        49.00000        34.00000
 -19000595.24546 -13992730.30842  24499611.95000  24499611.05100  24499612.82900
        40.00000        16.00000
 -42306284.38948 -32911024.17746  22326077.57500  22326076.85300  22326078.29800
        49.00000        36.00000
 -15520609.72246 -11704909.51543  24784281.07500  24784279.96100  24784280.54800
        41.00000        18.00000
  -7929394.51246  -5542329.29643  25002742.32000  25002741.71500  25002741.56800
        39.00000        18.00000
  -2115374.13745   -620790.40941  25396826.16900  25396823.46300  25396825.82700
        35.00000        10.00000
 11 04 10 01 59 30.0000000  0 11G05G21G15G06G26G18G30G29G16G22G03     .000000000
 -25805500.08146 -20071329.72043  25205435.38100  25205434.67800  25205437.24700
        40.00000        18.00000
 -40919600.14748 -31701607.66446  21523055.00200  21523053.77100  21523052.82300
        51.00000        40.00000
 -30152221.93348 -23385999.21046  21789023.67100  21789023.09500  21789023.41700
        50.00000        38.00000
  -7617279.86746  -5348249.53942  24967305.59200  24967303.55000  24967305.88500
        40.00000        16.00000
 -31167586.60847 -23428491.48645  22249060.58000  22249059.54500  22249060.87300
        47.00000        32.00000
 -26113281.40248 -20108512.69545  22541672.06600  22541670.62100  22541671.08900
        49.00000        34.00000
 -18977197.68846 -13974498.50842  24504065.89500  24504063.87300  24504065.13300
        41.00000        16.00000
 -42257788.53548 -32873235.26746  22335306.29900  22335305.69300  22335306.33800
        49.00000        38.00000
 -15538995.25846 -11719235.95743  24780781.33800  24780781.57200  24780782.21700
        41.00000        18.00000
  -8058517.68646  -5642944.73343  24978172.23300  24978170.59200  24978170.07400
        39.00000        18.00000
  -2254020.38445   -728826.62441  25370441.41400  25370440.49600  25370442.52700
        35.00000         8.00000
