     2.11           OBSERVATION DATA    M (MIXED)           RINEX VERSION / TYPE
teqc  2009Mar23                         20150827 19:35:41UTCPGM / RUN BY / DATE
MSXP|IAx86-PII|bcc32 5.0|MSWin95->XP|486/DX+                COMMENT
TPP 3.5.7                               29-JUL-15 23:59     COMMENT
                                                            COMMENT
                                                            COMMENT
                                                            COMMENT
FLNM                                                        MARKER NAME
FLNM                                                        MARKER NUMBER
PIVOT               NLSC                                    OBSERVER / AGENCY
KQHE16028LC         TPS NET G3A         E2G3_3 3.6 Feb,28,20REC # / TYPE / VERS
0                   TPSCR3_GGD                              ANT # / TYPE
 -3048091.2167  4983134.3127  2552645.0522                  APPROX POSITION XYZ
        0.0000        0.0000        0.0000                  ANTENNA: DELTA H/E/N
     1     1                                                WAVELENGTH FACT L1/2
     5    C1    L1    P2    L2    P1                        # / TYPES OF OBSERV
    30.0000                                                 INTERVAL
     0                                                      RCV CLOCK OFFS APPL
    17                                                      LEAP SECONDS
Forced Modulo Decimation to 30 seconds                      COMMENT
teqc edited: all GLONASS satellites excluded                COMMENT
teqc edited: all Galileo satellites excluded                COMMENT
  2015     7    30     0     0    0.0000000     GPS         TIME OF FIRST OBS
                                                            END OF HEADER
 15  7 30  0  0  0.0000000  0 11G 3G 8G14G16G19G21G23G26G27G31G32
  24370234.189    14820207.615 3  24370237.762    28488833.643 6  24370234.498
  22319726.692   -29509654.573 6  22319727.846   -13462023.698 7  22319726.182
  24150073.803     9468952.622 4  24150073.827   -10161411.387 5  24150072.975
  20805652.928   -50049126.029 7  20805649.379   -19661943.450 9  20805651.744
  23945962.941   -25158042.698 5  23945959.562    -6802873.387 6  23945961.334
  25007083.062   -19581830.351 2  25007080.786   -15040680.944 4  25007080.426
  22556196.687   -66015746.641 7  22556191.911     4283483.018 7  22556195.542
  21255920.275   -60265848.623 7  21255920.751   -34595377.482 8  21255919.642
  21183825.789   -39673177.963 7  21183825.243   -18113362.138 9  21183825.063
  21690622.388   -70564376.917 7  21690618.769   -24426734.477 8  21690621.809
  24224864.559     1473360.236 5  24224865.264    32087860.390 6  24224862.790
 15  7 30  0  0 30.0000000  0 11G 3G 8G14G16G19G21G23G26G27G31G32
  24375897.436    14849963.986 3  24375901.142    28512020.365 6  24375896.057
  22300157.868   -29612489.943 6  22300159.010   -13542155.120 8  22300157.079
  24168840.181     9567567.849 4  24168840.808   -10084568.570 5  24168838.595
  20805618.587   -50049307.613 7  20805614.741   -19662084.939 9  20805617.337
  23921762.117   -25285217.884 5  23921759.553    -6901970.808 6  23921760.171
  25002880.235   -19603914.769 3  25002877.726   -15057889.569 4  25002878.400
  22538888.730   -66106700.843 6  22538884.803     4212609.634 7  22538887.573
  21261887.089   -60234494.258 7  21261887.161   -34570945.531 8  21261886.615
  21167276.903   -39760143.915 7  21167276.076   -18181127.803 9  21167276.136
  21692450.645   -70554768.963 7  21692447.254   -24419247.790 8  21692449.862
  24234634.097     1524696.877 5  24234633.476    32127862.818 6  24234632.427
 15  7 30  0  1  0.0000000  0 11G 3G 8G14G16G19G21G23G26G27G31G32
  24381596.338    14879910.196 4  24381598.146    28535355.009 6  24381595.532
  22280637.958   -29715066.208 6  22280639.029   -13622084.644 8  22280637.548
  24187621.825     9666270.729 4  24187623.893   -10007657.451 5  24187621.027
  20805630.540   -50049245.259 7  20805626.594   -19662036.348 8  20805629.233
  23897571.971   -25412333.367 5  23897570.508    -7001021.723 6  23897570.008
  24998723.805   -19625760.354 3  24998720.918   -15074912.099 4  24998721.397
  22521646.967   -66197305.632 6  22521642.347     4142008.526 7  22521645.756
  21267870.629   -60203050.424 7  21267870.593   -34546443.855 8  21267870.068
  21150803.928   -39846710.276 7  21150803.236   -18248582.096 9  21150803.251
  21694312.641   -70544983.978 7  21694309.184   -24411623.156 8  21694312.074
  24244392.078     1575976.924 5  24244392.584    32167821.169 6  24244391.442
 15  7 30  0  1 30.0000000  0 11G 3G 8G14G16G19G21G23G26G27G31G32
  24387330.007    14910044.737 4  24387332.378    28558836.427 6  24387329.617
  22261168.510   -29817379.578 6  22261169.622   -13701809.312 7  22261167.976
  24206421.294     9765059.918 4  24206422.122    -9930679.068 5  24206420.788
  20805688.430   -50048939.722 7  20805684.757   -19661798.257 8  20805687.188
  23873395.020   -25539385.323 5  23873393.260    -7100023.143 6  23873393.128
  24994611.453   -19647364.623 3  24994609.144   -15091746.591 4  24994609.813
  22504472.802   -66287557.048 6  22504468.095     4071682.767 7  22504472.058
  21273870.825   -60171517.596 7  21273871.172   -34521872.834 8  21273870.315
  21134407.748   -39932873.632 7  21134406.939   -18315722.363 9  21134406.702
  21696208.423   -70535020.046 7  21696205.153   -24403859.081 8  21696208.172
  24254139.584     1627198.955 5  24254139.593    32207734.313 6  24254137.209
 15  7 30  0  2  0.0000000  0 11G 3G 8G14G16G19G21G23G26G27G31G32
  24393100.622    14940366.942 3  24393102.223    28582464.073 5  24393099.749
  22241749.657   -29919425.937 6  22241750.329   -13781325.923 7  22241748.965
  24225235.777     9863934.794 4  24225237.888    -9853633.923 5  24225234.929
  20805792.832   -50048390.517 7  20805789.127   -19661370.298 8  20805791.663
  23849230.320   -25666369.202 5  23849228.177    -7198971.503 6  23849229.052
  24990547.577   -19668723.973 3  24990545.643   -15108390.240 4  24990545.445
  22487366.614   -66377450.974 6  22487361.844     4001635.578 7  22487366.170
  21279888.912   -60139895.243 7  21279889.044   -34497232.058 8  21279888.109
  21118088.564   -40018629.637 7  21118088.117   -18382545.210 9  21118087.940
  21698139.468   -70524873.939 7  21698136.338   -24395953.054 8  21698138.934
  24263874.768     1678362.262 5  24263876.777    32247601.720 6  24263872.951
 15  7 30  0  2 30.0000000  0 11G 3G 8G14G16G19G21G23G26G27G31G32
  24398906.298    14970875.420 4  24398909.146    28606236.845 5  24398905.803
  22222382.705   -30021201.422 6  22222383.613   -13860631.466 7  22222381.275
  24244067.603     9962894.102 4  24244069.174    -9776522.974 5  24244067.351
  20805943.151   -50047598.412 7  20805939.812   -19660753.064 8  20805942.333
  23825079.912   -25793279.890 5  23825078.165    -7297862.846 6  23825078.249
  24986529.992   -19689835.511 2  24986528.691   -15124840.798 4  24986528.607
  22470329.205   -66466983.377 6  22470324.330     3931870.087 7  22470328.224
  21285923.516   -60108183.437 7  21285923.708   -34472521.578 8  21285922.676
  21101847.943   -40103974.615 7  21101847.574   -18449047.785 9  21101847.322
  21700105.300   -70514543.059 7  21700102.251   -24387903.050 8  21700104.601
  24273599.568     1729465.853 5  24273601.609    32287422.577 6  24273597.292
 15  7 30  0  3  0.0000000  0 11G 3G 8G14G16G19G21G23G26G27G31G32
  24404746.908    15001564.143 4  24404748.386    28630150.077 5  24404746.932
  22203066.738   -30122706.615 6  22203067.160   -13939726.389 8  22203065.769
  24262914.638    10061932.153 4  24262915.450    -9699350.655 5  24262913.687
  20806139.665   -50046568.041 7  20806135.864   -19659950.173 8  20806138.514
  23800943.325   -25920118.299 5  23800941.538    -7396697.835 6  23800941.187
  24982558.261   -19710700.662 2  24982557.733   -15141099.358 4  24982557.718
  22453360.352   -66556154.622 6  22453355.462     3862386.025 7  22453359.120
  21291974.059   -60076386.993 7  21291974.242   -34447745.140 8  21291973.235
  21085685.721   -40188909.629 7  21085684.785   -18515230.912 9  21085684.689
  21702105.884   -70504029.674 7  21702102.871   -24379710.827 8  21702105.530
  24283312.322     1780503.806 5  24283313.392    32327192.292 6  24283311.440
 15  7 30  0  3 30.0000000  0 11G 3G 8G14G16G19G21G23G26G27G31G32
  24410620.037    15032432.258 3  24410621.632    28654203.119 5  24410619.585
  22183803.181   -30223937.784 6  22183803.885   -14018607.778 8  22183802.278
  24281775.834    10161048.384 3  24281777.267    -9622117.409 5  24281774.992
  20806381.139   -50045299.598 7  20806377.329   -19658961.776 8  20806380.006
  23776821.055   -26046880.281 5  23776820.024    -7495473.292 6  23776819.364
  24978637.644   -19731315.907 3  24978633.210   -15157163.202 4  24978634.151
  22436461.426   -66644960.553 6  22436456.309     3793186.621 7  22436460.449
  21298040.776   -60044505.636 7  21298041.094   -34422902.532 8  21298040.033
  21069602.017   -40273430.622 7  21069601.313   -18581091.418 9  21069600.971
  21704141.738   -70493330.908 7  21704138.597   -24371374.145 8  21704141.340
  24293011.513     1831475.452 5  24293012.919    32366910.346 6  24293011.039
 15  7 30  0  4  0.0000000  0 11G 3G 8G14G16G19G21G23G26G27G31G32
  24416528.029    15063475.805 3  24416530.014    28678392.806 5  24416527.664
  22164592.054   -30324893.155 6  22164592.666   -14097274.268 8  22164590.822
  24300651.511    10260238.785 3  24300652.269    -9544826.369 5  24300650.027
  20806666.991   -50043796.179 7  20806663.379   -19657790.290 8  20806665.855
  23752714.309   -26173563.566 5  23752712.669    -7594187.428 6  23752712.477
  24974761.151   -19751681.279 3  24974758.872   -15173032.342 4  24974759.628
  22419631.854   -66733400.026 6  22419627.033     3724272.774 7  22419630.412
  21304123.418   -60012541.987 7  21304123.316   -34397995.802 8  21304122.741
  21053596.910   -40357536.571 7  21053596.320   -18646628.514 9  21053596.287
  21706212.929   -70482446.629 7  21706210.010   -24362892.914 8  21706212.348
  24302698.728     1882376.983 5  24302699.777    32406573.756 6  24302696.332
 15  7 30  0  4 30.0000000  0 11G 3G 8G14G16G19G21G23G26G27G31G32
  24422468.462    15094689.605 4  24422468.696    28702715.174 5  24422468.411
  22145432.912   -30425573.251 6  22145433.880   -14175726.258 8  22145432.195
  24319539.920    10359498.543 4  24319541.728    -9467481.268 4  24319538.622
  20806997.162   -50042061.904 7  20806993.471   -19656438.910 8  20806996.046
  23728622.235   -26300168.011 5  23728621.053    -7692840.120 6  23728620.682
  24970932.885   -19771797.526 2  24970931.428   -15188707.347 4  24970930.786
  22402871.789   -66821472.938 7  22402866.968     3655644.550 7  22402870.736
  21310220.169   -59980499.981 7  21310220.741   -34373028.022 8  21310220.142
  21037670.808   -40441227.617 7  21037670.301   -18711842.309 9  21037670.127
  21708319.082   -70471378.384 7  21708316.099   -24354268.329 8  21708318.603
  24312370.788     1933203.456 5  24312371.127    32446178.679 5  24312368.644
 15  7 30  0  5  0.0000000  0 11G 3G 8G14G16G19G21G23G26G27G31G32
  24428440.313    15126071.114 5  24428441.815    28727168.242 5  24428439.851
  22126327.022   -30525975.336 6  22126327.621   -14253961.614 8  22126326.224
  24338441.747    10458824.925 4  24338442.782    -9390084.248 4  24338440.266
  20807370.988   -50040098.678 7  20807367.108   -19654909.125 8  20807369.537
  23704545.588   -26426690.591 5  23704543.795    -7791429.026 6  23704544.188
  24967152.586   -19791663.094 2  24967150.448   -15204187.019 4  24967150.544
  22386182.528   -66909176.569 6  22386177.765     3587304.081 7  22386181.398
  21316332.658   -59948380.903 7  21316333.141   -34348000.183 8  21316331.974
  21021824.300   -40524501.464 7  21021823.682   -18776731.012 9  21021823.613
  21710460.674   -70460124.885 7  21710457.367   -24345499.396 8  21710460.212
  24322027.532     1983952.524 5  24322029.582    32485723.300 5  24322026.572
 15  7 30  0  5 30.0000000  0 11G 3G 8G14G16G19G21G23G26G27G31G32
  24434444.022    15157621.847 4  24434444.853    28751753.170 6  24434444.010
  22107275.259   -30626092.629 6  22107276.203   -14331975.055 8  22107274.929
  24357356.043    10558219.910 3  24357357.165    -9312633.758 4  24357355.048
  20807788.422   -50037903.736 7  20807784.815   -19653198.779 8  20807787.160
  23680486.008   -26553124.039 5  23680484.749    -7889948.479 6  23680484.299
  24963421.264   -19811271.851 2  24963420.697   -15219466.584 4  24963419.348
  22369564.861   -66996504.212 6  22369560.092     3519256.593 7  22369564.013
  21322459.855   -59916182.002 7  21322460.131   -34322910.145 8  21322459.259
  21006058.466   -40607351.665 7  21006057.777   -18841289.604 9  21006057.837
  21712638.336   -70448680.747 7  21712635.099   -24336581.917 8  21712637.881
  24331670.581     2034625.847 5  24331670.725    32525208.862 5  24331668.908
 15  7 30  0  6  0.0000000  0 11G 3G 8G14G16G19G21G23G26G27G31G32
  24440480.454    15189345.543 4  24440481.878    28776472.875 6  24440480.356
  22088279.665   -30725916.520 6  22088280.106   -14409759.878 8  22088278.727
  24376283.575    10657687.165 3  24376283.779    -9235126.942 4  24376281.725
  20808251.211   -50035472.595 7  20808247.380   -19651304.377 8  20808249.946
  23656444.697   -26679459.210 5  23656444.101    -7988391.347 6  23656443.759
  24959740.490   -19830615.963 2  24959739.234   -15234539.935 4  24959738.041
  22353019.858   -67083447.196 6  22353014.516     3451508.835 7  22353018.431
  21328603.463   -59883898.181 7  21328603.631   -34297753.934 8  21328602.834
  20990374.902   -40689769.582 7  20990374.350   -18905511.353 9  20990374.083
  21714853.967   -70437038.354 7  21714850.403   -24327509.942 8  21714853.536
  24341299.822     2085227.399 4  24341299.255    32564638.509 5  24341298.512
 15  7 30  0  6 30.0000000  0 11G 3G 8G14G16G19G21G23G26G27G31G32
  24446548.134    15221234.910 3  24446551.695    28801321.685 5  24446548.730
  22069338.955   -30825448.918 7  22069339.662   -14487317.562 8  22069338.709
  24395223.518    10757219.884 3  24395225.284    -9157569.096 4  24395222.715
  20808757.552   -50032811.349 7  20808753.909   -19649230.673 8  20808756.293
  23632422.936   -26805697.817 5  23632421.863    -8086758.977 7  23632420.667
  24956109.530   -19849698.683 2  24956106.865   -15249409.595 4  24956107.138
  22336548.026   -67170006.896 6  22336543.727     3384059.741 7  22336546.973
  21334761.806   -59851535.432 7  21334762.112   -34272536.219 8  21334761.080
  20974773.076   -40771757.542 7  20974772.470   -18969398.073 9  20974772.347
  21717106.605   -70425201.303 7  21717103.148   -24318286.280 8  21717105.799
  24350913.596     2135750.274 4  24350914.010    32604006.866 5  24350912.406
 15  7 30  0  7  0.0000000  0 11G 3G 8G14G16G19G21G23G26G27G31G32
  24452648.770    15253288.777 3  24452651.824    28826298.661 5  24452648.764
  22050454.821   -30924686.058 6  22050455.528   -14564645.173 8  22050454.473
  24414176.988    10856817.057 3  24414177.243    -9079961.031 4  24414175.804
  20809307.770   -50029920.555 7  20809303.885   -19646978.101 8  20809306.535
  23608419.873   -26931835.178 6  23608418.419    -8185047.727 7  23608418.461
  24952529.091   -19868516.666 3  24952526.213   -15264072.953 4  24952526.210
  22320149.699   -67256179.392 6  22320145.277     3316912.360 7  22320148.758
  21340935.213   -59819093.593 7  21340935.579   -34247256.876 8  21340934.431
  20959253.872   -40853311.842 7  20959253.114   -19032946.875 9  20959252.892
  21719396.537   -70413166.847 7  21719393.587   -24308908.808 8  21719396.168
  24360513.427     2186193.426 4  24360513.616    32643313.106 5  24360511.967
 15  7 30  0  7 30.0000000  0 11G 3G 8G14G16G19G21G23G26G27G31G32
  24458779.336    15285504.966 4  24458782.220    28851402.115 5  24458779.378
  22031627.483   -31023624.813 6  22031628.268   -14641740.267 8  22031626.319
  24433141.052    10956476.329 3  24433142.482    -9002304.566 4  24433139.931
  20809901.224   -50026801.259 7  20809897.594   -19644547.470 8  20809899.884
  23584436.138   -27057868.116 5  23584433.943    -8283255.115 6  23584433.823
  24948998.111   -19887067.758 3  24948996.048   -15278528.357 4  24948996.396
  22303825.679   -67341961.991 6  22303821.257     3250068.803 7  22303824.779
  21347123.802   -59786573.535 7  21347124.024   -34221916.583 8  21347122.926
  20943817.472   -40934429.832 7  20943816.845   -19096155.694 9  20943816.671
  21721724.656   -70400933.395 7  21721721.394   -24299376.270 8  21721724.251
  24370096.569     2236554.834 4  24370097.241    32682555.646 5  24370094.585
 15  7 30  0  8  0.0000000  0 11G 3G 8G14G16G19G21G23G26G27G31G32
  24464940.032    15317880.175 3  24464941.660    28876629.510 6  24464938.147
  22012857.300   -31122263.692 7  22012857.747   -14718601.703 8  22012856.041
  24452117.570    11056194.896 3  24452118.781    -8924601.887 4  24452115.939
  20810537.630   -50023455.619 7  20810534.245   -19641940.471 8  20810536.457
  23560473.079   -27183794.298 5  23560471.238    -8381379.312 6  23560470.600
  24945517.658   -19905351.750 2  24945516.807   -15292775.626 4  24945516.600
  22287576.538   -67427352.749 6  22287572.272     3183530.566 7  22287575.716
  21353326.694   -59753977.195 7  21353326.867   -34196516.840 8  21353325.737
  20928464.548   -41015109.906 7  20928463.964   -19159023.283 9  20928464.021
  21724090.678   -70388500.472 7  21724087.476   -24289688.308 8  21724090.180
  24379663.939     2286831.636 4  24379665.216    32721732.256 5  24379662.584
 15  7 30  0  8 30.0000000  0 11G 3G 8G14G16G19G21G23G26G27G31G32
  24471130.672    15350413.680 4  24471131.793    28901980.235 6  24471130.033
  21994144.531   -31220598.201 6  21994144.938   -14795225.960 8  21994143.934
  24471104.752    11155972.168 3  24471104.614    -8846853.477 4  24471102.929
  20811217.586   -50019883.627 7  20811213.734   -19639157.101 8  20811216.324
  23536531.099   -27309608.817 5  23536529.135    -8479416.494 6  23536529.627
  24942091.432   -19923364.714 3  24942088.635   -15306811.698 4  24942089.361
  22271402.441   -67512347.125 7  22271397.596     3117301.206 7  22271401.682
  21359543.703   -59721304.008 7  21359544.191   -34171057.228 8  21359543.307
  20913195.810   -41095347.948 7  20913195.168   -19221546.432 9  20913195.063
  21726495.073   -70375865.040 7  21726491.590   -24279842.547 8  21726494.537
  24389215.704     2337023.273 5  24389216.403    32760842.490 5  24389214.511
 15  7 30  0  9  0.0000000  0 11G 3G 8G14G16G19G21G23G26G27G31G32
  24477350.589    15383101.866 4  24477353.671    28927451.516 5  24477350.946
  21975490.095   -31318626.829 6  21975491.162   -14871611.868 8  21975489.228
  24490101.524    11255804.850 3  24490102.690    -8769061.898 4  24490101.014
  20811939.909   -50016087.942 7  20811936.218   -19636199.422 8  20811938.635
  23512610.982   -27435309.557 5  23512609.201    -8577365.041 6  23512607.930
  24938715.191   -19941105.632 3  24938712.217   -15320635.798 4  24938713.590
  22255304.680   -67596943.458 7  22255300.351     3051382.005 7  22255303.643
  21365775.785   -59688556.105 7  21365776.289   -34145539.396 8  21365775.282
  20898011.316   -41175142.704 7  20898010.827   -19283724.159 9  20898010.614
  21728938.193   -70363026.696 7  21728934.713   -24269838.671 8  21728937.342
  24398750.268     2387126.514 4  24398751.653    32799883.852 6  24398748.787
 15  7 30  0  9 30.0000000  0 11G 3G 8G14G16G19G21G23G26G27G31G32
  24483600.740    15415941.809 3  24483603.516    28953040.998 5  24483600.374
  21956894.454   -31416347.298 6  21956895.492   -14947757.661 8  21956893.957
  24509110.395    11355690.067 3  24509110.446    -8691229.371 4  24509108.530
  20812704.401   -50012070.563 7  20812700.818   -19633069.001 8  20812702.962
  23488712.984   -27560893.863 5  23488711.225    -8675222.857 6  23488711.530
  24935390.432   -19958573.718 3  24935388.838   -15334247.302 4  24935389.398
  22239282.953   -67681139.347 7  22239277.772     2985774.821 7  22239281.400
  21372021.562   -59655734.993 7  21372021.706   -34119964.515 8  21372020.750
  20882911.657   -41254492.227 7  20882911.052   -19345554.953 9  20882910.800
  21731419.734   -70349984.593 7  21731416.466   -24259676.028 8  21731419.461
  24408266.993     2437138.732 5  24408267.767    32838854.294 6  24408265.342
 15  7 30  0 10  0.0000000  0 11G 3G 8G14G16G19G21G23G26G27G31G32
  24489878.955    15448931.229 3  24489881.407    28978746.953 5  24489877.543
  21938357.900   -31513757.288 6  21938358.883   -15023661.512 8  21938357.300
  24528127.646    11455625.785 3  24528128.998    -8613357.475 4  24528126.800
  20813510.776   -50007832.928 7  20813507.176   -19629766.950 8  20813509.367
  23464837.903   -27686358.642 5  23464836.005    -8772987.529 6  23464836.293
  24932119.379   -19975766.925 2  24932117.349   -15347644.606 3  24932116.147
  22223337.331   -67764932.471 6  22223333.050     2920481.498 7  22223336.057
  21378280.977   -59622841.831 7  21378281.532   -34094333.492 8  21378280.084
  20867897.014   -41333394.215 7  20867896.597   -19407037.019 9  20867896.432
  21733941.157   -70336737.222 7  21733937.307   -24249353.435 8  21733940.203
  24417766.250     2487057.886 4  24417767.905    32877752.203 6  24417765.171
 15  7 30  0 10 30.0000000  0 11G 3G 8G14G16G19G21G23G26G27G31G32
  24496184.187    15482065.999 4  24496185.239    29004566.183 5  24496183.464
  21919880.998   -31610855.095 6  21919881.622   -15099322.117 8  21919880.228
  24547152.790    11555608.330 4  24547154.879    -8535449.087 4  24547151.716
  20814358.706   -50003377.884 7  20814354.755   -19626295.487 8  20814357.321
  23440985.926   -27811701.797 5  23440983.243    -8870657.434 6  23440983.947
  24928899.944   -19992684.982 2  24928897.036   -15360827.506 3  24928897.270
  22207468.995   -67848321.338 6  22207464.222     2855503.185 7  22207468.405
  21384553.613   -59589879.024 7  21384553.855   -34068648.200 8  21384552.821
  20852967.787   -41411847.690 7  20852967.334   -19468169.597 9  20852967.082
  21736500.674   -70323284.909 7  21736497.373   -24238871.144 8  21736500.158
  24427247.666     2536880.246 4  24427248.665    32916574.683 6  24427245.358
 15  7 30  0 11  0.0000000  0 11G 3G 8G14G16G19G21G23G26G27G31G32
  24502518.172    15515352.360 4  24502519.958    29030503.532 5  24502518.435
  21901465.515   -31707630.124 6  21901465.827   -15174731.206 8  21901464.334
  24566189.455    11655644.026 3  24566190.255    -8457499.288 4  24566187.800
  20815248.982   -49998698.061 7  20815245.295   -19622648.872 8  20815247.927
  23417158.880   -27936912.008 5  23417157.114    -8968223.730 7  23417158.068
  24925734.333   -20009317.830 2  24925731.527   -15373788.166 4  24925733.497
  22191679.889   -67931294.701 6  22191675.122     2790848.639 7  22191678.600
  21390840.947   -59556839.142 7  21390841.100   -34042902.854 8  21390840.141
  20838125.944   -41489841.892 7  20838125.566   -19528944.297 9  20838125.299
  21739101.463   -70309617.713 7  21739098.492   -24228221.420 8  21739100.849
  24436711.116     2586612.226 5  24436712.324    32955326.760 6  24436710.109
 15  7 30  0 11 30.0000000  0 11G 3G 8G14G16G19G21G23G26G27G31G32
  24508879.974    15548782.590 4  24508882.145    29056552.979 5  24508878.230
  21883110.761   -31804084.815 7  21883111.294   -15249890.684 8  21883109.591
  24585234.089    11755725.396 3  24585235.165    -8379513.900 4  24585233.141
  20816181.016   -49993800.313 7  20816177.370   -19618832.453 8  20816179.895
  23393357.587   -28061991.098 5  23393354.930    -9065687.870 7  23393355.875
  24922621.834   -20025668.843 2  24922621.402   -15386529.224 4  24922621.882
  22175968.986   -68013855.091 7  22175963.995     2726515.882 8  22175967.973
  21397141.616   -59523728.396 7  21397141.805   -34017102.285 8  21397141.037
  20823371.118   -41567379.663 7  20823370.477   -19589363.335 9  20823370.540
  21741742.605   -70295739.478 7  21741739.187   -24217407.256 8  21741741.825
  24446156.611     2636246.580 5  24446157.067    32994002.754 6  24446154.920
 15  7 30  0 12  0.0000000  0 11G 3G 8G14G16G19G21G23G26G27G31G32
  24515267.218    15582353.099 4  24515271.727    29082711.740 5  24515266.090
  21864817.209   -31900217.482 6  21864817.485   -15324799.229 8  21864816.151
  24604286.475    11855848.672 3  24604288.070    -8301495.854 4  24604285.591
  20817153.923   -49988687.809 7  20817150.227   -19614848.689 8  20817152.757
  23369581.284   -28186937.471 6  23369578.636    -9163048.595 7  23369579.044
  24919565.099   -20041737.570 3  24919563.348   -15399050.312 4  24919563.543
  22160336.932   -68096000.598 7  22160332.495     2662506.404 8  22160335.994
  21403455.197   -59490548.991 7  21403455.686   -33991248.214 8  21403454.805
  20808703.451   -41644459.861 7  20808702.615   -19649425.824 9  20808702.552
  21744423.391   -70281650.127 7  21744420.294   -24206428.584 8  21744422.734
  24455581.987     2685779.962 5  24455583.276    33032600.089 6  24455580.563
 15  7 30  0 12 30.0000000  0 11G 3G 8G14G16G19G21G23G26G27G31G32
  24521682.294    15616062.389 4  24521685.244    29108978.620 5  24521681.991
  21846585.741   -31996025.062 7  21846586.071   -15399454.467 8  21846585.229
  24623347.270    11956013.058 3  24623348.449    -8223445.758 4  24623345.909
  20818167.462   -49983360.741 7  20818163.855   -19610697.736 8  20818166.547
  23345830.586   -28311746.411 6  23345828.607    -9260302.218 7  23345829.054
  24916562.066   -20057521.409 3  24916560.276   -15411349.390 4  24916560.807
  22144784.506   -68177727.962 7  22144780.339     2598822.755 8  22144783.873
  21409782.269   -59457300.903 7  21409782.734   -33965340.630 8  21409781.487
  20794123.153   -41721079.271 7  20794122.488   -19709129.257 9  20794122.314
  21747145.339   -70267347.207 6  21747142.170   -24195283.493 8  21747144.694
  24464988.335     2735211.299 3  24464988.488    33071117.889 6  24464987.163
 15  7 30  0 13  0.0000000  0 11G 3G 8G14G16G19G21G23G26G27G31G32
  24528122.891    15649908.945 4  24528124.663    29135352.514 5  24528122.831
  21828417.047   -32091503.532 7  21828417.074   -15473853.265 8  21828416.193
  24642415.977    12056217.194 3  24642417.677    -8145364.701 4  24642414.583
  20819222.071   -49977819.147 7  20819218.672   -19606379.623 8  20819220.947
  23322107.463   -28436413.769 6  23322103.473    -9357445.538 7  23322105.460
  24913612.261   -20073017.628 2  24913611.215   -15423424.363 4  24913610.792
  22129313.104   -68259033.509 7  22129307.978     2535467.794 8  22129312.037
  21416122.313   -59423984.112 7  21416122.658   -33939379.501 8  21416121.522
  20779631.195   -41797234.550 7  20779630.580   -19768471.028 9  20779630.394
  21749908.340   -70252828.284 7  21749905.378   -24183970.089 8  21749907.833
  24474375.155     2784539.521 4  24474376.453    33109555.323 6  24474374.219
 15  7 30  0 13 30.0000000  0 11G 3G 8G14G16G19G21G23G26G27G31G32
  24534589.822    15683891.401 3  24534591.771    29161832.279 5  24534589.711
  21810311.325   -32186649.607 7  21810311.538   -15547993.050 8  21810310.545
  24661491.514    12156459.771 3  24661492.620    -8067253.708 3  24661490.168
  20820317.420   -49972064.202 7  20820313.517   -19601895.258 8  20820316.164
  23298411.288   -28560935.939 5  23298407.745    -9454475.719 7  23298409.307
  24910719.141   -20088223.678 3  24910718.880   -15435273.224 4  24910717.948
  22113922.746   -68339913.437 7  22113916.687     2472444.480 8  22113921.118
  21422475.344   -59390598.768 7  21422475.584   -33913364.951 8  21422474.720
  20765228.290   -41872922.592 7  20765227.660   -19827448.715 9  20765227.303
  21752712.787   -70238091.273 7  21752709.415   -24172486.742 8  21752712.077
  24483742.419     2833763.380 4  24483743.744    33147911.448 5  24483740.677
 15  7 30  0 14  0.0000000  0 11G 3G 8G14G16G19G21G23G26G27G31G32
  24541081.837    15718007.971 4  24541085.065    29188416.544 5  24541081.711
  21792269.233   -32281459.912 6  21792270.030   -15621871.197 8  21792268.558
  24680574.233    12256739.439 3  24680576.065    -7989113.784 3  24680572.512
  20821452.929   -49966096.205 7  20821449.125   -19597244.879 8  20821451.847
  23274743.663   -28685308.166 5  23274741.013    -9551389.064 6  23274742.308
  24907881.087   -20103136.849 3  24907880.373   -15446893.866 4  24907879.396
  22098613.295   -68420364.678 7  22098607.755     2409755.205 8  22098612.090
  21428841.197   -59357145.015 7  21428841.356   -33887297.108 8  21428840.492
  20750914.822   -41948140.368 7  20750914.324   -19886059.967 9  20750913.985
  21755559.176   -70223133.620 6  21755555.641   -24160831.469 8  21755558.399
  24493089.948     2882881.684 4  24493091.201    33186185.305 5  24493088.605
 15  7 30  0 14 30.0000000  0 11G 3G 8G14G16G19G21G23G26G27G31G32
  24547599.834    15752256.248 3  24547602.628    29215103.418 5  24547598.317
  21774291.797   -32375931.788 7  21774292.595   -15695485.632 8  21774291.120
  24699663.803    12357054.051 3  24699665.104    -7910946.644 4  24699661.191
  20822629.000   -49959916.558 7  20822625.519   -19592429.577 8  20822627.897
  23251105.696   -28809527.322 5  23251102.753    -9648183.149 6  23251105.154
  24905100.248   -20117755.773 3  24905097.996   -15458285.231 4  24905097.718
  22083385.772   -68500384.285 7  22083380.478     2347402.273 8  22083384.405
  21435220.208   -59323623.756 7  21435220.457   -33861176.659 8  21435219.377
  20736691.306   -42022885.589 7  20736690.677   -19944302.990 9  20736690.515
  21758447.418   -70207954.218 7  21758444.723   -24149003.396 8  21758447.421
  24502416.269     2931892.431 4  24502417.214    33224375.380 5  24502414.737
 15  7 30  0 15  0.0000000  0 11G 3G 8G14G16G19G21G23G26G27G31G32
  24554141.198    15786636.589 3  24554145.458    29241893.173 5  24554140.994
  21756379.579   -32470059.883 6  21756380.199   -15768832.190 8  21756378.931
  24718759.653    12457404.166 3  24718761.505    -7832751.816 4  24718757.344
  20823845.246   -49953524.150 7  20823841.639   -19587448.484 8  20823844.131
  23227497.697   -28933587.941 6  23227493.455    -9744853.689 6  23227496.381
  24902373.078   -20132076.037 2  24902372.169   -15469443.874 4  24902372.226
  22068241.339   -68579966.990 7  22068236.744     2285389.779 8  22068240.419
  21441612.314   -59290033.214 7  21441612.416   -33835002.226 8  21441611.498
  20722558.811   -42097153.342 7  20722558.071   -20002173.961 9  20722557.804
  21761379.302   -70192549.212 6  21761376.367   -24136999.534 8  21761378.759
  24511723.176     2980796.219 4  24511723.419    33262482.096 5  24511720.856
 15  7 30  0 15 30.0000000  0 11G 3G 8G14G16G19G21G23G26G27G31G32
  24560709.351    15821146.035 3  24560711.105    29268783.526 5  24560707.429
  21738533.392   -32563842.360 7  21738534.535   -15841909.449 8  21738532.463
  24737861.949    12557787.136 3  24737864.077    -7754531.412 4  24737860.180
  20825102.018   -49946920.743 7  20825098.459   -19582302.977 8  20825100.636
  23203921.484   -29057487.037 6  23203916.823    -9841398.377 7  23203919.098
  24899706.736   -20146096.072 2  24899704.718   -15480368.588 4  24899703.903
  22053180.741   -68659110.532 7  22053176.259     2223719.487 8  22053180.123
  21448017.511   -59256374.773 7  21448017.592   -33808774.885 8  21448016.645
  20708517.216   -42170941.894 7  20708516.592   -20059671.528 9  20708516.275
  21764353.776   -70176917.478 7  21764350.659   -24124819.007 8  21764353.324
  24521008.168     3029590.532 4  24521009.376    33300503.499 5  24521006.235
 15  7 30  0 16  0.0000000  0 11G 3G 8G14G16G19G21G23G26G27G31G32
  24567300.231    15855781.525 4  24567300.926    29295772.097 5  24567300.414
  21720753.101   -32657277.146 7  21720754.138   -15914715.769 8  21720752.267
  24756969.701    12658200.082 3  24756970.426    -7676287.626 4  24756968.483
  20826398.392   -49940108.562 7  20826394.558   -19576994.785 8  20826396.974
  23180374.819   -29181221.838 6  23180370.784    -9937815.047 7  23180373.611
  24897094.896   -20159815.210 3  24897094.266   -15491058.821 4  24897094.386
  22038204.195   -68737812.967 7  22038199.419     2162392.920 8  22038203.550
  21454434.809   -59222649.997 7  21454435.351   -33782495.857 8  21454434.296
  20694567.120   -42244249.678 8  20694566.473   -20116794.467 9  20694566.359
  21767371.934   -70161058.334 7  21767368.690   -24112461.273 8  21767371.155
  24530272.843     3078272.829 4  24530275.149    33338437.622 5  24530271.093
 15  7 30  0 16 30.0000000  0 11G 3G 8G14G16G19G21G23G26G27G31G32
  24573914.282    15890544.140 3  24573917.040    29322859.741 5  24573913.137
  21703040.307   -32750358.038 6  21703041.431   -15987246.329 8  21703039.773
  24776083.475    12758644.236 3  24776085.103    -7598019.531 3  24776083.286
  20827734.690   -49933085.322 7  20827730.994   -19571522.138 8  20827733.710
  23156861.434   -29304785.893 6  23156858.407   -10034098.652 7  23156859.294
  24894541.920   -20173228.670 2  24894541.803   -15501510.835 4  24894540.145
  22023312.541   -68816068.144 7  22023307.564     2101414.871 8  22023311.950
  21460865.906   -59188856.262 7  21460866.086   -33756163.094 8  21460864.826
  20680709.505   -42317071.032 7  20680708.809   -20173538.372 9  20680708.809
  21770433.819   -70144967.036 7  21770430.683   -24099922.641 8  21770433.235
  24539516.185     3126844.521 5  24539516.626    33376285.568 5  24539513.976
 15  7 30  0 17  0.0000000  0 11G 3G 8G14G16G19G21G23G26G27G31G32
  24580552.626    15925423.481 4  24580556.721    29350038.321 5  24580552.056
  21685394.214   -32843091.029 7  21685394.969   -16059505.794 8  21685393.494
  24795202.649    12859109.596 3  24795204.166    -7519734.924 3  24795200.332
  20829109.745   -49925860.499 7  20829105.914   -19565892.412 8  20829108.471
  23133379.636   -29428183.951 6  23133375.561   -10130252.924 7  23133377.306
  24892047.284   -20186342.349 3  24892045.120   -15511729.279 4  24892044.703
  22008505.567   -68893881.562 7  22008500.602     2040781.041 8  22008505.204
  21467307.675   -59155002.483 7  21467308.335   -33729783.546 8  21467307.127
  20666943.605   -42389411.854 7  20666942.870   -20229907.841 9  20666942.768
  21773538.881   -70128650.008 7  21773536.066   -24087208.115 8  21773538.263
  24548735.196     3175295.601 4  24548737.076    33414039.522 5  24548733.368
 15  7 30  0 17 30.0000000  0 11G 3G 8G14G16G19G21G23G26G27G31G32
  24587212.776    15960421.279 3  24587215.483    29377309.175 5  24587212.659
  21667815.514   -32935468.751 7  21667815.934   -16131488.429 8  21667814.408
  24814325.004    12959598.332 3  24814327.031    -7441432.100 2  24814322.726
  20830523.438   -49918431.369 7  20830519.570   -19560103.485 8  20830522.152
  23109930.142   -29551408.253 6  23109927.402   -10226271.771 7  23109928.592
  24889609.900   -20199150.521 3  24889608.215   -15521709.671 4  24889608.898
  21993783.787   -68971246.376 7  21993778.493     1980496.773 8  21993782.729
  21473762.189   -59121085.208 6  21473762.351   -33703354.522 8  21473761.544
  20653270.307   -42461265.653 7  20653269.642   -20285897.812 9  20653269.444
  21776688.251   -70112101.842 7  21776684.774   -24074313.480 8  21776687.550
  24557933.246     3223628.440 4  24557934.775    33451701.332 5  24557930.841
 15  7 30  0 18  0.0000000  0 11G 3G 8G14G16G19G21G23G26G27G31G32
  24593893.558    15995533.385 3  24593894.988    29404669.104 5  24593892.685
  21650304.340   -33027490.802 7  21650304.649   -16203193.911 8  21650303.270
  24833449.437    13060106.645 3  24833451.991    -7363114.009 2  24833448.882
  20831975.123   -49910801.230 7  20831971.651   -19554157.931 8  20831974.091
  23086514.786   -29674457.660 6  23086512.316   -10322154.346 7  23086513.305
  24887231.313   -20211653.811 3  24887229.913   -15531452.503 4  24887229.233
  21979147.005   -69048161.772 7  21979141.648     1920562.703 8  21979146.367
  21480227.924   -59087107.242 7  21480228.145   -33676878.197 8  21480227.144
  20639689.706   -42532632.257 7  20639689.008   -20341508.146 9  20639688.867
  21779880.849   -70095323.247 7  21779877.923   -24061239.288 8  21779880.400
  24567107.710     3271839.100 4  24567109.290    33489267.915 5  24567105.828
 15  7 30  0 18 30.0000000  0 11G 3G 8G14G16G19G21G23G26G27G31G32
  24600597.226    16030758.302 3  24600598.800    29432116.948 5  24600597.595
  21632861.480   -33119153.632 7  21632861.755   -16274619.476 8  21632860.457
  24852580.800    13160632.943 1  24852581.325    -7284781.895 2  24852579.391
  20833465.547   -49902970.408 7  20833461.818   -19548056.001 8  20833464.252
  23063133.016   -29797327.875 6  23063130.738   -10417897.281 7  23063131.709
  24884910.296   -20223849.552 3  24884908.371   -15540955.682 4  24884908.000
  21964596.545   -69124624.101 6  21964591.395     1860981.671 8  21964595.370
  21486705.335   -59053068.423 7  21486705.452   -33650354.459 8  21486704.508
  20626202.430   -42603508.566 7  20626201.693   -20396736.434 9  20626201.594
  21783118.116   -70078311.537 7  21783115.133   -24047983.460 8  21783117.346
  24576257.766     3319926.769 4  24576260.575    33526738.692 5  24576255.445
 15  7 30  0 19  0.0000000  0 10G 3G 8G16G19G21G23G26G27G31G32
  24607321.391    16066088.430 3  24607322.722    29459646.762 5  24607319.949
  21615486.306   -33210459.993 7  21615486.756   -16345767.275 8  21615485.455
  20834992.729   -49894945.221 7  20834988.999   -19541802.620 8  20834991.356
  23039785.443   -29920020.762 6  23039782.472   -10513502.056 7  23039783.654
  24882647.942   -20235740.997 3  24882646.129   -15550221.737 4  24882646.338
  21950132.132   -69200636.069 7  21950126.810     1801751.561 8  21950130.993
  21493193.189   -59018974.780 6  21493193.168   -33623788.007 8  21493192.445
  20612807.727   -42673897.662 7  20612807.223   -20451585.074 9  20612807.014
  21786399.243   -70061070.396 6  21786395.900   -24034548.851 8  21786398.529
  24585382.681     3367884.136 3  24585386.341    33564107.923 5  24585381.823
 15  7 30  0 19 30.0000000  0 10G 3G 8G16G19G21G23G26G27G31G32
  24614064.344    16101522.198 4  24614066.538    29487257.349 5  24614063.253
  21598179.674   -33301406.753 7  21598180.217   -16416634.861 8  21598178.808
  20836556.731   -49886726.464 7  20836553.014   -19535398.399 8  20836555.337
  23016472.302   -30042532.280 6  23016470.320   -10608965.500 7  23016470.584
  24880443.068   -20247325.726 3  24880441.563   -15559248.819 4  24880441.779
  21935754.520   -69276194.284 7  21935749.046     1742875.030 8  21935753.417
  21499691.445   -58984826.239 7  21499691.595   -33597178.776 8  21499690.654
  20599506.439   -42743796.597 7  20599505.969   -20506051.772 9  20599505.666
  21789724.199   -70043598.181 7  21789720.799   -24020934.179 8  21789723.662
  24594484.113     3415710.219 4  24594487.809    33601374.876 5  24594482.695
 15  7 30  0 20  0.0000000  0 10G 3G 8G16G19G21G23G26G27G31G32
  24620826.067    16137059.884 3  24620828.942    29514948.900 5  24620826.415
  21580942.331   -33391988.867 7  21580943.023   -16487218.306 8  21580941.671
  20838157.611   -49878312.622 7  20838154.130   -19528842.163 8  20838156.663
  22993194.290   -30164856.568 6  22993192.320   -10704283.065 7  22993192.233
  24878297.603   -20258599.823 3  24878295.696   -15568033.846 4  24878296.023
  21921463.018   -69351293.480 7  21921457.903     1684356.172 8  21921461.942
  21506200.542   -58950620.993 6  21506200.803   -33570525.373 8  21506199.925
  20586299.439   -42813200.674 7  20586298.630   -20560132.866 9  20586298.537
  21793093.656   -70025890.840 7  21793090.442   -24007136.298 8  21793093.195
  24603560.306     3463405.648 4  24603563.160    33638540.015 5  24603559.514
 15  7 30  0 20 30.0000000  0 10G 3G 8G16G19G21G23G26G27G31G32
  24627607.423    16172694.388 3  24627611.446    29542715.867 5  24627607.501
  21563774.068   -33482207.987 7  21563775.051   -16557518.893 8  21563773.306
  20839794.792   -49869710.164 7  20839791.306   -19522138.962 8  20839793.479
  22969952.268   -30286994.771 6  22969949.930   -10799455.613 7  22969950.169
  24876210.586   -20269566.355 3  24876209.465   -15576579.181 4  24876208.901
  21907258.734   -69425935.823 7  21907254.381     1626193.307 8  21907257.802
  21512719.607   -58916364.484 7  21512719.676   -33543832.011 8  21512718.822
  20573185.945   -42882112.542 8  20573185.060   -20613830.421 9  20573184.994
  21796507.570   -70007951.639 7  21796504.401   -23993157.746 8  21796506.928
  24612611.073     3510963.992 4  24612613.573    33675598.326 5  24612609.709
 15  7 30  0 21  0.0000000  0 10G 3G 8G16G19G21G23G26G27G31G32
  24634406.614    16208424.121 3  24634409.663    29570557.043 5  24634405.541
  21546675.723   -33572061.124 7  21546676.163   -16627534.300 8  21546675.057
  20841467.616   -49860919.590 7  20841464.124   -19515289.181 8  20841466.198
  22946746.320   -30408943.256 6  22946743.766   -10894480.338 7  22946744.986
  24874183.602   -20280223.105 3  24874181.096   -15584883.145 4  24874180.901
  21893142.347   -69500117.959 7  21893137.733     1568389.037 8  21893141.310
  21519247.990   -58882056.821 7  21519248.271   -33517098.790 8  21519247.249
  20560166.465   -42950529.504 7  20560165.641   -20667142.329 9  20560165.688
  21799965.598   -69989778.467 7  21799962.780   -23978996.883 8  21799965.160
  24621635.713     3558383.898 4  24621637.167    33712548.761 5  24621633.225
 15  7 30  0 21 30.0000000  0 10G 3G 8G16G19G21G23G26G27G31G32
  24641223.988    16244246.401 3  24641225.747    29598470.305 5  24641224.383
  21529647.008   -33661545.970 7  21529647.766   -16697262.730 8  21529646.693
  20843175.963   -49851942.327 7  20843172.251   -19508293.924 8  20843174.512
  22923577.334   -30530698.616 6  22923574.701   -10989354.583 7  22923575.892
  24872212.919   -20290568.096 3  24872212.221   -15592944.180 4  24872212.895
  21879114.188   -69573837.770 7  21879109.209     1510945.023 8  21879113.226
  21525786.016   -58847698.874 7  21525786.322   -33490326.385 8  21525785.372
  20547241.744   -43018449.620 8  20547241.006   -20720067.083 9  20547240.991
  21803468.742   -69971369.956 7  21803465.735   -23964652.643 8  21803468.049
  24630632.482     3605663.502 4  24630633.381    33749389.852 5  24630631.226
 15  7 30  0 22  0.0000000  0 10G 3G 8G16G19G21G23G26G27G31G32
  24648058.791    16280160.400 3  24648060.668    29626455.106 5  24648058.437
  21512689.823   -33750658.737 7  21512690.102   -16766701.223 8  21512688.758
  20844919.693   -49842778.110 7  20844916.111   -19501152.997 8  20844918.611
  22900445.842   -30652256.463 6  22900442.982   -11084074.916 7  22900443.234
  24870305.013   -20300599.212 3  24870303.406   -15600760.632 4  24870303.469
  21865174.430   -69647091.098 7  21865169.432     1453864.509 8  21865173.536
  21532334.146   -58813289.872 7  21532333.939   -33463514.210 8  21532333.199
  20534412.050   -43085869.416 7  20534411.475   -20772601.978 9  20534411.304
  21807017.031   -69952723.524 7  21807014.099   -23950123.000 8  21807016.405
  24639602.350     3652802.263 4  24639603.699    33786121.209 5  24639601.229
 15  7 30  0 22 30.0000000  0 10G 3G 8G16G19G21G23G26G27G31G32
  24654908.971    16316164.176 3  24654912.322    29654509.802 5  24654908.866
  21495803.134   -33839396.448 6  21495803.905   -16835847.466 8  21495802.675
  20846699.171   -49833427.985 7  20846695.316   -19493867.203 8  20846697.625
  22877351.990   -30773612.718 6  22877349.250   -11178638.182 7  22877350.350
  24868457.491   -20310314.206 3  24868454.568   -15608330.772 4  24868455.156
  21851324.123   -69719874.989 7  21851319.308     1397149.783 8  21851323.416
  21538891.435   -58778830.164 6  21538891.327   -33436662.515 8  21538890.760
  20521678.156   -43152786.473 7  20521677.571   -20824745.121 9  20521677.418
  21810610.913   -69933837.283 7  21810608.080   -23935406.495 8  21810610.278
  24648546.262     3699798.948 4  24648546.445    33822741.862 5  24648545.096
 15  7 30  0 23  0.0000000  0 10G 3G 8G16G19G21G23G26G27G31G32
  24661777.081    16352257.027 2  24661779.440    29682633.932 5  24661776.251
  21478989.016   -33927755.154 7  21478989.931   -16904698.376 8  21478988.333
  20848513.806   -49823891.526 7  20848509.996   -19486436.216 8  20848512.376
  22854298.274   -30894762.797 6  22854295.608   -11273040.782 7  22854295.872
  24866669.664   -20319709.878 3  24866666.555   -15615652.073 4  24866666.630
  21837563.862   -69792185.520 7  21837559.083     1340803.913 8  21837563.248
  21545458.598   -58744318.900 6  21545459.027   -33409770.648 8  21545457.948
  20509040.606   -43219197.317 7  20509039.898   -20876493.818 9  20509039.751
  21814251.404   -69914708.493 7  21814248.172   -23920500.995 8  21814250.277
  24657462.345     3746653.070 3  24657462.558    33859251.430 5  24657461.089
 15  7 30  0 23 30.0000000  0 10G 3G 8G16G19G21G23G26G27G31G32
  24668661.968    16388434.694 3  24668665.101    29710824.116 4  24668661.716
  21462247.244   -34015733.965 7  21462247.973   -16973253.269 8  21462246.513
  20850363.310   -49814171.996 7  20850359.910   -19478862.570 8  20850361.919
  22831283.593   -31015704.892 6  22831280.472   -11367281.317 7  22831282.352
  24864941.831   -20328786.746 3  24864939.004   -15622724.964 4  24864939.864
  21823894.067   -69864021.961 7  21823889.045     1284827.456 8  21823892.807
  21552035.211   -58709758.482 7  21552035.670   -33382840.490 8  21552034.633
  20496499.412   -43285101.672 8  20496498.695   -20927847.845 9  20496498.575
  21817937.505   -69895337.525 7  21817934.321   -23905406.780 8  21817937.151
  24666350.355     3793361.236 4  24666351.018    33895647.233 5  24666349.623
 15  7 30  0 24  0.0000000  0 10G 3G 8G16G19G21G23G26G27G31G32
  24675561.691    16424694.091 3  24675564.992    29739077.993 4  24675561.814
  21445578.052   -34103331.498 7  21445578.709   -17041511.064 8  21445577.036
  20852247.293   -49804271.523 7  20852243.821   -19471147.926 8  20852245.761
  22808309.016   -31136436.512 6  22808306.171   -11461357.854 7  22808307.008
  24863276.025   -20337543.881 3  24863272.569   -15629548.714 4  24863273.204
  21810314.416   -69935382.404 6  21810309.364     1229221.907 8  21810313.600
  21558620.824   -58675150.433 6  21558621.142   -33355873.205 8  21558620.321
  20484055.015   -43350498.424 7  20484054.184   -20978806.334 9  20484054.181
  21821669.972   -69875723.539 6  21821666.896   -23890123.206 8  21821669.532
  24675210.787     3839920.702 4  24675211.821    33931927.214 5  24675209.018
 15  7 30  0 24 30.0000000  0 10G 3G 8G16G19G21G23G26G27G31G32
  24682477.606    16461034.237 3  24682480.793    29767394.813 5  24682476.494
  21428982.084   -34190543.932 7  21428982.828   -17109468.784 8  21428981.140
  20854165.925   -49794189.794 7  20854162.304   -19463292.044 8  20854164.588
  22785375.439   -31256953.177 6  22785372.360   -11555266.891 7  22785373.802
  24861669.851   -20345978.380 3  24861668.559   -15636121.039 4  24861668.025
  21796826.435   -70006263.066 7  21796821.096     1173990.223 8  21796825.491
  21565215.680   -58640494.018 6  21565216.231   -33328868.231 8  21565215.188
  20471707.607   -43415384.320 7  20471706.695   -21029366.753 9  20471706.764
  21825449.021   -69855864.352 7  21825446.101   -23874648.564 8  21825448.568
  24684042.430     3886331.131 4  24684043.998    33968091.037 5  24684040.844
 15  7 30  0 25  0.0000000  0 10G 3G 8G16G19G21G23G26G27G31G32
  24689408.997    16497450.244 3  24689410.355    29795770.729 5  24689407.177
  21412459.410   -34277371.362 7  21412460.288   -17177126.505 8  21412458.403
  20856118.207   -49783930.824 7  20856114.666   -19455298.056 8  20856117.059
  22762482.777   -31377254.172 6  22762479.674   -11649007.866 7  22762481.317
  24860126.609   -20354091.801 3  24860124.529   -15642443.203 4  24860124.145
  21783429.487   -70076664.256 7  21783424.429     1119132.139 8  21783428.776
  21571819.508   -58605792.492 7  21571819.757   -33301828.115 8  21571818.753
  20459457.262   -43479759.971 7  20459456.315   -21079529.581 9  20459456.357
  21829274.715   -69835761.117 7  21829271.537   -23858983.761 8  21829274.061
  24692845.719     3932588.094 4  24692846.636    34004135.266 5  24692844.334
 15  7 30  0 25 30.0000000  0 10G 3G 8G16G19G21G23G26G27G31G32
  24696352.514    16533943.029 3  24696355.107    29824206.490 5  24696352.028
  21396011.276   -34363807.840 7  21396011.914   -17244479.585 8  21396010.106
  20858104.485   -49773492.689 7  20858100.629   -19447164.455 8  20858103.334
  22739632.689   -31497332.666 6  22739629.655   -11742575.460 7  22739631.397
  24858642.826   -20361879.136 4  24858641.869   -15648511.259 4  24858642.412
  21770124.772   -70146580.159 7  21770120.194     1064652.203 8  21770123.699
  21578432.195   -58571043.173 6  21578432.504   -33274750.752 8  21578431.284
  20447304.896   -43543620.210 8  20447304.276   -21129290.788 9  20447304.231
  21833147.520   -69815408.984 7  21833144.385   -23843125.004 8  21833146.849
  24701618.947     3978693.243 4  24701621.771    34040061.232 5  24701617.619
 15  7 30  0 26  0.0000000  0 10G 3G 8G16G19G21G23G26G27G31G32
  25003102.984    15527044.382 3  25003106.111    32307898.805 5  25003102.582
  21679430.365   -31299009.069 7  21679431.174   -14856324.679 8  21679429.756
  21159916.986   -46612037.533 7  21159913.350   -16983692.917 8  21159915.781
  23016618.286   -28466342.248 6  23016614.949    -9380764.696 7  23016616.211
  25157015.847   -17218499.106 3  25157015.557   -13199124.249 4  25157016.321
  22056705.835   -67065166.726 6  22056701.129     3465753.571 8  22056705.089
  21884845.369   -55385408.514 6  21884846.052   -30792438.057 8  21884844.955
  20735043.917   -40456121.763 7  20735043.155   -22917751.826 9  20735043.134
  22136860.155   -66643968.203 6  22136856.974   -21371872.500 8  22136859.420
  25010155.245     2981178.459 4  25010156.993    36531065.694 5  25010153.860
 15  7 30  0 26 30.0000000  0 10G 3G 8G16G19G21G23G26G27G31G32
  25010076.645    15563687.997 3  25010078.417    32336452.079 5  25010075.512
  21663133.086   -31384652.705 7  21663133.563   -14923059.961 8  21663132.127
  21161971.527   -46601240.438 7  21161968.007   -16975279.610 8  21161970.208
  22993855.278   -28585961.737 6  22993852.943    -9473974.646 7  22993853.324
  25155660.618   -17225625.415 2  25155659.307   -13204677.267 4  25155658.024
  22043588.503   -67134100.597 6  22043583.473     3412038.854 8  22043587.394
  21891477.105   -55350561.264 7  21891477.605   -30765284.388 8  21891476.298
  20723089.723   -40518941.396 7  20723088.967   -22966702.180 9  20723088.982
  22140829.218   -66623110.272 7  22140826.406   -21355619.605 8  22140828.792
  25018870.020     3026978.738 3  25018873.575    36566754.089 5  25018867.750
 15  7 30  0 27  0.0000000  0 10G 3G 8G16G19G21G23G26G27G31G32
  25017063.752    15600405.406 3  25017066.642    32365062.833 5  25017062.874
  21646911.946   -31469894.991 7  21646912.254   -14989482.498 8  21646910.893
  21164060.193   -46590263.789 7  21164056.634   -16966726.390 8  21164059.051
  22971137.431   -28705345.210 6  22971134.589    -9567000.688 7  22971135.849
  25154368.584   -17232417.549 2  25154366.455   -13209969.839 4  25154365.862
  22030564.982   -67202538.026 7  22030560.111     3358710.973 8  22030564.176
  21898117.667   -55315664.118 6  21898118.140   -30738091.831 8  21898117.223
  20711235.515   -40581236.150 7  20711234.589   -23015243.534 9  20711234.700
  22144847.300   -66601995.828 6  22144844.155   -21339166.842 8  22144846.662
  25027556.839     3072625.943 3  25027559.741    36602323.234 5  25027554.048
 15  7 30  0 27 30.0000000  0 10G 3G 8G16G19G21G23G26G27G31G32
  25024064.035    15637189.892 3  25024066.733    32393725.914 5  25024063.426
  21630766.893   -31554737.070 7  21630767.447   -15055593.183 8  21630766.068
  21166182.148   -46579113.277 7  21166178.715   -16958037.690 8  21166180.928
  22948463.792   -28824493.588 6  22948460.860    -9659843.531 7  22948463.079
  25153139.792   -17238877.847 3  25153137.121   -13215003.853 4  25153137.921
  22017635.578   -67270480.871 7  22017631.024     3305768.497 8  22017634.697
  21904767.312   -55280721.948 6  21904767.357   -30710864.202 8  21904766.545
  20699480.698   -40643008.438 8  20699479.789   -23063377.777 9  20699479.774
  22148913.388   -66580627.859 7  22148910.357   -21322516.515 8  22148912.768
  25036212.875     3118113.865 3  25036215.885    36637768.248 5  25036209.785
 15  7 30  0 28  0.0000000  0 10G 3G 8G16G19G21G23G26G27G31G32
  25031075.002    15674039.347 2  25031080.021    32422439.664 4  25031074.190
  21614698.712   -31639176.937 7  21614699.132   -15121390.456 8  21614697.759
  21168337.131   -46567789.970 7  21168333.276   -16949214.339 8  21168335.704
  22925836.348   -28943403.131 6  22925833.332    -9752500.273 7  22925834.774
  25151972.799   -17245004.844 3  25151971.438   -13219778.151 4  25151971.246
  22004801.112   -67337926.691 6  22004796.558     3253213.299 8  22004800.435
  21911424.698   -55245735.262 6  21911425.313   -30683601.873 8  21911424.234
  20687825.429   -40704256.457 8  20687824.623   -23111103.500 9  20687824.680
  22153028.256   -66559004.633 7  22153025.429   -21305667.289 8  22153027.767
  25044838.576     3163440.879 3  25044841.367    36673087.886 5  25044837.158
 15  7 30  0 28 30.0000000  0 10G 3G 8G16G19G21G23G26G27G31G32
  25038101.166    15710953.814 2  25038103.076    32451204.008 4  25038100.726
  21598707.768   -31723209.856 7  21598708.172   -15186870.624 8  21598706.871
  21170524.906   -46556292.694 7  21170521.230   -16940255.430 8  21170523.368
  22903254.682   -29062068.451 6  22903252.562    -9844966.712 7  22903253.183
  25150871.919   -17250795.396 3  25150870.117   -13224290.276 4  25150869.454
  21992062.256   -67404870.758 6  21992057.567     3201049.085 8  21992061.258
  21918091.357   -55210702.236 6  21918091.657   -30656303.448 8  21918090.710
  20676270.975   -40764976.016 8  20676270.178   -23158417.438 9  20676270.136
  22157192.487   -66537122.730 7  22157189.300   -21288616.495 8  22157192.067
  25053433.500     3208607.798 3  25053436.060    36708282.778 5  25053431.479
 15  7 30  0 29  0.0000000  0 10G 3G 8G16G19G21G23G26G27G31G32
  25045135.598    15747928.296 2  25045140.278    32480015.085 4  25045134.300
  21582794.205   -31806836.029 7  21582794.664   -15252033.844 8  21582793.189
  21172744.998   -46544625.438 7  21172741.505   -16931164.066 8  21172743.688
  22880720.434   -29180488.852 6  22880717.340    -9937242.320 7  22880719.046
  25149833.255   -17256250.853 4  25149831.444   -13228541.317 4  25149831.624
  21979418.701   -67471313.262 6  21979413.695     3149275.697 8  21979417.712
  21924766.101   -55175626.127 7  21924766.911   -30628971.455 8  21924765.343
  20664816.778   -40825168.048 7  20664815.957   -23205320.321 9  20664815.942
  22161405.347   -66514983.454 7  22161402.436   -21271365.161 8  22161404.913
  25061995.959     3253610.203 3  25062000.588    36743349.486 5  25061994.634
 15  7 30  0 29 30.0000000  0 10G 3G 8G16G19G21G23G26G27G31G32
  25052183.000    15784959.249 3  25052186.354    32508870.192 4  25052181.725
  21566958.101   -31890054.489 7  21566958.505   -15316879.365 8  21566957.276
  21174997.126   -46532790.790 7  21174993.588   -16921942.271 8  21174995.725
  22858232.936   -29298662.338 6  22858230.237   -10029325.517 7  22858230.525
  25148858.755   -17261370.632 3  25148856.807   -13232530.767 4  25148858.273
  21966870.801   -67537253.189 7  21966865.713     3097893.930 8  21966869.976
  21931448.913   -55140508.697 6  21931449.108   -30601607.268 8  21931447.930
  20653463.125   -40884832.088 8  20653462.253   -23251811.784 9  20653462.211
  22165666.969   -66492586.861 7  22165663.923   -21253913.309 8  22165666.756
  25070528.598     3298445.182 3  25070531.404    36778285.724 5  25070526.257
 15  7 30  0 30  0.0000000  0 10G 3G 8G16G19G21G23G26G27G31G32
  25059240.950    15822046.543 3  25059244.785    32537769.208 5  25059240.579
  21551200.955   -31972860.715 7  21551201.273   -15381403.669 8  21551199.867
  21177281.451   -46520787.434 7  21177277.572   -16912589.016 8  21177280.300
  22835793.017   -29416583.245 6  22835789.723   -10121211.884 7  22835791.381
  25147948.615   -17266151.415 3  25147946.472   -13236256.060 4  25147947.959
  21954419.353   -67602686.273 7  21954414.514     3046907.108 8  21954418.345
  21938139.642   -55105348.258 6  21938140.304   -30574209.560 8  21938138.755
  20642210.766   -40943964.190 8  20642209.851   -23297888.751 9  20642209.732
  22169978.743   -66469929.479 6  22169976.036   -21236258.242 8  22169978.407
  25079028.752     3343113.311 3  25079031.192    36813091.959 4  25079026.584
 15  7 30  0 30 30.0000000  0 10G 3G 8G16G19G21G23G26G27G31G32
  25066308.459    15859183.978 3  25066311.759    32566707.325 5  25066307.853
  21535521.291   -32055256.386 7  21535521.645   -15445608.057 8  21535520.754
  21179596.676   -46508620.722 7  21179593.022   -16903108.483 8  21179595.387
  22813401.519   -29534252.203 6  22813399.042   -10212901.934 7  22813399.930
  25147103.851   -17270595.548 3  25147101.072   -13239719.051 4  25147101.807
  21942063.829   -67667614.263 7  21942059.027     2996313.868 8  21942062.969
  21944837.746   -55070149.301 6  21944838.037   -30546781.838 8  21944836.850
  20631058.921   -41002566.630 7  20631058.172   -23343552.986 9  20631058.127
  22174339.620   -66447013.858 7  22174336.712   -21218401.953 8  22174339.104
  25087496.003     3387608.853 3  25087498.254    36847763.720 4  25087494.501
 15  7 30  0 31  0.0000000  0 10G 3G 8G16G19G21G23G26G27G31G32
  25073383.537    15896368.683 2  25073389.299    32595682.278 5  25073382.778
  21519920.361   -32137239.617 7  21519920.916   -15509491.060 8  21519919.462
  21181942.654   -46496292.245 7  21181939.219   -16893501.897 8  21181941.506
  22791058.059   -29651666.728 6  22791055.439   -10304393.725 7  22791056.746
  25146321.918   -17274702.420 3  25146320.590   -13242919.209 4  25146320.452
  21929805.085   -67732035.049 7  21929799.731     2946115.851 8  21929804.401
  21951543.171   -55034912.788 6  21951543.603   -30519324.853 8  21951542.442
  20620008.421   -41060638.209 8  20620007.459   -23388803.569 9  20620007.513
  22178749.651   -66423839.214 6  22178746.662   -21200343.838 8  22178749.228
  25095930.172     3431929.704 4  25095933.062    36882299.372 4  25095928.649
 15  7 30  0 31 30.0000000  0 10G 3G 8G16G19G21G23G26G27G31G32
  25080469.464    15933597.258 2  25080473.389    32624691.433 5  25080467.905
  21504397.950   -32218809.411 7  21504398.208   -15573051.903 8  21504397.294
  21184318.914   -46483804.531 7  21184315.539   -16883771.231 8  21184317.574
  22768764.283   -29768824.592 6  22768761.181   -10395685.513 7  22768762.428
  25145604.838   -17278472.220 3  25145602.796   -13245856.723 4  25145603.198
  21917643.002   -67795947.506 7  21917637.915     2896313.936 8  21917642.568
  21958255.116   -54999640.473 6  21958255.776   -30491839.968 8  21958254.400
  20609058.688   -41118178.524 7  20609057.977   -23433640.182 9  20609057.932
  22183208.446   -66400405.725 7  22183205.796   -21182084.018 8  22183208.174
  25104330.552     3476073.061 4  25104333.175    36916696.712 4  25104328.861
 15  7 30  0 32  0.0000000  0 11G 3G 8G 9G16G19G21G23G26G27G31G32
  25087561.744    15970865.208 1  25087563.837    32653731.275 4  25087559.283
  21488954.408   -32299966.101 7  21488954.885   -15636290.855 8  21488953.656
  24595298.934   -28558963.50013
  21186724.815   -46471161.180 7  21186720.971   -16873919.289 8  21186723.771
  22746518.694   -29885724.585 6  22746515.198   -10486776.365 7  22746516.712
  25144951.728   -17281905.457 4  25144949.504   -13248531.994 4  25144948.868
  21905577.528   -67859351.775 7  21905572.804     2846908.005 8  21905576.542
  21964973.654   -54964335.022 6  21964974.326   -30464329.260 8  21964972.851
  20598210.191   -41175188.146 8  20598209.438   -23478063.266 9  20598209.321
  22187716.959   -66376714.351 7  22187714.489   -21163623.246 8  22187716.462
  25112696.677     3520035.086 3  25112698.661    36950952.762 4  25112695.499
 15  7 30  0 32 30.0000000  0 11G 3G 8G 9G16G19G21G23G26G27G31G32
  25094660.410    16008171.275 1  25094666.532    32682800.851 4  25094658.647
  21473590.036   -32380706.077 7  21473590.432   -15699205.102 8  21473589.248
  24576201.708   -28659321.564 4  24576202.196     5394044.596 5  24576201.387
  21189160.694   -46458361.986 7  21189156.863   -16863945.901 8  21189159.405
  22724323.184   -30002361.981 6  22724320.306   -10577662.593 7  22724321.509
  25144362.456   -17284999.856 4  25144361.227   -13250943.227 4  25144361.275
  21893609.591   -67922244.560 7  21893604.879     2797900.641 8  21893608.482
  21971698.473   -54928995.839 6  21971699.429   -30436792.280 8  21971697.768
  20587463.060   -41231664.430 7  20587462.337   -23522070.762 9  20587462.152
  22192274.875   -66352762.696 7  22192271.985   -21144959.671 8  22192274.362
  25121027.490     3563815.232 3  25121029.510    36985067.071 4  25121025.724
 15  7 30  0 33  0.0000000  0 11G 3G 8G 9G16G19G21G23G26G27G31G32
  25101765.341    16045513.932 1
  21458305.870   -32461026.191 7  21458306.050   -15761792.182 8  21458304.605
  24557157.230   -28759398.884 4  24557158.807     5316062.349 5  24557156.094
  21191625.642   -46445407.456 7  21191622.080   -16853851.476 8  21191624.239
  22702178.052   -30118733.599 6  22702175.783   -10668341.714 7  22702176.607
  25143838.122   -17287753.375 3  25143837.373   -13253088.854 5  25143836.788
  21881739.393   -67984622.889 7  21881734.488     2749294.142 8  21881738.410
  21978429.680   -54893622.702 6  21978430.312   -30409228.832 8  21978429.110
  20576817.846   -41287605.032 8  20576817.073   -23565660.842 9  20576817.064
  22196882.754   -66328548.639 6  22196880.077   -21126091.618 8  22196882.013
  25129324.606     3607412.572 3  25129326.425    37019038.963 4  25129321.847
 15  7 30  0 33 30.0000000  0 10G 8G 9G16G19G21G23G26G27G31G32
  21443100.498   -32540929.553 7  21443101.044   -15824054.519 8  21443099.794
  24538166.529   -28859197.069 4  24538169.218     5238297.607 5  24538166.118
  21194119.366   -46432303.742 7  21194115.748   -16843640.806 8  21194117.859
  22680083.474   -30234841.050 6  22680080.290   -10758814.999 7  22680081.813
  25143379.341   -17290169.910 3  25143377.017   -13254971.884 5  25143376.634
  21869966.237   -68046489.959 7  21869961.519     2701086.034 8  21869965.476
  21985166.283   -54858221.044 6  21985166.877   -30381643.165 8  21985165.690
  20566273.987   -41343013.452 8  20566273.345   -23608836.231 9  20566273.222
  22201539.553   -66304076.004 7  22201536.765   -21107022.075 8  22201539.004
  25137584.763     3650820.563 4  25137586.517    37052863.293 4  25137583.063
 15  7 30  0 34  0.0000000  0 10G 8G 9G16G19G21G23G26G27G31G32
  21427975.606   -32620411.896 7  21427976.221   -15885988.795 8  21427974.878
  24519228.957   -28958711.164 4  24519231.104     5160754.210 6  24519228.202
  21196641.353   -46419050.010 7  21196638.055   -16833313.238 8  21196640.081
  22658040.481   -30350678.611 6  22658037.573   -10849077.974 7  22658038.853
  25142984.016   -17292246.220 4  25142980.943   -13256589.802 5  25142982.122
  21858291.606   -68107841.239 7  21858286.494     2653279.836 8  21858290.715
  21991909.059   -54822789.359 6  21991909.716   -30354034.097 8  21991908.424
  20555832.057   -41397886.193 8  20555831.322   -23651594.209 9  20555831.280
  22206246.564   -66279341.995 7  22206244.007   -21087748.863 8  22206245.944
  25145809.938     3694039.443 4  25145809.977    37086540.257 4  25145807.869
 15  7 30  0 34 30.0000000  0 10G 8G 9G16G19G21G23G26G27G31G32
  21412931.499   -32699469.152 7  21412931.814   -15947591.839 8  21412930.848
  24500346.328   -29057936.063 3  24500348.277     5083436.148 6  24500344.688
  21199192.101   -46405645.351 7  21199188.698   -16822868.063 8  21199191.072
  22636049.166   -30466240.896 6  22636046.651   -10939126.447 7  22636047.646
  25142653.696   -17293978.864 3  25142651.969   -13257939.925 5  25142652.731
  21846715.701   -68168672.396 7  21846711.390     2605878.927 8  21846715.123
  21998657.675   -54787325.857 6  21998657.669   -30326400.227 8  21998656.920
  20545492.805   -41452219.499 7  20545492.053   -23693931.846 9  20545491.993
  22211003.695   -66254342.872 6  22211001.192   -21068269.070 8  22211003.194
  25153997.555     3737069.903 3  25153999.231    37120070.432 4  25153996.431
 15  7 30  0 35  0.0000000  0 10G 8G 9G16G19G21G23G26G27G31G32
  21397967.853   -32778104.374 7  21397968.213   -16008866.028 8  21397966.732
  24481519.794   -29156874.543 4  24481520.801     5006341.288 6  24481518.375
  21201770.547   -46392096.546 7  21201766.790   -16812310.571 8  21201769.234
  22614110.924   -30581530.408 6  22614107.149   -11028962.369 7  22614109.077
  25142388.512   -17295372.374 3  25142386.611   -13259025.785 5  25142387.453
  21835238.354   -68228987.311 7  21835233.168     2558880.279 8  21835237.395
  22005410.791   -54751836.622 6  22005411.133   -30298746.310 8  22005410.425
  20535255.373   -41506017.596 8  20535254.653   -23735852.437 9  20535254.590
  22215810.603   -66229083.122 6  22215807.878   -21048586.192 8  22215809.695
  25162148.678     3779904.722 3  25162150.309    37153448.156 4  25162147.275
 15  7 30  0 35 30.0000000  0 10G 8G 9G16G19G21G23G26G27G31G32
  21383084.734   -32856314.524 7  21383085.199   -16069808.995 8  21383084.015
  24462747.186   -29255522.438 4  24462748.678     4929472.838 6  24462746.040
  21204376.196   -46378403.546 7  21204372.733   -16801640.719 8  21204374.916
  22592224.689   -30696542.951 6  22592221.413   -11118582.482 7  22592223.208
  25142188.019   -17296424.388 2  25142186.449   -13259845.533 4  25142186.431
  21823860.145   -68288782.727 7  21823854.860     2512286.444 8  21823859.000
  22012169.603   -54716320.967 6  22012169.951   -30271071.801 8  22012168.851
  20525120.304   -41559277.870 8  20525119.476   -23777353.943 9  20525119.333
  22220667.136   -66203560.640 7  22220665.044   -21028698.590 8  22220666.788
  25170263.628     3822543.453 4  25170264.746    37186673.081 4  25170261.479
 15  7 30  0 36  0.0000000  0 10G 8G 9G16G19G21G23G26G27G31G32
  21368283.102   -32934097.135 7  21368283.462   -16130418.819 8  21368282.287
  24444032.090   -29353876.513 4  24444032.893     4852833.327 6  24444031.151
  21207009.546   -46364567.269 7  21207006.032   -16790859.223 8  21207008.080
  22570391.767   -30811274.730 6  22570388.742   -11207983.818 7  22570390.244
  25142054.885   -17297133.356 4  25142052.990   -13260397.995 4  25142052.273
  21812580.256   -68348055.909 7  21812575.486     2466099.535 8  21812579.632
  22018932.861   -54680778.847 6  22018933.437   -30243376.681 8  22018932.375
  20515087.686   -41611998.501 8  20515087.042   -23818434.949 9  20515086.982
  22225574.577   -66177773.691 6  22225572.044   -21008604.911 8  22225574.130
  25178339.605     3864984.917 3  25178340.529    37219744.292 4  25178337.914
 15  7 30  0 36 30.0000000  0 10G 8G 9G16G19G21G23G26G27G31G32
  21353562.999   -33011452.127 7  21353563.287   -16190695.434 8  21353562.312
  24425372.084   -29451935.740 4  24425372.441     4776423.614 6  24425370.984
  21209668.945   -46350590.502 7  21209665.338   -16779968.252 8  21209667.665
  22548612.417   -30925724.387 6  22548609.090   -11297165.314 7  22548610.975
  25141982.898   -17297500.137 3  25141982.269   -13260683.814 4  25141982.910
  21801400.168   -68406806.722 7  21801395.635     2420319.669 8  21801399.235
  22025700.778   -54645212.628 6  22025701.275   -30215662.783 8  22025700.097
  20505157.994   -41664179.991 8  20505157.220   -23859095.847 9  20505157.190
  22230531.972   -66151723.225 7  22230529.394   -20988305.899 8  22230531.130
  25186377.389     3907225.670 3  25186378.801    37252659.094 4  25186376.028
 15  7 30  0 37  0.0000000  0 10G 8G 9G16G19G21G23G26G27G31G32
  21338925.443   -33088374.069 7  21338925.758   -16250634.606 8  21338924.313
  24406768.223   -29549694.095 4  24406768.927     4700248.301 6  24406768.163
  21212355.931   -46336471.345 7  21212352.270   -16768966.327 8  21212354.716
  22526888.326   -31039885.639 6  22526885.250   -11386122.069 7  22526886.710
  25141980.245   -17297520.460 3  25141977.724   -13260699.660 4  25141978.812
  21790320.858   -68465030.089 6  21790315.746     2374950.802 8  21790319.844
  22032473.899   -54609619.622 6  22032474.333   -30187928.016 8  22032473.227
  20495331.759   -41715817.924 7  20495330.980   -23899333.191 9  20495330.812
  22235540.209   -66125404.608 6  22235537.430   -20967797.930 8  22235539.885
  25194378.295     3949267.217 3  25194378.772    37285418.697 4  25194376.205
 15  7 30  0 37 30.0000000  0 10G 8G 9G16G19G21G23G26G27G31G32
  21324368.838   -33164868.615 7  21324369.428   -16310240.744 8  21324368.103
  24388222.852   -29647156.420 4  24388222.354     4624303.681 6  24388221.569
  21215067.841   -46322218.774 7  21215064.196   -16757860.443 8  21215066.756
  22505218.152   -31153762.945 6  22505215.127   -11474857.571 7  22505216.305
  25142041.583   -17297200.848 4  25142039.607   -13260450.617 4  25142039.547
  21779340.395   -68522731.582 7  21779335.629     2329988.596 8  21779339.607
  22039250.527   -54574007.817 6  22039251.511   -30160178.601 8  22039249.937
  20485607.583   -41766918.524 8  20485606.780   -23939151.833 9  20485606.792
  22240598.421   -66098824.298 7  22240595.546   -20947086.044 8  22240597.744
  25202338.936     3991100.429 3  25202339.637    37318015.950 4  25202336.939
 15  7 30  0 38  0.0000000  0 10G 8G 9G16G19G21G23G26G27G31G32
  21309895.134   -33240929.006 7  21309895.592   -16369508.575 8  21309894.423
  24369733.155   -29744314.859 4  24369734.732     4548595.881 6  24369733.371
  21217806.379   -46307828.777 7  21217802.611   -16746647.475 8  21217804.997
  22483603.616   -31267347.930 6  22483600.339   -11563365.296 7  22483601.536
  25142167.007   -17296535.352 4  25142166.977   -13259932.062 4  25142166.518
  21768460.837   -68579904.331 7  21768455.987     2285438.387 8  21768459.749
  22046031.968   -54538372.649 6  22046032.564   -30132410.973 8  22046031.140
  20475986.715   -41817475.521 8  20475986.047   -23978546.887 9  20475986.077
  22245707.391   -66071976.788 7  22245704.789   -20926165.955 8  22245706.540
  25210259.896     4032728.726 3  25210262.067    37350453.546 4  25210258.256
 15  7 30  0 38 30.0000000  0 10G 8G 9G16G19G21G23G26G27G31G32
  21295503.417   -33316557.207 7  21295503.753   -16428439.642 8  21295502.721
  24351302.799   -29841170.748 5  24351302.982     4473123.799 6  24351302.994
  21220569.755   -46293306.813 7  21220566.095   -16735331.681 8  21220568.415
  22462044.305   -31380641.867 6  22462041.745   -11651646.219 7  22462043.004
  25142359.516   -17295527.029 3  25142357.456   -13259146.372 4  25142356.617
  21757681.515   -68636550.864 7  21757676.649     2241298.219 8  21757680.147
  22052816.673   -54502718.752 6  22052817.125   -30104628.751 8  22052816.340
  20466469.102   -41867491.896 8  20466468.263   -24017520.675 9  20466468.290
  22250866.301   -66044864.984 7  22250863.974   -20905039.925 8  22250865.731
  25218141.164     4074146.234 3  25218142.660    37382726.885 4  25218139.497
 15  7 30  0 39  0.0000000  0 10G 8G 9G16G19G21G23G26G27G31G32
  21281193.876   -33391753.901 7  21281194.410   -16487034.466 8  21281193.154
  24332929.430   -29937724.057 4  24332929.032     4397887.496 6  24332928.081
  21223357.588   -46278656.633 7  21223353.871   -16723915.973 8  21223356.245
  22440540.936   -31493644.456 6  22440537.602   -11739700.115 7  22440539.125
  25142616.084   -17294177.638 3  25142612.633   -13258094.912 4  25142613.686
  21747001.795   -68692671.950 7  21746997.154     2197567.489 8  21747000.713
  22059604.457   -54467049.286 6  22059605.116   -30076834.395 8  22059603.851
  20457053.793   -41916969.149 8  20457052.933   -24056074.368 9  20457053.068
  22256075.644   -66017490.509 7  22256073.201   -20883709.214 8  22256074.922
  25225982.254     4115348.834 3  25225983.408    37414832.773 4  25225980.230
 15  7 30  0 39 30.0000000  0 10G 8G 9G16G19G21G23G26G27G31G32
  21266967.276   -33466514.834 7  21266967.926   -16545289.732 8  21266966.628
  24314613.721   -30033969.080 4  24314614.827     4322891.432 6  24314613.574
  21226170.028   -46263876.783 7  21226166.263   -16712399.225 8  21226168.724
  22419093.481   -31606349.510 6  22419090.746   -11827522.168 8  22419091.793
  25142938.643   -17292483.279 3  25142936.104   -13256774.658 4  25142936.985
  21736423.597   -68748262.901 7  21736418.791     2154249.851 8  21736422.473
  22066395.580   -54431361.859 6  22066396.021   -30049026.049 8  22066394.588
  20447742.003   -41965903.342 8  20447741.172   -24094204.899 9  20447741.160
  22261335.653   -65989849.446 7  22261333.270   -20862170.769 8  22261335.143
  25233781.568     4156337.594 3  25233783.483    37446772.021 4  25233780.848
 15  7 30  0 40  0.0000000  0 10G 8G 9G16G19G21G23G26G27G31G32
  21252824.159   -33540838.341 7  21252824.630   -16603204.146 8  21252823.451
  24296358.273   -30129903.573 4  24296358.918     4248137.340 6  24296357.503
  21229006.856   -46248968.854 7  21229003.310   -16700782.674 8  21229005.660
  22397703.789   -31718754.359 6  22397700.294   -11915110.292 7  22397702.116
  25143327.620   -17290443.597 3  25143325.273   -13255185.325 4  25143324.452
  21725946.114   -68803322.111 6  21725941.534     2111346.554 8  21725944.885
  22073189.726   -54395657.256 6  22073190.364   -30021204.321 8  22073189.351
  20438533.545   -42014293.665 7  20438532.717   -24131911.638 9  20438532.735
  22266646.288   -65961941.146 7  22266643.931   -20840424.088 8  22266645.742
  25241541.431     4197110.677 2  25241542.040    37478543.225 4  25241538.916
 15  7 30  0 40 30.0000000  0 10G 8G 9G16G19G21G23G26G27G31G32
  21238765.038   -33614719.661 7  21238765.278   -16660773.995 8  21238764.315
  24278162.889   -30225522.180 4  24278164.088     4173629.393 6  24278162.718
  21231868.282   -46233931.372 7  21231865.051   -16689065.169 8  21231867.320
  22376371.883   -31830853.319 6  22376368.933   -12002460.058 8  22376370.567
  25143782.571   -17288055.033 3  25143779.935   -13253324.121 4  25143779.294
  21715570.429   -68857845.411 6  21715565.980     2068860.854 8  21715569.473
  22079988.023   -54359933.389 6  22079988.638   -29993367.582 8  22079987.334
  20429429.522   -42062136.493 8  20429428.518   -24169191.762 9  20429428.623
  22272008.873   -65933762.490 6  22272006.160   -20818466.742 8  22272008.202
  25249258.677     4237668.919 3  25249260.509    37510147.019 4  25249256.360
 15  7 30  0 41  0.0000000  0 10G 8G 9G16G19G21G23G26G27G31G32
  21224789.490   -33688161.357 7  21224789.751   -16718001.278 8  21224788.863
  24260026.794   -30320826.188 4  24260027.858     4099366.584 6  24260025.814
  21234753.554   -46218769.629 7  21234750.190   -16677250.840 8  21234752.313
  22355098.251   -31942647.331 6  22355095.199   -12089572.216 8  22355096.500
  25144301.934   -17285320.754 3  25144299.856   -13251193.524 4  25144299.290
  21705296.584   -68911835.173 7  21705291.832     2026790.889 8  21705295.735
  22086788.986   -54324194.625 6  22086789.391   -29965519.229 8  22086788.486
  20420428.886   -42109434.715 8  20420427.879   -24206047.521 9  20420428.050
  22277421.614   -65905316.119 6  22277419.413   -20796300.795 8  22277421.560
  25256935.675     4278006.736 2  25256936.266    37541579.052 4  25256931.721
 15  7 30  0 41 30.0000000  0 10G 8G 9G16G19G21G23G26G27G31G32
  21210897.063   -33761166.271 7  21210897.530   -16774888.204 8  21210896.424
  24241950.766   -30415817.788 4  24241951.653     4025347.202 6  24241950.094
  21237661.346   -46203489.657 7  21237657.904   -16665344.383 8  21237660.054
  22333882.106   -32054138.628 6  22333878.946   -12176448.481 8  22333880.083
  25144887.396   -17282244.762 3  25144884.386   -13248796.674 4  25144885.807
  21695123.406   -68965294.525 7  21695119.005     1985134.233 8  21695122.392
  22093591.814   -54288446.329 6  22093592.134   -29937663.450 8  22093591.214
  20411531.103   -42156192.252 8  20411530.240   -24242481.967 9  20411530.309
  22282885.361   -65876605.948 6  22282882.537   -20773929.282 8  22282884.720
  25264568.061     4318117.739 2  25264569.674    37572834.334 4  25264564.869
 15  7 30  0 42  0.0000000  0 10G 8G 9G16G19G21G23G26G27G31G32
  21197089.332   -33833727.109 7  21197089.707   -16831429.093 9  21197088.808
  24223935.293   -30510488.469 4  24223935.382     3951577.878 6  24223934.153
  21240592.564   -46188086.888 7  21240588.762   -16653342.237 8  21240591.374
  22312724.829   -32165317.906 6  22312721.633   -12263081.627 8  22312723.219
  25145539.294   -17278820.425 4  25145536.932   -13246128.387 4  25145536.815
  21685052.951   -69018215.945 7  21685048.283     1943896.744 8  21685052.082
  22100397.069   -54252683.157 6  22100397.708   -29909796.088 8  22100396.614
  20402737.567   -42202402.289 8  20402736.931   -24278489.790 9  20402736.871
  22288400.059   -65847625.495 7  22288397.849   -20751347.172 8  22288399.771
  25272158.507     4358006.047 2  25272160.527    37603916.090 4  25272156.177
 15  7 30  0 42 30.0000000  0 10G 8G 9G16G19G21G23G26G27G31G32
  21183366.360   -33905841.793 7  21183366.857   -16887622.327 8  21183365.430
  24205981.550   -30604835.481 4  24205981.586     3878060.773 6  24205980.671
  21243546.725   -46172562.541 6  21243543.133   -16641245.359 8  21243545.247
  22291628.149   -32276182.253 6  22291625.211   -12349469.368 8  22291626.503
  25146256.902   -17275046.892 3  25146256.323   -13243187.987 4  25146254.935
  21675085.140   -69070597.588 7  21675080.325     1903079.859 8  21675084.201
  22107205.452   -54216905.483 6  22107206.229   -29881917.423 8  22107204.667
  20394048.685   -42248063.852 8  20394047.830   -24314070.233 9  20394047.768
  22293966.497   -65818373.854 7  22293963.784   -20728553.741 8  22293966.113
  25279705.647     4397670.175 2  25279708.822    37634823.163 3  25279704.460
 15  7 30  0 43  0.0000000  0 10G 8G 9G16G19G21G23G26G27G31G32
  21169728.243   -33977508.673 7  21169729.074   -16943466.616 8  21169727.599
  24188089.150   -30698856.064 4  24188089.369     3804798.042 6  24188087.753
  21246523.814   -46156917.645 7  21246520.414   -16629054.549 8  21246522.635
  22270591.943   -32386728.645 6  22270589.035   -12435609.363 8  22270590.558
  25147041.863   -17270923.304 3  25147040.262   -13239974.818 4  25147039.054
  21665219.959   -69122438.027 7  21665215.729     1862684.690 8  21665219.225
  22114016.323   -54181113.598 6  22114017.231   -29854027.682 8  22114015.708
  20385464.068   -42293175.859 8  20385463.372   -24349222.452 9  20385463.186
  22299584.647   -65788849.865 6  22299582.117   -20705548.098 8  22299584.179
  25287211.203     4437108.644 2  25287213.673    37665554.382 3  25287208.949
 15  7 30  0 43 30.0000000  0 10G 8G 9G16G19G21G23G26G27G31G32
  21156176.281   -34048725.177 7  21156176.743   -16998959.969 8  21156175.642
  24170260.952   -30792546.563 4  24170261.359     3731792.487 6  24170259.833
  21249523.810   -46141152.394 7  21249520.386   -16616769.957 8  21249522.437
  22249617.078   -32496953.219 6  22249614.005   -12521498.590 8  22249615.102
  25147894.113   -17266447.798 3  25147890.821   -13236487.426 4  25147890.983
  21655458.873   -69173734.604 7  21655454.370     1822713.313 8  21655458.075
  22120830.306   -54145307.011 6  22120831.043   -29826126.496 8  22120829.676
  20376984.531   -42337736.487 8  20376983.779   -24383945.029 9  20376983.773
  22305255.365   -65759051.491 6  22305252.835   -20682328.648 8  22305255.035
  25294672.456     4476320.781 3  25294674.596    37696109.246 3  25294670.987
 15  7 30  0 44  0.0000000  0 10G 8G 9G16G19G21G23G26G27G31G32
  21142710.245   -34119490.926 7  21142710.692   -17054102.074 8  21142709.361
  24152495.865   -30885905.773 4  24152495.778     3659045.102 6  24152495.194
  21252546.104   -46125269.507 7  21252542.855   -16604393.696 8  21252545.028
  22228703.442   -32606854.187 6  22228700.603   -12607135.654 8  22228701.766
  25148811.070   -17261621.193 2  25148809.517   -13232726.461 4  25148808.783
  21645801.143   -69224486.917 7  21645796.553     1783166.043 8  21645800.351
  22127646.294   -54109487.426 6  22127647.227   -29798215.173 8  22127645.869
  20368609.823   -42381746.165 8  20368608.861   -24418238.295 9  20368609.046
  22310977.881   -65728979.698 6  22310975.309   -20658896.143 8  22310977.624
  25302091.363     4515303.736 2  25302093.020    37726485.537 3  25302088.350
 15  7 30  0 44 30.0000000  0 10G 8G 9G16G19G21G23G26G27G31G32
  21129329.794   -34189805.427 7  21129330.184   -17108892.561 8  21129328.922
  24134793.657   -30978932.105 4  24134792.914     3586557.085 6  24134793.303
  21255590.662   -46109270.891 7  21255587.247   -16591927.266 8  21255589.277
  22207852.088   -32716429.693 6  22207848.610   -12692519.115 8  22207849.893
  25149796.803   -17256443.787 3  25149796.731   -13228692.126 4  25149795.184
  21636246.976   -69274694.965 7  21636242.083     1744042.875 8  21636246.139
  22134465.038   -54073656.448 6  22134465.868   -29770294.975 8  22134464.258
  20360339.667   -42425205.233 8  20360338.825   -24452102.517 9  20360338.903
  22316752.781   -65698634.470 6  22316749.986   -20635250.577 8  22316752.193
  25309465.109     4554054.729 2  25309466.458    37756681.047 4  25309462.108
 15  7 30  0 45  0.0000000  0 10G 8G 9G16G19G21G23G26G27G31G32
  21116035.627   -34259665.959 7  21116035.968   -17163329.303 9  21116035.009
  24117155.368   -31071621.909 5  24117155.092     3514331.305 6  24117155.020
  21258657.215   -46093157.231 7  21258653.467   -16579371.189 8  21258655.566
  22187063.250   -32825675.739 6  22187059.829   -12777645.860 8  22187061.565
  25150848.976   -17250913.771 3  25150847.755   -13224383.007 4  25150847.686
  21626796.807   -69324355.974 7  21626792.070     1705345.966 8  21626796.088
  22141285.385   -54037813.389 6  22141286.431   -29742365.360 8  22141284.786
  20352174.772   -42468111.814 8  20352173.989   -24485536.229 9  20352174.034
  22322579.574   -65668014.305 7  22322576.690   -20611390.770 8  22322578.851
  25316795.058     4592573.328 2  25316797.040    37786695.499 4  25316792.864
 15  7 30  0 45 30.0000000  0 10G 8G 9G16G19G21G23G26G27G31G32
  21102828.879   -34329068.029 7  21102829.406   -17217408.806 8  21102828.132
  24099582.151   -31163969.767 5  24099582.133     3442371.959 6  24099581.780
  21261745.476   -46076926.826 7  21261742.400   -16566724.140 8  21261744.106
  22166338.135   -32934586.340 6  22166334.439   -12862511.223 8  22166336.265
  25151970.298   -17245027.594 3  25151967.019   -13219796.380 4  25151968.002
  21617451.836   -69373465.585 7  21617447.048     1667078.718 8  21617450.792
  22148108.997   -54001955.816 6  22148109.996   -29714424.437 8  22148108.479
  20344115.874   -42510462.291 8  20344115.043   -24518536.614 9  20344115.019
  22328459.319   -65637115.322 6  22328457.014   -20587313.713 8  22328458.633
  25324080.474     4630860.700 3  25324083.565    37816529.779 4  25324079.284
 15  7 30  0 46  0.0000000  0 10G 8G 9G16G19G21G23G26G27G31G32
  21089709.460   -34398010.646 7  21089709.760   -17271130.293 8  21089708.633
  24082073.984   -31255973.581 5  24082074.770     3370680.728 6  24082072.581
  21264856.071   -46060581.132 7  21264852.708   -16553987.259 8  21264854.812
  22145677.108   -33043159.607 6  22145673.606   -12947113.735 8  22145675.903
  25153158.265   -17238785.356 3  25153155.165   -13214932.287 4  25153155.441
  21608211.635   -69422022.969 7  21608206.341     1629241.782 8  21608210.661
  22154935.143   -53966084.625 6  22154936.207   -29686472.907 8  22154934.588
  20336162.623   -42552256.397 8  20336161.993   -24551103.459 9  20336161.921
  22334392.530   -65605937.237 6  22334390.110   -20563019.175 8  22334391.840
  25331322.776     4668914.937 3  25331324.809    37846182.397 4  25331321.070
 15  7 30  0 46 30.0000000  0 10G 8G 9G16G19G21G23G26G27G31G32
  21076676.867   -34466497.771 7  21076677.182   -17324496.863 8  21076676.034
  24064631.180   -31347636.344 4  24064631.486     3299255.235 6  24064631.306
  21267987.101   -46044126.935 7  21267983.689   -16541165.821 8  21267985.938
  22125079.771   -33151398.145 6  22125077.205   -13031455.396 8  22125078.098
  25154411.742   -17232191.844 3  25154410.999   -13209794.479 4  25154409.650
  21599075.667   -69470032.302 7  21599070.813     1591831.896 8  21599074.978
  22161762.634   -53930205.758 6  22161763.318   -29658515.393 8  22161761.965
  20328314.704   -42593498.981 8  20328313.873   -24583240.547 9  20328313.822
  22340377.607   -65574484.860 6  22340375.134   -20538510.896 8  22340377.047
  25338517.621     4706728.813 3  25338519.537    37875647.729 4  25338515.403
 15  7 30  0 47  0.0000000  0 10G 8G 9G16G19G21G23G26G27G31G32
  21063731.562   -34534525.803 7  21063731.736   -17377505.696 9  21063730.738
  24047253.438   -31438953.146 4  24047254.172     3228099.297 6  24047252.173
  21271139.038   -46027563.271 7  21271135.647   -16528259.088 8  21271137.899
  22104547.567   -33259296.463 6  22104544.141   -13115531.961 8  22104545.795
  25155733.386   -17225244.096 3  25155733.134   -13204380.656 4  25155731.644
  21590044.614   -69517489.860 7  21590039.991     1554851.966 8  21590043.862
  22168591.981   -53894317.316 6  22168592.788   -29630550.422 8  22168591.501
  20320572.039   -42634187.023 8  20320571.205   -24614945.521 9  20320571.172
  22346415.655   -65542754.930 6  22346413.392   -20513786.343 8  22346415.068
  25345667.887     4744303.145 3  25345670.367    37904926.376 4  25345666.232
 15  7 30  0 47 30.0000000  0 10G 8G 9G16G19G21G23G26G27G31G32
  21050873.880   -34602093.603 7  21050874.099   -17430155.915 9  21050873.113
  24029943.376   -31529922.165 4  24029943.226     3157214.377 6  24029942.396
  21274311.391   -46010891.893 7  21274308.396   -16515268.423 8  21274310.201
  22084080.286   -33366852.292 6  22084077.124   -13199341.653 8  22084079.003
  25157123.572   -17217942.135 3  25157120.994   -13198690.817 4  25157121.554
  21581119.142   -69564394.833 7  21581114.549     1518302.621 8  21581118.072
  22175423.508   -53858420.323 6  22175424.071   -29602578.776 8  22175422.659
  20312934.958   -42674320.584 8  20312934.034   -24646218.432 9  20312934.037
  22352506.281   -65510747.656 6  22352504.230   -20488845.681 8  22352505.912
  25352772.336     4781635.644 3  25352773.757    37934016.603 4  25352769.782
 15  7 30  0 48  0.0000000  0 10G 8G 9G16G19G21G23G26G27G31G32
  21038104.241   -34669198.259 7  21038104.436   -17482445.242 9  21038103.345
  24012699.257   -31620539.307 4  24012699.353     3086603.632 6  24012699.338
  21277504.846   -45994112.500 7  21277501.374   -16502193.593 8  21277503.299
  22063679.212   -33474061.354 6  22063675.659   -13282881.144 8  22063677.440
  25158580.797   -17210283.948 3  25158578.504   -13192723.425 4  25158579.163
  21572299.065   -69610744.471 7  21572294.289     1482186.006 8  21572298.265
  22182255.940   -53822513.687 6  22182256.929   -29574599.621 8  22182255.163
  20305403.551   -42713897.508 8  20305402.690   -24677057.594 9  20305402.678
  22358650.602   -65478460.527 6  22358648.603   -20463686.950 8  22358649.769
  25359830.416     4818726.457 3  25359832.433    37962918.504 4  25359828.884
 15  7 30  0 48 30.0000000  0 10G 8G 9G16G19G21G23G26G27G31G32
  21025423.236   -34735836.408 7  21025423.614   -17534371.063 9  21025422.685
  23995522.801   -31710800.072 5  23995522.936     3016270.592 6  23995522.789
  21280718.678   -45977224.340 7  21280715.018   -16489034.016 8  21280717.215
  22043344.991   -33580918.845 6  22043341.570   -13366146.682 8  22043343.414
  25160106.387   -17202267.191 3  25160104.555   -13186476.610 4  25160104.468
  21563584.887   -69656535.503 7  21563580.213     1446504.669 8  21563583.784
  22189090.977   -53786595.741 6  22189091.640   -29546611.650 8  22189090.233
  20297978.771   -42752915.159 8  20297977.862   -24707460.965 9  20297977.946
  22364848.314   -65445890.747 6  22364845.966   -20438307.968 8  22364847.432
  25366842.262     4855575.860 2  25366844.801    37991632.271 4  25366839.285
 15  7 30  0 49  0.0000000  0 10G 8G 9G16G19G21G23G26G27G31G32
  21012830.265   -34802012.456 7  21012830.757   -17585936.809 9  21012829.768
  23978414.767   -31800707.722 5  23978414.731     2946212.696 6  23978413.634
  21283951.517   -45960234.203 7  21283948.174   -16475794.973 8  21283950.351
  22023077.129   -33687427.719 6  22023073.942   -13449140.568 8  22023075.444
  25161699.247   -17193896.861 3  25161698.093   -13179954.275 4  25161697.901
  21554976.916   -69701772.512 7  21554971.966     1411255.042 8  21554975.636
  22195926.851   -53750672.669 6  22195928.062   -29518619.690 8  22195926.482
  20290659.350   -42791378.817 8  20290658.402   -24737432.645 9  20290658.507
  22371098.932   -65413043.456 6  22371096.906   -20412712.746 8  22371098.351
  25373807.891     4892176.644 2  25373808.317    38020152.339 4  25373805.616
 15  7 30  0 49 30.0000000  0 10G 8G 9G16G19G21G23G26G27G31G32
  21000325.835   -34867724.035 7  21000326.144   -17637140.640 9  21000325.136
  23961373.559   -31890258.795 5  23961373.733     2876432.660 6  23961373.232
  21287203.941   -45943142.256 7  21287200.578   -16462476.595 8  21287203.111
  22002876.115   -33793584.072 6  22002872.745   -13531859.764 8  22002874.253
  25163359.887   -17185171.410 2  25163358.610   -13173155.238 4  25163358.161
  21546474.463   -69746453.205 7  21546469.382     1376438.902 8  21546473.213
  22202764.295   -53714743.854 6  22202764.613   -29490623.256 8  22202763.216
  20283445.765   -42829286.945 8  20283444.838   -24766971.440 9  20283444.940
  22377402.633   -65379917.708 6  22377400.609   -20386900.546 8  22377402.063
  25380725.395     4928528.135 3  25380727.431    38048478.132 3  25380723.759
 15  7 30  0 50  0.0000000  0 10G 8G 9G16G19G21G23G26G27G31G32
  20987910.656   -34932966.830 7  20987910.827   -17687979.184 9  20987909.795
  23944401.178   -31979448.013 5  23944401.963     2806934.577 6  23944399.685
  21290476.209   -45925947.001 7  21290472.531   -16449077.720 8  21290475.268
  21982743.142   -33899382.470 6  21982739.904   -13614300.026 8  21982741.634
  25165088.338   -17176087.669 3  25165085.970   -13166077.001 4  25165086.599
  21538078.527   -69790573.443 7  21538073.949     1342059.490 8  21538077.963
  22209602.699   -53678806.842 6  22209603.371   -29462620.436 8  22209601.917
  20276338.396   -42866636.229 8  20276337.506   -24796074.775 9  20276337.671
  22383760.088   -65346509.464 6  22383758.056   -20360868.218 8  22383759.558
  25387596.273     4964631.791 3  25387598.638    38076610.817 4  25387593.773
 15  7 30  0 50 30.0000000  0 10G 8G 9G16G19G21G23G26G27G31G32
  20975584.170   -34997742.630 7  20975584.452   -17738453.839 9  20975583.508
  23927497.716   -32068276.060 5  23927498.489     2737717.958 6  23927496.469
  21293767.418   -45908652.732 7  21293763.883   -16435601.689 8  21293766.071
  21962678.437   -34004823.203 6  21962675.013   -13696461.585 8  21962676.827
  25166885.348   -17166648.384 2  25166882.068   -13158721.729 4  25166883.123
  21529788.914   -69834135.366 7  21529784.459     1308115.129 8  21529787.679
  22216442.062   -53642865.104 6  22216443.010   -29434613.927 8  22216441.403
  20269336.713   -42903429.326 8  20269335.988   -24824744.712 9  20269336.105
  22390170.772   -65312821.258 6  22390168.911   -20334617.732 8  22390170.344
  25394418.032     5000482.857 3  25394420.434    38104546.681 4  25394416.039
 15  7 30  0 51  0.0000000  0 10G 8G 9G16G19G21G23G26G27G31G32
  20963347.038   -35062049.420 8  20963347.440   -17788563.029 9  20963346.348
  23910663.995   -32156739.813 5  23910664.151     2668785.169 6  23910663.356
  21297077.411   -45891259.580 7  21297073.526   -16422048.607 8  21297075.849
  21942682.637   -34109903.131 7  21942678.952   -13778342.004 8  21942680.868
  25168747.958   -17156852.491 2  25168747.680   -13151088.580 4  25168746.390
  21521606.016   -69877137.138 7  21521601.231     1274607.239 8  21521604.994
  22223282.733   -53606918.357 6  22223283.242   -29406603.523 8  22223282.379
  20262441.487   -42939665.150 8  20262440.578   -24852980.409 9  20262440.680
  22396635.191   -65278851.688 6  22396632.805   -20308148.004 8  22396634.618
  25401192.020     5036080.479 3  25401194.502    38132285.050 3  25401190.389
 15  7 30  0 51 30.0000000  0 10G 8G 9G16G19G21G23G26G27G31G32
  20951198.968   -35125887.495 7  20951199.495   -17838306.986 9  20951198.272
  23893898.887   -32244838.171 4  23893899.235     2600137.133 6  23893898.455
  21300405.221   -45873770.703 7  21300401.753   -16408420.940 8  21300403.887
  21922755.462   -34214620.289 6  21922751.889   -13859939.738 8  21922753.762
  25170681.140   -17146700.725 1  25170678.664   -13143178.137 4  25170678.163
  21513529.430   -69919579.080 7  21513524.847     1241535.581 8  21513528.819
  22230123.975   -53570968.277 6  22230124.518   -29378590.514 8  22230123.580
  20255651.802   -42975344.615 8  20255650.924   -24880782.582 9  20255651.077
  22403152.844   -65244601.495 6  22403150.811   -20281459.606 8  22403151.969
  25407916.427     5071421.867 2  25407919.186    38159823.747 3  25407915.726
 15  7 30  0 52  0.0000000  0 10G 8G 9G16G19G21G23G26G27G31G32
  20939141.051   -35189252.718 7  20939141.537   -17887682.484 9  20939140.179
  23877204.842   -32332566.042 4  23877204.791     2531777.764 6  23877203.931
  21303751.631   -45856184.399 7  21303748.192   -16394717.358 8  21303750.491
  21902897.965   -34318969.393 6  21902894.967   -13941250.668 8  21902896.241
  25172680.909   -17136190.106 2  25172678.852   -13134988.076 4  25172678.699
  21505560.521   -69961457.506 7  21505555.362     1208903.030 8  21505559.442
  22236966.073   -53535012.503 6  22236966.708   -29350573.066 8  22236965.464
  20248968.832   -43010464.671 8  20248967.926   -24908148.849 9  20248967.854
  22409724.289   -65210067.464 6  22409722.229   -20254550.032 8  22409723.947
  25414593.600     5106508.283 2  25414596.577    38187163.762 3  25414590.791
 15  7 30  0 52 30.0000000  0 10G 8G 9G16G19G21G23G26G27G31G32
  20927173.783   -35252140.537 7  20927174.188   -17936685.977 9  20927173.097
  23860582.355   -32419917.949 5  23860582.789     2463711.375 6  23860581.224
  21307117.179   -45838498.676 7  21307113.596   -16380936.300 8  21307116.001
  21883111.969   -34422944.622 6  21883109.031   -14022270.268 8  21883110.506
  25174749.812   -17125317.143 3  25174747.492   -13126515.629 4  25174748.277
  21497699.447   -70002767.897 7  21497694.947     1176713.100 8  21497698.398
  22243810.053   -53499048.298 6  22243810.790   -29322549.059 8  22243809.333
  20242392.527   -43045021.895 8  20242391.850   -24935076.543 9  20242391.763
  22416350.931   -65175246.189 7  22416348.293   -20227416.625 8  22416350.215
  25421221.942     5141341.163 2  25421224.260    38214306.203 3  25421219.184
 15  7 30  0 53  0.0000000  0 10G 8G 9G16G19G21G23G26G27G31G32
  20915297.484   -35314550.932 7  20915297.847   -17985317.450 9  20915296.881
  23844031.727   -32506892.390 5  23844033.379     2395939.116 6  23844030.681
  21310501.395   -45820715.486 7  21310498.109   -16367079.303 8  21310499.743
  21863397.818   -34526544.414 6  21863394.331   -14102997.327 8  21863396.553
  25176887.258   -17114082.156 3  25176885.879   -13117761.080 4  25176885.630
  21489946.134   -70043510.283 7  21489941.697     1144965.768 8  21489945.405
  22250654.923   -53463076.933 6  22250656.047   -29294519.468 8  22250654.090
  20235923.543   -43079016.875 8  20235922.727   -24961566.132 9  20235922.739
  22423031.545   -65140137.604 6  22423029.522   -20200059.346 8  22423031.066
  25427802.576     5175918.104 3  25427804.527    38241249.252 3  25427799.928
 15  7 30  0 53 30.0000000  0 10G 8G 9G16G19G21G23G26G27G31G32
  20903512.396   -35376482.399 7  20903512.702   -18033575.724 9  20903511.767
  23827553.152   -32593486.769 5  23827554.441     2328462.983 6  23827551.998
  21313903.763   -45802835.945 7  21313900.136   -16353147.225 8  21313902.552
  21843755.164   -34629765.863 6  21843751.839   -14183429.557 8  21843753.755
  25179094.027   -17102484.949 3  25179093.125   -13108724.297 4  25179093.062
  21482301.618   -70083683.621 7  21482296.911     1113661.854 8  21482300.659
  22257501.571   -53427098.430 6  22257502.207   -29266484.316 8  22257500.747
  20229561.719   -43112449.057 8  20229560.840   -24987617.176 9  20229560.858
  22429767.753   -65104741.061 7  22429765.573   -20172477.681 8  22429767.162
  25434333.371     5210237.999 3  25434334.945    38267991.991 3  25434330.874
 15  7 30  0 54  0.0000000  0 10G 8G 9G16G19G21G23G26G27G31G32
  20891818.617   -35437934.308 7  20891818.806   -18081460.314 9  20891817.736
  23811147.169   -32679699.486 5  23811148.776     2261284.269 6  23811146.395
  21317324.090   -45784861.706 7  21317320.657   -16339141.355 8  21317322.762
  21824185.234   -34732606.746 6  21824181.921   -14263565.245 8  21824183.531
  25181371.008   -17090525.683 3  25181369.116   -13099405.396 4  25181367.953
  21474765.621   -70123287.439 7  21474760.944     1082801.721 8  21474764.755
  22264349.080   -53391113.904 6  22264349.703   -29238444.465 7  22264347.845
  20223306.720   -43145318.918 8  20223305.857   -25013230.050 9  20223306.007
  22436558.166   -65069056.804 6  22436556.223   -20144671.832 8  22436557.285
  25440814.791     5244298.494 3  25440815.433    38294532.590 3  25440813.736
 15  7 30  0 54 30.0000000  0 10G 8G 9G16G19G21G23G26G27G31G32
  20880216.583   -35498903.773 7  20880216.841   -18128968.971 9  20880215.698
  23794814.787   -32765526.112 5  23794816.811     2194406.409 6  23794814.994
  21320762.694   -45766791.784 7  21320759.492   -16325060.927 8  21320761.453
  21804689.206   -34835062.026 7  21804685.821   -14343400.469 8  21804687.377
  25183715.004   -17078202.099 3  25183713.700   -13089802.637 4  25183712.701
  21467338.233   -70162318.979 7  21467333.418     1052387.513 8  21467337.112
  22271198.399   -53355121.600 6  22271199.218   -29210398.561 7  22271197.410
  20217159.299   -43177624.214 8  20217158.355   -25038403.006 9  20217158.546
  22443403.834   -65033082.571 6  22443401.160   -20116640.029 8  22443403.360
  25447247.207     5278100.139 3  25447248.236    38320871.473 3  25447244.905
 15  7 30  0 55  0.0000000  0 10G 8G 9G16G19G21G23G26G27G31G32
  20868706.810   -35559386.979 7  20868707.230   -18176098.718 9  20868705.908
  23778557.585   -32850962.205 5  23778557.444     2127832.851 6  23778557.025
  21324220.024   -45748625.321 7  21324216.495   -16310905.270 8  21324218.618
  21785266.435   -34937127.621 6  21785262.954   -14422932.041 8  21785264.723
  25186130.723   -17065511.803 3  25186129.706   -13079914.110 4  25186128.309
  21460019.972   -70200775.317 7  21460015.251     1022421.524 8  21460019.013
  22278049.403   -53319119.671 6  22278049.829   -29182345.155 7  22278048.240
  20211119.674   -43209362.579 8  20211118.736   -25063134.197 9  20211118.829
  22450305.230   -64996815.069 6  22450302.508   -20088379.705 8  22450304.640
  25453629.273     5311643.838 2  25453633.299    38347009.359 2  25453627.423
 15  7 30  0 55 30.0000000  0 10G 8G 9G16G19G21G23G26G27G31G32
  20857289.646   -35619384.342 7  20857290.027   -18222849.884 9  20857288.722
  23762374.129   -32936006.383 5  23762374.662     2061564.693 6  23762373.550
  21327694.543   -45730364.319 7  21327691.015   -16296675.940 8  21327693.329
  21765918.609   -35038801.639 7  21765915.084   -14502158.491 8  21765917.038
  25188614.476   -17052455.496 3  25188614.134   -13069740.371 4  25188612.743
  21452811.370   -70238656.375 7  21452806.885      992903.802 8  21452810.371
  22284901.697   -53283109.388 6  22284902.758   -29154285.235 7  22284901.196
  20205187.690   -43240534.782 8  20205186.901   -25087424.223 9  20205186.991
  22457262.451   -64960255.151 6  22457260.166   -20059891.522 8  22457261.602
  25459962.979     5344926.987 2  25459967.590    38372944.251 2  25459960.983
 15  7 30  0 56  0.0000000  0  9G 8G 9G16G19G21G23G26G27G31
  20845965.513   -35678893.637 7  20845965.603   -18269220.730 9  20845964.584
  23746265.725   -33020655.487 4  23746265.806     1995604.373 6  23746265.036
  21331187.455   -45712009.374 7  21331184.032   -16282373.411 8  21331186.028
  21746645.707   -35140080.811 7  21746642.374   -14581077.271 8  21746643.978
  25191169.838   -17039032.110 3  25191167.326   -13059280.620 4  25191167.101
  21445712.551   -70275960.253 7  21445708.261      963835.825 8  21445711.640
  22291755.762   -53247090.132 6  22291757.336   -29126218.324 7  22291755.105
  20199363.876   -43271139.820 8  20199362.986   -25111272.307 9  20199362.995
  22464275.247   -64923401.530 6  22464273.304   -20031174.477 8  22464274.950
 15  7 30  0 56 30.0000000  0  9G 8G 9G16G19G21G23G26G27G31
  20834733.669   -35737917.466 7  20834733.699   -18315213.293 9  20834733.051
  23730231.955   -33104910.633 5  23730233.556     1929951.049 6  23730231.497
  21334697.470   -45693564.759 6  21334694.074   -16268001.007 8  21334696.211
  21727447.772   -35240965.594 6  21727444.456   -14659688.739 8  21727446.468
  25193793.148   -17025244.756 3  25193791.682   -13048537.234 4  25193792.177
  21438723.172   -70312689.479 7  21438719.038      935215.627 8  21438722.377
  22298611.508   -53211065.608 6  22298612.123   -29098147.313 7  22298610.576
  20193647.068   -43301180.961 8  20193646.304   -25134680.993 9  20193646.304
  22471344.047   -64886257.046 6  22471341.997   -20002230.796 8  22471343.181
 15  7 30  0 57  0.0000000  0  9G 8G 9G16G19G21G23G26G27G31
  20823594.781   -35796452.655 7  20823594.838   -18360825.096 9  20823593.963
  23714274.947   -33188767.691 4  23714275.484     1864607.913 6  23714274.012
  21338224.568   -45675029.579 7  21338221.147   -16253558.039 8  21338223.449
  21708325.915   -35341451.454 6  21708322.521   -14737989.367 8  21708324.578
  25196487.008   -17011091.139 2  25196484.553   -13037508.476 5  25196484.601
  21431843.609   -70348841.532 7  21431839.262      907045.173 8  21431842.770
  22305468.026   -53175034.234 6  22305468.658   -29070070.949 7  22305466.965
  20188038.038   -43330656.247 8  20188037.379   -25157648.759 9  20188037.274
  22478468.213   -64848819.308 6  22478465.566   -19973058.599 8  22478467.533
 15  7 30  0 57 30.0000000  0  9G 8G 9G16G19G21G23G26G27G31
  20812549.147   -35854497.529 7  20812549.261   -18406054.831 9  20812548.350
  23698393.705   -33272223.626 5  23698395.309     1799577.345 6  23698393.199
  21341768.789   -45656404.069 7  21341765.509   -16239044.681 8  21341767.644
  21689280.487   -35441535.102 6  21689277.231   -14815976.583 8  21689278.934
  25199248.432   -16996570.697 2  25199247.602   -13026193.881 5  25199246.921
  21425074.248   -70384415.013 6  21425069.739      879325.550 8  21425073.378
  22312325.850   -53138995.499 6  22312326.666   -29041988.858 7  22312325.269
  20182537.176   -43359564.882 8  20182536.412   -25180174.979 9  20182536.244
  22485648.168   -64811087.288 6  22485646.693   -19943657.091 8  22485647.715
 15  7 30  0 58  0.0000000  0  9G 8G 9G16G19G21G23G26G27G31
  20801596.814   -35912052.405 7  20801596.997   -18450902.754 9  20801595.945
  23682589.232   -33355277.805 5  23682589.927     1734859.837 6  23682588.374
  21345329.805   -45637691.363 7  21345326.219   -16224463.370 8  21345328.644
  21670312.159   -35541215.628 6  21670308.547   -14893649.676 8  21670310.120
  25202082.137   -16981684.797 2  25202079.960   -13014594.506 4  25202079.381
  21418415.153   -70419410.810 7  21418410.398      852056.071 8  21418413.858
  22319185.183   -53102951.283 6  22319186.466   -29013902.501 7  22319184.460
  20177143.514   -43387908.367 8  20177142.684   -25202260.822 9  20177142.615
  22492884.450   -64773062.023 6  22492882.031   -19914027.099 7  22492883.668
 15  7 30  0 58 30.0000000  0  9G 8G 9G16G19G21G23G26G27G31
  20790737.600   -35969117.824 7  20790737.774   -18495369.287 9  20790736.778
  23666861.199   -33437929.315 5  23666861.328     1670456.077 6  23666860.123
  21348906.811   -45618893.527 7  21348903.526   -16209815.729 8  21348905.858
  21651420.228   -35640491.909 7  21651416.876   -14971007.778 8  21651418.549
  25204983.921   -16966434.271 2  25204983.144   -13002711.015 4  25204981.936
  21411865.641   -70453829.485 7  21411860.565      825236.307 8  21411864.960
  22326044.770   -53066903.188 6  22326045.984   -28985813.117 7  22326043.736
  20171857.172   -43415688.088 8  20171856.407   -25223907.369 9  20171856.389
  22500175.969   -64734744.408 6  22500173.775   -19884169.286 7  22500175.280
 15  7 30  0 59  0.0000000  0  9G 8G 9G16G19G21G23G26G27G31
  20779972.760   -36025686.422 7  20779973.060   -18539448.685 9  20779972.044
  23651211.703   -33520169.388 5  23651212.051     1606372.928 6  23651210.995
  21352501.329   -45600005.460 7  21352497.764   -16195097.783 8  21352499.974
  21632607.289   -35739354.729 7  21632603.454   -15048043.708 8  21632605.805
  25207957.109   -16950812.643 2  25207956.306   -12990538.344 4  25207954.630
  21405427.157   -70487663.836 7  21405422.013      798871.855 8  21405425.991
  22332906.195   -53030844.828 6  22332907.391   -28957715.736 7  22332905.526
  20166679.567   -43442897.437 8  20166678.758   -25245109.472 9  20166678.623
  22507524.560   -64696127.658 6  22507522.333   -19854078.391 7  22507524.149
 15  7 30  0 59 30.0000000  0  9G 8G 9G16G19G21G23G26G27G31
  20769301.723   -36081763.564 8  20769301.893   -18583145.135 9  20769300.904
  23635638.888   -33602002.113 5  23635639.604     1542607.189 6  23635637.539
  21356111.388   -45581034.265 7  21356107.919   -16180315.058 8  21356109.865
  21613872.137   -35837807.890 7  21613868.767   -15124760.428 8  21613870.710
  25210998.732   -16934826.118 2  25210997.536   -12978081.349 4  25210996.807
  21399098.520   -70520919.261 7  21399093.919      772958.522 8  21399097.435
  22339768.633   -52994782.775 6  22339769.691   -28929615.486 7  22339768.117
  20161609.004   -43469542.774 8  20161608.248   -25265872.085 9  20161608.386
  22514928.813   -64657217.531 6  22514927.485   -19823758.881 7  22514928.082
 15  7 30  1  0  0.0000000  0  9G 8G 9G16G19G21G23G26G27G31
  20758724.001   -36137348.516 8  20758724.154   -18626458.063 9  20758723.324
  23620144.558   -33683425.693 5  23620145.110     1479160.264 6  23620143.074
  21359737.153   -45561981.345 7  21359733.798   -16165468.661 8  21359735.983
  21595215.809   -35935849.296 6  21595212.044   -15201156.300 8  21595214.190
  25214110.913   -16918475.059 3  25214109.231   -12965340.319 4  25214109.552
  21392880.684   -70553595.764 7  21392876.259      747496.297 8  21392879.811
  22346631.755   -52958717.687 6  22346632.864   -28901512.863 7  22346631.170
  20156645.909   -43495624.573 8  20156644.950   -25286195.573 9  20156645.064
  22522388.969   -64618014.036 6  22522387.098   -19793210.784 7  22522388.267
 15  7 30  1  0 30.0000000  0  9G 8G 9G16G19G21G23G26G27G31
  20748240.079   -36192442.230 8  20748240.466   -18669388.212 9  20748239.210
  23604728.352   -33764439.620 5  23604728.376     1416032.549 6  23604728.519
  21363377.760   -45542849.552 7  21363374.244   -16150560.795 8  21363376.498
  21576637.464   -36033478.147 6  21576633.884   -15277230.705 8  21576635.713
  25217291.564   -16901760.886 3  25217289.963   -12952316.272 4  25217290.551
  21386772.464   -70585694.014 7  21386767.718      722484.655 8  21386771.393
  22353495.215   -52922651.394 6  22353495.989   -28873409.306 7  22353494.424
  20151789.568   -43521144.586 8  20151788.675   -25306081.307 9  20151788.846
  22529905.380   -64578518.386 6  22529903.072   -19762435.028 7  22529904.568
 15  7 30  1  1  0.0000000  0  9G 8G 9G16G19G21G23G26G27G31
  20737849.986   -36247043.864 7  20737850.181   -18711934.925 9  20737849.033
  23589389.866   -33845041.985 5  23589390.280     1353225.510 6  23589388.682
  21367033.067   -45523639.718 7  21367029.784   -16135592.109 8  21367032.021
  21558138.347   -36130692.131 6  21558134.864   -15352981.834 8  21558136.633
  25220541.048   -16884683.734 2  25220539.720   -12939009.408 4  25220539.372
  21380774.312   -70617214.185 7  21380769.845      697923.466 8  21380773.470
  22360358.127   -52886584.335 6  22360359.170   -28845305.137 7  22360357.797
  20147040.178   -43546103.187 8  20147039.246   -25325529.574 9  20147039.225
  22537476.396   -64538730.807 6  22537474.834   -19731431.790 7  22537475.592
 15  7 30  1  1 30.0000000  0  9G 8G 9G16G19G21G23G26G27G31
  20727552.958   -36301155.663 7  20727553.015   -18754099.954 9  20727552.031
  23574130.115   -33925233.491 5  23574129.438     1290738.625 6  23574129.258
  21370703.009   -45504356.467 6  21370699.355   -16120566.224 8  21370701.594
  21539717.879   -36227491.794 6  21539714.554   -15428410.114 8  21539716.272
  25223857.808   -16867246.663 2  25223857.265   -12925422.118 4  25223856.333
  21374885.833   -70648158.633 7  21374881.513      673810.895 8  21374884.886
  22367221.366   -52850519.612 6  22367222.247   -28817202.795 7  22367220.760
  20142396.939   -43570503.334 8  20142396.081   -25344542.682 9  20142396.066
  22545102.732   -64498653.675 6  22545100.858   -19700202.935 7  22545102.555
 15  7 30  1  2  0.0000000  0  9G 8G 9G16G19G21G23G26G27G31
  20717349.377   -36354774.167 7  20717349.686   -18795880.604 9  20717348.778
  23558948.940   -34005009.546 5  23558949.078     1228575.450 6  23558948.119
  21374386.709   -45484998.153 7  21374383.336   -16105481.846 8  21374385.213
  21521376.981   -36323872.224 6  21521373.650   -15503511.725 8  21521375.524
  25227246.473   -16849447.064 2  25227244.884   -12911552.330 4  25227244.548
  21369107.502   -70678524.189 7  21369102.993      650149.412 8  21369106.527
  22374084.305   -52814454.938 6  22374085.225   -28789100.490 7  22374083.681
  20137860.485   -43594342.810 8  20137859.469   -25363118.902 9  20137859.529
  22552784.848   -64458284.198 6  22552783.349   -19668746.272 7  22552784.464
 15  7 30  1  2 30.0000000  0  9G 8G 9G16G19G21G23G26G27G31
  20707239.252   -36407903.320 7  20707239.210   -18837279.945 9  20707238.643
  23543846.997   -34084372.584 5  23543847.830     1166734.114 6  23543845.747
  21378083.432   -45465570.253 7  21378080.359   -16090343.240 8  21378082.335
  21503115.741   -36419835.432 7  21503112.683   -15578288.224 8  21503114.191
  25230702.408   -16831289.500 2  25230699.518   -12897403.624 4  25230699.518
  21363438.303   -70708314.663 7  21363434.148      626936.038 8  21363437.530
  22380946.311   -52778395.110 6  22380947.912   -28761001.959 7  22380945.832
  20133429.649   -43617626.354 8  20133428.845   -25381261.930 9  20133428.698
  22560522.033   -64417626.459 6  22560519.961   -19637064.988 7  22560521.487
 15  7 30  1  3  0.0000000  0  9G 8G 9G16G19G21G23G26G27G31
  20697223.102   -36460538.138 8  20697223.129   -18878294.092 9  20697222.358
  23528824.993   -34163316.389 5  23528824.379     1105219.468 6  23528823.965
  21381794.389   -45446069.590 6  21381791.382   -16075147.939 8  21381793.414
  21484935.712   -36515374.711 7  21484931.934   -15652734.383 8  21484933.997
  25234225.509   -16812769.752 2  25234223.851   -12882972.685 4  25234223.893
  21357879.525   -70737525.780 7  21357875.112      604174.119 8  21357879.018
  22387808.084   -52742336.074 6  22387808.726   -28732904.046 7  22387807.772
  20129105.370   -43640350.046 8  20129104.672   -25398968.707 9  20129104.597
  22568314.727   -64376676.281 6  22568312.757   -19605155.828 7  22568314.070
 15  7 30  1  3 30.0000000  0  9G 8G 9G16G19G21G23G26G27G31
  20687299.830   -36512682.580 7  20687300.739   -18918926.127 9  20687299.626
  23513881.332   -34241843.261 5  23513881.356     1044029.693 6  23513880.774
  21385518.024   -45426501.323 7  21385514.369   -16059899.970 8  21385517.101
  21466835.373   -36610492.104 7  21466831.617   -15726851.794 8  21466833.520
  25237817.970   -16793892.398 2  25237817.065   -12868263.074 4  25237815.863
  21352430.671   -70766161.471 7  21352426.054      581860.582 8  21352429.831
  22394668.978   -52706282.465 6  22394670.390   -28704810.361 7  22394668.172
  20124887.177   -43662518.537 8  20124886.283   -25416242.855 9  20124886.106
  22576162.331   -64335437.647 6  22576160.748   -19573021.892 7  22576161.905
 15  7 30  1  4  0.0000000  0  9G 8G 9G16G19G21G23G26G27G31
  20677471.072   -36564335.296 7  20677471.404   -18959174.999 9  20677470.436
  23499018.104   -34319951.106 5  23499018.665      983166.445 6  23499017.550
  21389254.574   -45406866.713 7  21389250.995   -16044600.302 8  21389253.234
  21448815.571   -36705185.442 7  21448812.135   -15800638.770 8  21448814.168
  25241479.129   -16774657.359 2  25241477.516   -12853274.760 4  25241477.024
  21347090.953   -70794221.526 7  21347086.696      559995.595 8  21347090.048
  22401528.461   -52670234.396 6  22401529.645   -28676720.992 7  22401527.672
  20120774.138   -43684132.088 8  20120773.379   -25433084.586 9  20120773.307
  22584064.476   -64293910.018 6  22584062.963   -19540662.767 7  22584064.279
 15  7 30  1  4 30.0000000  0 10G 4G 8G 9G16G19G21G23G26G27G31
  25383923.360   -24414711.313 4  25383927.560      312924.066 3  25383923.075
  20667735.590   -36615496.750 7  20667735.695   -18999041.073 9  20667734.898
  23484235.011   -34397638.734 5  23484235.494      922630.631 6  23484233.974
  21393003.095   -45387167.880 7  21392999.803   -16029250.589 8  21393001.794
  21430877.100   -36799453.158 6  21430873.172   -15874094.090 8  21430875.655
  25245207.213   -16755065.718 1  25245205.561   -12838008.568 4  25245204.500
  21341860.726   -70821706.149 7  21341856.157      538578.993 8  21341859.956
  22408386.861   -52634192.945 6  22408388.192   -28648636.790 7  22408386.033
  20116766.500   -43705191.906 8  20116765.805   -25449494.837 9  20116765.706
  22592021.475   -64252094.510 6  22592021.088   -19508079.324 7  22592021.046
 15  7 30  1  5  0.0000000  0 10G 4G 8G 9G16G19G21G23G26G27G31
  25364798.298   -24515207.287 3  25364803.613      234615.548 4  25364798.678
  20658093.195   -36666167.778 7  20658093.452   -19038524.999 9  20658092.442
  23469531.130   -34474905.677 5  23469531.432      862422.648 6  23469530.452
  21396763.320   -45367407.141 7  21396760.244   -16013852.631 8  21396762.055
  21413019.806   -36893294.337 7  21413016.043   -15947217.036 8  21413018.019
  25249002.402   -16735118.938 1  25249000.541   -12822465.650 4  25248999.692
  21336740.055   -70848616.646 7  21336735.393      517609.761 8  21336739.006
  22415244.073   -52598159.785 6  22415244.904   -28620559.051 7  22415243.339
  20112864.153   -43725699.875 8  20112863.355   -25465475.073 9  20112863.298
  22600033.506   -64209992.451 6  22600032.637   -19475272.595 7  22600033.198
 15  7 30  1  5 30.0000000  0 10G 4G 8G 9G16G19G21G23G26G27G31
  25345629.343   -24615950.324 3  25345631.382      156114.548 4  25345629.421
  20648544.499   -36716346.399 7  20648544.913   -19077625.230 9  20648543.495
  23454908.243   -34551748.525 5  23454909.124      802545.133 6  23454907.508
  21400535.707   -45347584.178 7  21400532.185   -15998406.188 8  21400534.349
  21395243.828   -36986705.427 6  21395240.275   -16020004.846 8  21395242.233
  25252865.195   -16714815.433 1  25252864.149   -12806644.768 3  25252863.217
  21331728.587   -70874951.334 7  21331723.895      497089.213 8  21331727.660
  22422099.913   -52562133.662 6  22422100.639   -28592486.794 7  22422099.137
  20109066.724   -43745654.942 8  20109066.058   -25481024.480 9  20109066.025
  22608100.352   -64167601.922 6  22608098.664   -19442241.081 7  22608099.524
 15  7 30  1  6  0.0000000  0 10G 4G 8G 9G16G19G21G23G26G27G31
  25326412.161   -24716935.344 4  25326414.949       77424.963 2  25326411.402
  20639090.220   -36766028.816 7  20639090.352   -19116338.810 9  20639089.351
  23440367.268   -34628161.837 5  23440367.526      743002.315 6  23440366.711
  21404320.326   -45327696.144 7  21404316.978   -15982909.046 8  21404319.196
  21377551.309   -37079680.548 7  21377547.934   -16092452.939 8  21377549.765
  25256798.598   -16694152.202 2  25256796.605   -12790543.575 3  25256796.287
  21326827.565   -70900706.464 7  21326823.005      477020.271 8  21326826.383
  22428954.350   -52526111.245 6  22428955.585   -28564417.420 7  22428953.762
  20105375.148   -43765054.084 8  20105374.429   -25496140.698 9  20105374.258
  22616222.647   -64124919.433 6  22616221.352   -19408982.078 7  22616221.900
 15  7 30  1  6 30.0000000  0 10G 4G 8G 9G16G19G21G23G26G27G31
  25307148.445   -24818163.265 3  25307151.724       -1453.876 2  25307147.141
  20629729.887   -36815217.059 7  20629730.244   -19154667.315 9  20629729.204
  23425908.146   -34704146.689 5  23425909.007      683793.362 6  23425906.869
  21408116.400   -45307747.478 7  21408112.917   -15967364.662 8  21408114.889
  21359941.554   -37172220.513 7  21359937.714   -16164561.952 8  21359939.597
  25260797.794   -16673132.560 2  25260796.756   -12774164.665 3  25260796.379
  21322036.497   -70925884.839 7  21322032.036      457400.746 8  21322035.508
  22435807.746   -52490095.786 6  22435808.877   -28536353.462 7  22435807.000
  20101788.836   -43783900.774 8  20101787.976   -25510826.432 9  20101787.955
  22624399.984   -64081947.622 6  22624398.551   -19375497.612 7  22624399.690
 15  7 30  1  7  0.0000000  0 10G 4G 8G 9G16G19G21G23G26G27G31
  25287839.043   -24919635.380 3  25287842.248      -80523.014 4  25287837.763
  20620463.320   -36863913.770 8  20620463.458   -19192612.811 9  20620462.625
  23411529.593   -34779704.202 5  23411530.571      624917.400 6  23411529.060
  21411923.357   -45287742.142 7  21411920.158   -15951776.113 8  21411922.014
  21342414.257   -37264326.295 7  21342410.893   -16236332.629 8  21342412.815
  25264865.363   -16651759.678 2  25264863.354   -12757510.492 4  25264862.946
  21317354.345   -70950489.462 7  21317350.217      438228.296 8  21317353.196
  22442659.812   -52454090.479 6  22442660.334   -28508297.427 7  22442658.304
  20098306.828   -43802198.547 8  20098306.072   -25525084.434 9  20098306.084
  22632632.018   -64038689.814 6  22632630.078   -19341790.305 7  22632631.220
 15  7 30  1  7 30.0000000  0 10G 4G 8G 9G16G19G21G23G26G27G31
  25268482.715   -25021345.906 3  25268486.343     -159777.912 4  25268482.293
  20611291.086   -36912114.912 8  20611291.311   -19230172.146 9  20611290.244
  23397233.339   -34854828.876 5  23397233.858      566378.726 6  23397232.674
  21415741.721   -45267677.422 7  21415738.138   -15936141.295 8  21415740.207
  21324971.244   -37355991.752 7  21324967.352   -16307760.199 8  21324969.592
  25268999.690   -16630030.079 2  25268998.248   -12740578.376 4  25268997.723
  21312781.844   -70974516.357 7  21312777.497      419506.024 8  21312781.014
  22449510.079   -52418091.865 6  22449511.098   -28480246.613 7  22449509.395
  20094929.956   -43819944.329 8  20094929.195   -25538912.313 9  20094929.045
  22640918.791   -63995142.238 6  22640916.953   -19307857.205 7  22640918.117
 15  7 30  1  8  0.0000000  0 10G 4G 8G 9G16G19G21G23G26G27G31
  25249083.559   -25123293.450 3  25249086.368     -239217.510 3  25249082.909
  20602213.062   -36959820.304 7  20602213.278   -19267345.177 9  20602212.279
  23383020.338   -34929519.336 5  23383019.948      508178.390 6  23383019.990
  21419570.643   -45247554.896 7  21419567.165   -15920461.425 8  21419569.354
  21307611.968   -37447215.330 6  21307608.023   -16378843.453 8  21307610.607
  25273203.029   -16607944.420 2  25273200.336   -12723368.827 4  25273200.504
  21308319.835   -70997966.080 7  21308315.107      401233.495 8  21308319.029
  22456358.903   -52382100.558 6  22456360.213   -28452201.486 7  22456357.989
  20091657.707   -43837139.103 8  20091657.020   -25552310.829 9  20091656.993
  22649260.894   -63951304.977 6  22649259.584   -19273698.363 7  22649260.231
 15  7 30  1  8 30.0000000  0 10G 4G 8G 9G16G19G21G23G26G27G31
  25229638.367   -25225476.521 3  25229643.334     -318840.649 3  25229637.267
  20593229.253   -37007030.085 8  20593229.484   -19304132.014 9  20593228.626
  23368890.730   -35003774.354 5  23368889.854      450317.342 6  23368889.956
  21423410.523   -45227376.128 7  21423407.093   -15904737.739 8  21423409.233
  21290336.952   -37537995.456 7  21290333.172   -16449581.162 8  21290335.217
  25277473.941   -16585503.580 3  25277471.764   -12705882.462 4  25277472.043
  21303967.319   -71020839.210 7  21303962.768      383410.262 8  21303966.450
  22463206.112   -52346117.409 6  22463207.002   -28424162.719 7  22463205.123
  20088490.301   -43853784.156 8  20088489.446   -25565280.991 9  20088489.542
  22657657.808   -63907178.720 6  22657656.441   -19239314.347 7  22657656.944
 15  7 30  1  9  0.0000000  0 10G 4G 8G 9G16G19G21G23G26G27G31
  25210149.914   -25327895.205 3  25210153.023     -398647.360 3  25210149.075
  20584339.645   -37053745.853 8  20584339.585   -19340533.906 9  20584338.761
  23354843.432   -35077594.020 5  23354842.584      392795.531 6  23354842.722
  21427260.790   -45207144.222 7  21427257.282   -15888972.652 8  21427259.507
  21273146.106   -37628332.189 7  21273142.449   -16519973.371 8  21273144.706
  25281810.969   -16562709.885 2  25281808.922   -12688121.175 4  25281809.485
  21299724.186   -71043137.729 7  21299719.419      366034.776 8  21299722.837
  22470051.543   -52310144.523 6  22470052.904   -28396131.954 7  22470050.554
  20085426.964   -43869881.996 8  20085426.266   -25577824.757 9  20085426.065
  22666109.380   -63862765.223 6  22666107.563   -19204706.515 7  22666108.717
 15  7 30  1  9 30.0000000  0 10G 4G 8G 9G16G19G21G23G26G27G31
  25190615.063   -25430543.527 2  25190618.400     -478633.008 3  25190615.450
  20575544.550   -37099963.154 7  20575544.751   -19376547.378 9  20575543.863
  23340879.873   -35150972.467 5  23340879.870      335617.541 6  23340879.253
  21431121.454   -45186855.822 7  21431118.459   -15873163.534 8  21431120.069
  21256041.343   -37718218.991 7  21256037.859   -16590014.995 8  21256039.865
  25286216.450   -16539559.712 2  25286215.029   -12670082.098 4  25286213.919
  21295590.962   -71064857.356 7  21295586.357      349110.375 8  21295589.904
  22476895.904   -52274177.842 6  22476897.160   -28368106.020 7  22476894.693
  20082468.342   -43885429.187 8  20082467.755   -25589939.440 9  20082467.545
  22674616.510   -63818060.776 6  22674615.014   -19169871.963 7  22674615.904
 15  7 30  1 10  0.0000000  0 10G 4G 8G 9G16G19G21G23G26G27G31
  25171038.933   -25533423.411 3  25171042.720     -558799.088 3  25171038.361
  20566844.042   -37145685.575 7  20566844.201   -19412175.224 9  20566843.464
  23326999.557   -35223911.963 5  23326998.868      278781.582 6  23326999.329
  21434991.994   -45166515.944 7  21434988.759   -15857314.306 8  21434990.873
  21239021.741   -37807658.006 7  21239017.835   -16659707.692 8  21239019.894
  25290688.858   -16516057.258 3  25290687.974   -12651768.488 4  25290687.279
  21291567.400   -71086002.453 7  21291562.312      332633.660 8  21291566.455
  22483737.803   -52238221.718 6  22483739.581   -28340088.320 7  22483737.060
  20079613.671   -43900430.498 8  20079613.026   -25601628.763 9  20079612.921
  22683177.824   -63773069.188 6  22683176.211   -19134813.663 7  22683177.629
 15  7 30  1 10 30.0000000  0 10G 4G 8G 9G16G19G21G23G26G27G31
  25151419.424   -25636526.277 3  25151422.080     -639138.924 3  25151417.571
  20558238.952   -37190906.198 7  20558239.057   -19447412.063 9  20558238.251
  23313205.063   -35296404.053 5  23313204.340      222294.260 6  23313204.730
  21438873.308   -45146119.112 7  21438870.082   -15841420.700 8  21438872.301
  21222088.816   -37896640.504 7  21222085.236   -16729044.669 8  21222087.299
  25295229.605   -16492196.308 2  25295228.130   -12633175.569 4  25295227.428
  21287653.810   -71106566.146 7  21287649.181      316609.979 8  21287653.099
  22490579.910   -52202269.590 6  22490580.572   -28312073.733 7  22490578.692
  20076864.160   -43914879.959 8  20076863.309   -25612888.076 9  20076863.372
  22691795.565   -63727783.799 6  22691794.000   -19099526.438 7  22691795.253
 15  7 30  1 11  0.0000000  0 10G 4G 8G 9G16G19G21G23G26G27G31
  25131755.338   -25739856.313 2  25131758.663     -719655.794 3  25131754.277
  20549728.075   -37235631.065 7  20549728.060   -19482262.597 9  20549727.296
  23299493.860   -35368453.149 5  23299495.290      166152.117 6  23299493.647
  21442764.659   -45125672.553 7  21442761.262   -15825488.348 8  21442763.238
  21205242.233   -37985170.621 7  21205238.492   -16798029.144 8  21205240.402
  25299835.817   -16467983.110 2  25299835.295   -12614308.147 4  25299834.900
  21283850.100   -71126554.847 7  21283845.810      301034.348 8  21283849.393
  22497418.985   -52166327.770 6  22497420.355   -28284067.170 7  22497418.319
  20074218.399   -43928784.476 8  20074217.385   -25623722.763 9  20074217.394
  22700467.907   -63682210.567 6  22700466.495   -19064014.931 7  22700467.275
 15  7 30  1 11 30.0000000  0 10G 4G 8G 9G16G19G21G23G26G27G31
  25112050.216   -25843407.542 2  25112054.782     -800344.993 3  25112049.515
  20541312.226   -37279855.915 8  20541312.217   -19516723.502 9  20541311.558
  23285868.686   -35440053.838 5  23285869.486      110359.394 6  23285868.173
  21446665.037   -45105173.389 7  21446661.922   -15809515.000 8  21446663.757
  21188482.672   -38073242.448 7  21188478.915   -16866656.516 8  21188481.032
  25304511.629   -16443414.432 2  25304511.446   -12595163.730 3  25304509.932
  21280156.429   -71145964.891 6  21280152.184      285909.610 8  21280155.605
  22504256.945   -52130392.635 6  22504259.059   -28256065.828 7  22504256.495
  20071676.602   -43942141.054 8  20071675.877   -25634130.479 9  20071675.790
  22709195.879   -63636345.955 6  22709194.341   -19028276.355 7  22709195.204
 15  7 30  1 12  0.0000000  0 10G 4G 8G 9G16G19G21G23G26G27G31
  25092304.257   -25947179.877 2  25092307.276     -881206.494 3  25092302.839
  20532991.424   -37323582.312 7  20532991.532   -19550796.004 9  20532990.623
  23272329.219   -35511206.077 6  23272330.553       54916.104 7  23272329.201
  21450575.416   -45084624.198 6  21450572.466   -15793502.673 8  21450574.339
  21171810.203   -38160855.956 7  21171806.180   -16934926.764 8  21171808.635
  25309254.217   -16418492.644 2  25309253.551   -12575744.184 3  25309251.435
  21276572.959   -71164798.065 7  21276568.489      271234.378 8  21276571.808
  22511094.336   -52094466.050 6  22511095.103   -28228071.143 7  22511093.211
  20069238.552   -43954952.192 8  20069237.941   -25644113.187 9  20069237.944
  22717978.653   -63590191.912 6  22717977.564   -18992312.256 7  22717978.476
 15  7 30  1 13  0.0000000  0 10G 4G 8G 9G16G19G21G23G26G27G31
  25052683.386   -26155385.703 3  25052685.919    -1043444.713 3  25052683.062
  20516633.185   -37409544.652 8  20516633.323   -19617779.605 9  20516632.481
  23245505.456   -35652164.621 5  23245506.098      -54921.707 7  23245504.896
  21458423.188   -45043385.710 7  21458419.851   -15761368.853 8  21458421.731
  21138727.431   -38334705.110 7  21138724.175   -17070393.614 8  21138725.935
  25318939.735   -16367597.249 3  25318937.750   -12536085.462 4  25318937.528
  21269733.368   -71200740.781 7  21269728.928      243227.007 8  21269732.870
  22524761.505   -52022645.017 6  22524763.190   -28172106.808 7  22524760.393
  20064672.722   -43978947.460 8  20064671.766   -25662810.803 9  20064671.769
  22735708.714   -63497021.468 6  22735706.835   -18919712.082 7  22735707.614
 15  7 30  1 13 30.0000000  0 11G 4G 8G 9G11G16G19G21G23G26G27G31
  25032811.841   -26259814.207 3  25032813.001    -1124817.526 3  25032810.831
  20508596.451   -37451779.356 7  20508596.358   -19650689.747 9  20508595.774
  23232223.044   -35721966.744 6  23232224.009     -109312.953 7  23232221.617
  25682638.819   -43816464.907 2  25682641.934   -15241094.446 2  25682636.193
  21462360.134   -45022697.354 7  21462356.663   -15745248.081 8  21462358.650
  21122318.836   -38420936.341 7  21122314.885   -17137586.777 8  21122317.064
  25323882.380   -16341623.773 2  25323880.389   -12515846.419 4  25323880.201
  21266477.352   -71217850.213 7  21266472.789      229894.953 8  21266476.708
  22531591.803   -51986749.987 6  22531593.865   -28144136.710 7  22531590.894
  20062544.391   -43990132.519 8  20062543.374   -25671526.438 9  20062543.449
  22744655.879   -63450004.439 6  22744654.003   -18883075.519 7  22744655.325
 15  7 30  1 14  0.0000000  0 12G 4G 8G 9G11G16G19G21G23G26G27G31G32
  25012897.344   -26364459.406 3  25012899.617    -1206359.185 3  25012896.781
  20500653.708   -37493518.739 7  20500653.468   -19683213.924 9  20500652.865
  23219025.703   -35791317.676 5  23219026.731     -163352.619 7  23219025.346
  25660967.494   -43930356.288 3  25660968.417   -15329840.931 2  25660965.998
  21466304.827   -45001966.358 6  21466301.832   -15729094.088 8  21466303.562
  21105997.394   -38506705.075 7  21105993.404   -17204419.555 8  21105995.748
  25328891.339   -16315302.698 2  25328890.149   -12495336.519 4  25328888.872
  21263330.263   -71234387.896 7  21263325.955      217008.416 8  21263328.929
  22538419.996   -51950867.804 6  22538422.331   -28116176.635 7  22538419.225
  20060518.111   -44000779.398 7  20060517.278   -25679822.719 9  20060517.353
  22753657.019   -63402701.948 6  22753655.646   -18846216.514 7  22753656.974
  25656318.052     6376769.952 2  25656321.520    39176975.225 3  25656317.131
 15  7 30  1 14 30.0000000  0 12G 4G 8G 9G11G16G19G21G23G26G27G31G32
  24992943.707   -26469320.212 3  24992945.518    -1288068.885 4  24992942.277
  20492805.021   -37534763.196 7  20492805.021   -19715352.444 9  20492804.140
  23205915.023   -35860216.655 5  23205915.656     -217040.112 7  23205914.466
  25639262.691   -44044418.280 3  25639262.964   -15418720.420 2  25639261.453
  21470257.453   -44981195.033 7  21470254.581   -15712908.659 8  21470256.425
  21089764.175   -38592010.209 6  21089760.452   -17270891.082 8  21089762.646
  25333964.748   -16288635.276 2  25333965.920   -12474556.754 3  25333964.868
  21260291.956   -71250354.647 7  21260287.675      204566.758 8  21260291.285
  22545245.346   -51914999.454 6  22545247.481   -28088227.319 7  22545245.334
  20058594.145   -44010889.891 8  20058593.351   -25687701.035 9  20058593.516
  22762712.469   -63355115.108 6  22762711.015   -18809135.948 7  22762711.917
  25660519.154     6398847.102 1  25660523.600    39194178.150 3  25660517.182
 15  7 30  1 15  0.0000000  0 12G 4G 8G 9G11G16G19G21G23G26G27G31G32
  24972948.411   -26574394.935 4  24972950.815    -1369945.258 4  24972946.687
  20485050.497   -37575512.909 8  20485050.656   -19747105.453 9  20485049.753
  23192889.820   -35928662.320 5  23192891.583     -270374.387 7  23192889.695
  25617524.176   -44158649.023 2  25617527.693   -15507731.345 2  25617522.509
  21474217.669   -44960384.184 7  21474214.516   -15696692.438 8  21474216.395
  21073619.764   -38676850.155 7  21073615.893   -17337000.120 8  21073618.172
  25339106.495   -16261622.302 2  25339105.277   -12453507.707 3  25339103.832
  21257361.956   -71265751.128 7  21257357.528      192569.472 8  21257361.287
  22552068.416   -51879145.199 6  22552070.520   -28060288.999 7  22552068.254
  20056772.106   -44020465.144 8  20056771.350   -25695162.284 9  20056771.383
  22771822.227   -63307244.248 6  22771821.195   -18771834.068 7  22771821.768
  25664657.124     6420597.296 3  25664661.773    39211126.233 1  25664657.834
 15  7 30  1 15 30.0000000  0 12G 4G 8G 9G11G16G19G21G23G26G27G31G32
  24952913.296   -26679679.202 3  24952915.424    -1451984.922 4  24952911.680
  20477390.515   -37615766.149 8  20477390.670   -19778471.605 9  20477389.687
  23179952.349   -35996651.230 5  23179952.604     -323352.757 7  23179951.653
  25595755.085   -44273045.355 4  25595756.611   -15596871.314 3  25595753.709
  21478185.764   -44939532.805 7  21478182.167   -15680444.631 8  21478184.301
  21057564.310   -38761221.025 7  21057560.877   -17402743.644 8  21057563.086
  25344312.750   -16234262.410 2  25344309.713   -12432188.335 3  25344309.740
  21254541.178   -71280575.825 7  21254536.544      181017.727 8  21254540.207
  22558889.417   -51843303.328 6  22558890.106   -28032360.316 7  22558888.769
  20055051.926   -44029504.272 8  20055051.285   -25702205.774 9  20055051.180
  22780986.558   -63259087.838 6  22780984.987   -18734309.688 7  22780985.662
  25668735.551     6442016.23811  25668738.702    39227816.28511  25668734.601
 15  7 30  1 16  0.0000000  0 12G 4G 8G 9G11G16G19G21G23G26G27G31G32
  24932838.377   -26785167.345 3  24932841.846    -1534183.415 4  24932838.098
  20469825.875   -37655518.580 8  20469826.100   -19809447.517 9  20469824.982
  23167102.399   -36064177.855 6  23167102.800     -375970.876 7  23167101.931
  25573957.221   -44387600.952 3  25573956.723   -15686135.351 3  25573955.581
  21482161.963   -44918638.066 6  21482158.572   -15664163.041 8  21482160.395
  21041599.822   -38845117.224 7  21041595.747   -17468117.293 8  21041597.909
  25349585.590   -16206552.260 2  25349583.003   -12410596.033 3  25349583.096
  21251829.774   -71294825.324 7  21251825.505      169914.187 8  21251828.611
  22565708.082   -51807469.852 6  22565708.688   -28004438.175 7  22565707.594
  20053434.351   -44038004.240 8  20053433.749   -25708829.138 9  20053433.590
  22790205.194   -63210641.942 6  22790204.262   -18696559.730 7  22790204.574
  25672750.809     6463115.595 3  25672753.181    39244257.228 1  25672748.750
 15  7 30  1 16 30.0000000  0 12G 4G 8G 9G11G16G19G21G23G26G27G31G32
  24912725.991   -26890866.440 4  24912728.836    -1616546.303 4  24912724.378
  20462354.820   -37694779.553 8  20462354.918   -19840040.479 9  20462354.076
  23154338.963   -36131249.981 6  23154339.703     -428234.855 7  23154338.579
  25552125.959   -44502323.174 3  25552127.713   -15775529.229 3  25552123.711
  21486144.091   -44897710.373 7  21486141.354   -15647855.766 8  21486143.186
  21025723.215   -38928546.248 7  21025719.905   -17533126.903 8  21025721.806
  25354923.563   -16178501.811 3  25354921.758   -12388738.567 3  25354921.998
  21249225.618   -71308509.362 7  21249221.580      159251.267 8  21249224.818
  22572523.849   -51771654.258 6  22572524.634   -27976529.963 7  22572522.719
  20051917.554   -44045975.469 8  20051916.847   -25715040.497 9  20051916.778
  22799477.154   -63161915.962 6  22799476.216   -18658591.526 7  22799476.588
  25676702.713     6483881.545 1  25676704.772    39260438.409 1  25676699.370
 15  7 30  1 17  0.0000000  0 12G 4G 8G 9G11G16G19G21G23G26G27G31G32
  24892572.626   -26996768.030 3  24892576.337    -1699066.978 4  24892571.879
  20454978.300   -37733543.098 8  20454978.423   -19870245.836 9  20454977.581
  23141663.162   -36197859.956 6  23141663.744     -480138.720 7  23141662.221
  25530263.678   -44617204.301 2  25530265.018   -15865046.939 3  25530261.244
  21490133.909   -44876744.065 7  21490130.737   -15631518.413 8  21490132.728
  21009937.994   -39011499.840 7  21009934.150   -17597766.034 8  21009936.198
  25360326.548   -16150105.289 2  25360325.607   -12366611.433 4  25360325.199
  21246730.622   -71321622.086 7  21246726.150      149033.526 8  21246729.672
  22579337.376   -51735850.371 6  22579338.578   -27948630.883 7  22579336.138
  20050502.324   -44053412.694 8  20050501.617   -25720835.748 9  20050501.527
  22808804.123   -63112904.000 6  22808802.858   -18620400.473 7  22808803.767
  25680592.199     6504318.261 3  25680595.587    39276362.173 1  25680588.958
 15  7 30  1 17 30.0000000  0 12G 4G 8G 9G11G16G19G21G23G26G27G31G32
  24872381.337   -27102871.453 3  24872384.631    -1781744.922 4  24872380.087
  20447696.305   -37771810.081 7  20447696.311   -19900064.263 9  20447695.535
  23129075.626   -36264007.667 5  23129076.271     -531682.389 7  23129074.544
  25508372.320   -44732243.842 3  25508374.803   -15954688.072 3  25508370.066
  21494130.688   -44855741.320 7  21494127.540   -15615152.655 8  21494129.003
  20994242.911   -39093977.610 6  20994239.188   -17662034.396 8  20994241.352
  25365796.849   -16121364.781 3  25365795.275   -12344216.243 4  25365794.916
  21244343.123   -71334165.488 7  21244339.514      139259.412 8  21244342.479
  22586148.004   -51700059.697 6  22586149.791   -27920742.084 7  22586147.231
  20049188.262   -44060318.521 7  20049187.509   -25726216.921 9  20049187.338
  22818184.944   -63063607.419 6  22818183.790   -18581987.650 7  22818183.751
  25684417.946     6524422.609 1  25684420.024    39292027.871 1  25684416.382
 15  7 30  1 18  0.0000000  0 12G 4G 8G 9G11G16G19G21G23G26G27G31G32
  24852153.803   -27209171.844 3  24852156.498    -1864576.373 4  24852151.444
  20440509.291   -37809578.385 7  20440509.378   -19929494.112 9  20440508.448
  23116576.823   -36329688.864 5  23116576.781     -582862.531 7  23116576.397
  25486451.595   -44847436.516 3  25486453.202   -16044448.550 3  25486450.452
  21498134.674   -44834700.307 7  21498131.673   -15598757.081 8  21498133.430
  20978639.391   -39175975.329 7  20978635.611   -17725928.683 8  20978637.526
  25371330.817   -16092278.144 2  25371330.343   -12321551.359 4  25371329.414
  21242065.360   -71346137.288 7  21242061.154      129930.697 8  21242063.876
  22592956.708   -51664279.462 6  22592958.329   -27892861.432 7  22592955.421
  20047975.718   -44066691.211 8  20047974.846   -25731182.661 9  20047974.852
  22827620.447   -63014024.032 6  22827619.296   -18543351.333 7  22827620.360
  25688181.376     6544197.017 1  25688182.650    39307436.433 1  25688179.164
 15  7 30  1 18 30.0000000  0 12G 4G 8G 9G11G16G19G21G23G26G27G31G32
  24831888.576   -27315668.689 3  24831889.425    -1947560.898 4  24831884.943
  20433416.969   -37846849.173 7  20433416.951   -19958536.291 9  20433416.030
  23104166.929   -36394903.645 5  23104166.740     -633679.227 7  23104166.279
  25464502.473   -44962781.969 3  25464503.027   -16134328.072 3  25464500.809
  21502145.432   -44813623.454 7  21502142.153   -15582333.580 8  21502144.386
  20963127.260   -39257492.551 7  20963123.180   -17789448.551 8  20963125.374
  25376932.796   -16062847.353 2  25376930.020   -12298618.312 4  25376930.341
  21239895.588   -71357539.454 7  21239891.055      121045.854 8  21239894.719
  22599763.148   -51628511.260 6  22599764.898   -27864990.136 7  22599761.948
  20046863.929   -44072533.419 8  20046863.167   -25735735.041 9  20046863.036
  22837110.341   -62964155.556 6  22837109.106   -18504492.878 7  22837109.586
  25691880.179     6563638.492 2  25691882.359    39322585.542 1  25691878.399
 15  7 30  1 19  0.0000000  0 12G 4G 8G 9G11G16G19G21G23G26G27G31G32
  24811586.805   -27422353.444 3  24811589.467    -2030691.828 4  24811584.514
  20426420.295   -37883616.223 7  20426420.397   -19987185.946 9  20426419.516
  23091847.686   -36459644.072 5  23091847.249     -684126.300 7  23091847.132
  25442525.902   -45078272.165 3  25442527.185   -16224320.379 3  25442523.740
  21506164.528   -44792505.119 7  21506160.901   -15565877.754 8  21506163.221
  20947707.825   -39338521.139 7  20947703.816   -17852587.663 8  20947706.161
  25382598.400   -16033066.582 2  25382597.518   -12275412.527 4  25382597.485
  21237835.462   -71368366.301 7  21237830.828      112609.309 8  21237834.779
  22606568.229   -51592748.630 5  22606570.424   -27837123.184 7  22606567.723
  20045854.036   -44077839.770 8  20045853.379   -25739869.861 9  20045853.206
  22846655.260   -62913995.593 6  22846654.049   -18465407.282 7  22846654.762
  25695516.140     6582752.467 1  25695520.017    39337479.468 1  25695515.403
 15  7 30  1 19 30.0000000  0 12G 4G 8G 9G11G16G19G21G23G26G27G31G32
  24791250.282   -27529223.491 3  24791253.118    -2113967.146 4  24791249.013
  20419519.841   -37919879.110 8  20419519.697   -20015442.755 9  20419518.923
  23079618.645   -36523908.324 5  23079618.978     -734202.330 7  23079617.941
  25420522.011   -45193904.359 3  25420522.401   -16314423.346 3  25420519.954
  21510190.648   -44771346.033 6  21510187.623   -15549390.173 8  21510189.107
  20932381.955   -39419059.163 7  20932378.075   -17915344.522 8  20932380.276
  25388332.821   -16002936.095 2  25388331.826   -12251934.246 4  25388331.196
  21235884.683   -71378617.941 7  21235880.423      104620.977 8  21235883.430
  22613372.889   -51556991.188 6  22613374.172   -27809260.293 7  22613372.358
  20044945.992   -44082610.996 8  20044945.425   -25743587.710 9  20044945.326
  22856256.293   -62863544.065 6  22856254.470   -18426094.494 7  22856255.376
  25699091.963     6601538.47911  25699094.568    39352117.88211  25699090.980
 15  7 30  1 20  0.0000000  0 12G 4G 8G 9G11G16G19G21G23G26G27G31G32
  24770879.309   -27636278.311 3  24770881.752    -2197386.429 5  24770877.268
  20412714.780   -37955639.430 8  20412714.759   -20043307.950 9  20412714.093
  23067480.148   -36587696.599 6  23067479.668     -783907.462 7  23067478.667
  25398490.563   -45309678.323 3  25398491.585   -16404636.763 3  25398488.401
  21514224.442   -44750148.235 7  21514221.325   -15532872.424 8  21514223.042
  20917149.140   -39499106.241 7  20917145.423   -17977718.816 8  20917147.497
  25394131.593   -15972458.846 2  25394130.924   -12228185.769 3  25394129.635
  21234042.911   -71388296.650 7  21234038.459       97079.086 8  21234041.961
  22620175.773   -51521240.542 5  22620177.812   -27781402.684 7  22620174.613
  20044139.457   -44086849.885 8  20044138.902   -25746890.748 9  20044138.711
  22865911.763   -62812803.035 6  22865910.231   -18386556.112 7  22865911.172
  25702603.933     6619994.040 1  25702604.724    39366498.804 1  25702601.303
 15  7 30  1 20 30.0000000  0 12G 4G 8G 9G11G16G19G21G23G26G27G31G32
  24750471.882   -27743512.139 3  24750474.904    -2280945.220 5  24750471.438
  20406006.075   -37990894.194 7  20406006.312   -20070779.210 9  20406005.331
  23055433.120   -36651004.001 6  23055433.042     -833237.897 7  23055432.160
  25376432.700   -45425588.520 2  25376433.174   -16494956.363 3  25376431.156
  21518266.250   -44728909.198 7  21518262.890   -15516322.543 8  21518265.117
  20902011.375   -39578657.172 6  20902007.381   -18039706.506 8  20902009.762
  25399998.459   -15941631.491 2  25399997.730   -12204164.480 3  25399996.405
  21232310.638   -71397399.490 7  21232306.702       89985.921 8  21232309.544
  22626978.217   -51485493.199 5  22626979.845   -27753547.646 7  22626977.674
  20043434.684   -44090554.101 8  20043433.964   -25749777.157 9  20043433.832
  22875623.362   -62761768.990 6  22875621.837   -18346789.407 7  22875622.559
  25706052.469     6638120.978 1
 15  7 30  1 21  0.0000000  0 12G 4G 8G 9G11G16G19G21G23G26G27G31G32
  24730031.942   -27850925.461 3  24730034.952    -2364643.864 4  24730031.618
  20399393.055   -38025645.852 7  20399393.187   -20097858.435 9  20399392.300
  23043476.734   -36713832.065 6  23043477.744     -882194.821 7  23043476.380
  25354351.169   -45541635.736 3  25354350.644   -16585382.708 3  25354348.630
  21522314.968   -44707632.467 7  21522311.845   -15499743.294 8  21522313.688
  20886967.477   -39657713.378 7  20886963.415   -18101308.703 8  20886965.906
  25405929.913   -15910457.463 2  25405929.301   -12179873.067 3  25405928.105
  21230687.322   -71405929.774 7  21230683.014       83338.905 8  21230686.372
  22633779.468   -51449752.022 5  22633781.173   -27725697.423 7  22633779.360
  20042830.821   -44093727.773 8  20042830.015   -25752250.157 9  20042829.895
  22885390.043   -62710445.216 6  22885388.901   -18306796.956 7  22885389.728
  25709440.433     6655915.603 2
 15  7 30  1 21 30.0000000  0 12G 4G 8G 9G11G16G19G21G23G26G27G31G32
  24709557.988   -27958515.964 3  24709561.603    -2448480.582 4  24709558.749
  20392875.849   -38059894.632 8  20392875.795   -20124545.811 9  20392875.012
  23031613.173   -36776179.153 5  23031613.368     -930776.958 7  23031612.540
  25332241.139   -45657817.754 3  25332241.832   -16675914.095 3  25332238.828
  21526371.100   -44686318.187 6  21526367.893   -15483134.781 8  21526369.940
  20872017.976   -39736272.863 7  20872013.922   -18162523.841 8  20872016.162
  25411928.031   -15878937.108 2  25411928.142   -12155311.773 3  25411925.855
  21229172.848   -71413888.158 7  21229168.726       77137.522 8  21229171.787
  22640580.140   -51414016.719 6  22640581.006   -27697851.773 7  22640579.657
  20042327.421   -44096371.813 8  20042326.858   -25754310.457 9  20042326.645
  22895211.412   -62658831.808 6  22895210.567   -18266578.805 7  22895211.175
  25712763.030     6673377.061 3
 15  7 30  1 22  0.0000000  0 12G 4G 8G 9G11G16G19G21G23G26G27G31G32
  24689051.866   -28066279.226 3  24689054.345    -2532451.895 4  24689051.051
  20386454.558   -38093638.258 8  20386454.639   -20150839.554 9  20386453.899
  23019840.335   -36838041.566 6  23019841.235     -978981.438 7  23019840.614
  25310107.186   -45774130.131 2  25310109.600   -16766547.053 2  25310106.299
  21530434.547   -44664965.414 7  21530430.983   -15466496.270 8  21530433.507
  20857163.736   -39814331.734 7  20857159.737   -18223348.893 8  20857162.084
  25417993.825   -15847069.026 2  25417992.011   -12130479.513 3  25417991.580
  21227767.772   -71421273.141 7  21227763.569       71382.943 8  21227766.834
  22647379.417   -51378284.854 5  22647380.859   -27670008.804 7  22647379.450
  20041925.322   -44098485.093 8  20041924.674   -25755957.178 9  20041924.545
  22905089.232   -62606926.652 6  22905088.458   -18226133.323 7  22905088.953
  25716020.889     6690506.814 1  25716025.254    39421443.479 1  25716020.628
 15  7 30  1 22 30.0000000  0 12G 4G 8G 9G11G16G19G21G23G26G27G31G32
  24668514.131   -28174210.171 3  24668515.573    -2616553.879 4  24668513.133
  20380129.969   -38126874.391 7  20380130.122   -20176737.850 9  20380129.114
  23008161.719   -36899415.347 6  23008162.511    -1026805.155 7  23008160.985
  25287949.487   -45890568.473 3  25287952.257   -16857278.179 2  25287948.084
  21534505.645   -44643572.183 7  21534502.482   -15449826.229 8  21534504.404
  20842405.811   -39891885.705 7  20842401.772   -18283780.518 8  20842404.225
  25424123.993   -15814850.891 2  25424121.859   -12105374.498 3  25424122.800
  21226472.231   -71428082.752 7  21226467.746       66076.713 8  21226471.356
  22654179.184   -51342553.793 6  22654180.149   -27642166.453 7  22654178.611
  20041624.573   -44100066.305 7  20041623.913   -25757189.304 9  20041623.671
  22915022.258   -62554727.488 6  22915021.326   -18185458.747 7  22915022.075
  25719218.709     6707306.326 1  25719222.070    39434533.979 1  25719217.921
 15  7 30  1 23  0.0000000  0 12G 4G 8G 9G11G16G19G21G23G26G27G31G32
  24647942.969   -28282308.292 3  24647945.050    -2700786.118 4  24647942.693
  20373901.388   -38159605.112 7  20373901.546   -20202242.313 9  20373900.674
  22996575.538   -36960300.917 5  22996575.955    -1074248.458 7  22996574.699
  25265767.738   -46007132.070 2  25265770.724   -16948106.931 3  25265766.269
  21538583.533   -44622140.612 6  21538580.307   -15433126.319 8  21538582.604
  20827743.825   -39968934.864 7  20827739.766   -18343818.785 8  20827742.182
  25430322.079   -15782285.441 2  25430319.219   -12079998.834 3  25430319.939
  21225285.314   -71434319.350 7  21225280.853       61216.979 8  21225284.567
  22660978.066   -51306825.193 5  22660979.310   -27614326.031 7  22660976.498
  20041424.372   -44101118.452 7  20041423.841   -25758009.176 9  20041423.427
  22925011.334   -62502236.401 6  22925010.381   -18144556.695 7  22925010.587
  25722352.125     6723773.141 1  25722357.156    39447365.179 1  25722351.855
 15  7 30  1 23 30.0000000  0 12G 4G 8G 9G11G16G19G21G23G26G27G31G32
  24627340.854   -28390573.891 4  24627342.601    -2785148.886 4  24627340.212
  20367768.716   -38191832.395 8  20367768.938   -20227354.485 9  20367768.048
  22985081.990   -37020699.350 5  22985082.643    -1121312.176 7  22985081.567
  25243562.992   -46123821.170 2  25243564.617   -17039033.479 3  25243561.895
  21542668.460   -44600674.058 7  21542665.816   -15416399.150 8  21542667.390
  20813177.695   -40045479.727 7  20813173.744   -18403464.092 8  20813175.923
  25436583.254   -15749375.763 2  25436582.453   -12054354.973 3  25436581.806
  21224206.723   -71439986.097 7  21224202.182       56801.284 8  21224205.818
  22667776.007   -51271101.323 5  22667778.256   -27586489.291 7  22667775.258
  20041323.989   -44101645.072 8  20041323.566   -25758419.545 9  20041323.216
  22935055.146   -62449455.920 6  22935054.666   -18103429.137 7  22935054.786
  25725422.659     6739903.924 1  25725427.675    39459934.546 1  25725419.853
 15  7 30  1 24  0.0000000  0 12G 4G 8G 9G11G16G19G21G23G26G27G31G32
  24606707.380   -28499002.973 4  24606709.565    -2869639.000 4  24606706.487
  20361732.098   -38223555.602 8  20361732.140   -20252073.870 9  20361731.424
  22973681.278   -37080608.022 5  22973682.882    -1167994.256 7  22973680.583
  25221333.894   -46240632.534 3  25221337.057   -17130055.308 3  25221332.908
  21546760.264   -44579171.910 6  21546757.245   -15399644.248 8  21546759.320
  20798708.167   -40121517.803 7  20798704.237   -18462714.509 8  20798706.446
  25442912.316   -15716121.350 2  25442910.539   -12028442.486 3  25442909.630
  21223236.808   -71445082.751 7  21223232.794       52829.817 8  21223235.639
  22674573.121   -51235380.783 6  22674574.829   -27558655.147 7  22674572.290
  20041324.007   -44101646.260 7  20041323.396   -25758420.483 9  20041323.075
  22945154.128   -62396385.199 6  22945152.728   -18062075.423 7  22945153.091
  25728428.148     6755698.842 1  25728433.844    39472242.204 1  25728427.165
 15  7 30  1 24 30.0000000  0 12G 4G 8G 9G11G16G19G21G23G26G27G31G32
  24586043.333   -28607591.212 4  24586045.840    -2954253.146 4  24586042.452
  20355791.672   -38254772.844 8  20355791.732   -20276398.992 9  20355790.865
  22962375.169   -37140023.427 5  22962376.051    -1214291.963 7  22962374.672
  25199083.657   -46357561.917 2  25199086.170   -17221169.056 3  25199083.214
  21550859.270   -44557632.396 6  21550856.203   -15382860.222 8  21550857.992
  20784335.634   -40197045.114 7  20784331.838   -18521566.927 8  20784333.892
  25449306.056   -15682520.798 2  25449304.632   -12002260.231 3  25449303.778
  21222375.855   -71449607.634 7  21222371.784       49303.880 8  21222375.060
  22681370.828   -51199661.212 6  22681372.228   -27530821.765 7  22681370.204
  20041423.976   -44101121.049 8  20041423.217   -25758011.241 9  20041423.080
  22955308.920   -62343022.497 6  22955307.760   -18020494.197 7  22955308.390
  25731371.324     6771159.500 3  25731375.126    39484289.365 1  25731367.646
 15  7 30  1 25  0.0000000  0 12G 4G 8G 9G11G16G19G21G23G26G27G31G32
  24565349.161   -28716339.534 5  24565351.607    -3038992.027 5  24565348.174
  20349946.891   -38285487.137 8  20349946.834   -20300332.204 9  20349946.258
  22951162.782   -37198947.599 5  22951162.260    -1260206.905 7  22951161.373
  25176809.497   -46474610.244 3  25176812.393   -17312375.518 3  25176808.406
  21554964.244   -44536059.733 7  21554961.081   -15366050.373 8  21554963.090
  20770060.096   -40272063.520 7  20770056.183   -18580022.799 8  20770058.708
  25455764.545   -15648578.101 2  25455762.066   -11975811.396 3  25455761.832
  21221623.106   -71453564.779 7  21221619.170       46220.345 8  21221622.129
  22688167.255   -51163945.739 6  22688168.469   -27502991.568 7  22688165.864
  20041623.116   -44100074.034 8  20041622.465   -25757195.397 9  20041622.346
  22965518.730   -62289370.925 6  22965517.156   -17978687.872 7  22965518.871
  25734248.519     6786280.953 1  25734251.877    39496072.249 1  25734246.637
 15  7 30  1 25 30.0000000  0 12G 4G 8G 9G11G16G19G21G23G26G27G31G32
  24544624.232   -28825247.243 4  24544627.293    -3123855.118 5  24544623.318
  20344197.681   -38315700.926 8  20344197.417   -20323875.417 9  20344196.764
  22940042.934   -37257380.901 6  22940043.449    -1305739.359 7  22940042.670
  25154515.030   -46591777.473 3  25154515.569   -17403674.628 3  25154513.126
  21559075.415   -44514455.763 6  21559072.366   -15349216.124 8  21559073.982
  20755881.705   -40346572.904 7  20755877.505   -18638082.034 8  20755879.900
  25462287.552   -15614295.519 1  25462286.671   -11949097.724 3  25462286.239
  21220977.752   -71456956.724 7  21220973.330       43577.221 8  21220976.768
  22694962.494   -51128235.872 5  22694964.209   -27475165.737 7  22694961.418
  20041921.245   -44098508.169 8  20041920.570   -25755975.254 9  20041920.300
  22975782.812   -62235432.689 6  22975781.432   -17936658.178 7  22975781.672
  25737060.959     6801061.273 3  25737064.344    39507589.283 2  25737059.011
 15  7 30  1 26  0.0000000  0 12G 4G 8G 9G11G16G19G21G23G26G27G31G32
  24523869.411   -28934315.622 4  24523872.544    -3208843.418 5  24523868.326
  20338542.573   -38345417.867 8  20338542.612   -20347031.478 9  20338541.794
  22929016.600   -37315325.661 5  22929016.702    -1350891.120 7  22929015.953
  25132195.148   -46709064.485 3  25132196.536   -17495067.089 4  25132193.772
  21563191.844   -44492825.000 6  21563188.729   -15332361.005 8  21563190.276
  20741799.467   -40420575.473 7  20741795.375   -18695746.351 8  20741797.608
  25468875.794   -15579677.629 1  25468874.754   -11922122.776 3  25468873.654
  21220439.076   -71459788.120 7  21220434.549       41370.891 8  21220437.901
  22701756.160   -51092534.990 6  22701758.076   -27447346.922 7  22701755.426
  20042316.830   -44096428.407 8  20042316.326   -25754354.672 9  20042315.963
  22986100.583   -62181211.943 6  22986099.303   -17894408.349 7  22986100.370
  25739806.132     6815495.615 1  25739808.066    39518836.779 1  25739803.824
 15  7 30  1 26 30.0000000  0 12G 4G 8G 9G11G16G19G21G23G26G27G31G32
  24503084.471   -29043541.844 4  24503087.214    -3293954.688 5  24503082.861
  20332982.292   -38374637.755 7  20332982.220   -20369800.221 9  20332981.387
  22918083.655   -37372780.344 6  22918084.749    -1395661.009 7  22918082.384
  25109853.235   -46826468.713 3  25109855.481   -17586550.885 4  25109852.258
  21567312.749   -44471167.746 6  21567309.847   -15315485.233 8  21567311.751
  20727813.720   -40494069.493 7  20727809.973   -18753014.393 8  20727811.915
  25475527.946   -15544724.833 1  25475525.746   -11894886.886 2  25475525.832
  21220006.718   -71462059.609 7  21220002.221       39600.847 8  21220005.612
  22708548.396   -51056842.601 5  22708550.243   -27419534.718 7  22708548.405
  20042810.156   -44093835.761 8  20042809.626   -25752334.441 9  20042809.428
  22996472.811   -62126708.728 6  22996471.132   -17851938.398 7  22996471.972
  25742487.311     6829583.961 1
 15  7 30  1 27  0.0000000  0 12G 4G 8G 9G11G16G19G21G23G26G27G31G32
  24482269.805   -29152917.885 3  24482274.077    -3379182.710 5  24482269.002
  20327517.358   -38403355.511 7  20327517.436   -20392177.696 9  20327516.572
  22907244.901   -37429738.084 5  22907245.738    -1440043.663 7  22907244.653
  25087491.170   -46943982.614 3  25087492.996   -17678120.117 4  25087489.986
  21571440.061   -44449478.808 6  21571437.000   -15298584.772 8  21571438.553
  20713926.554   -40567047.593 7  20713922.615   -18809880.420 9  20713924.929
  25482243.471   -15509431.927 2  25482241.294   -11867385.946 2  25482241.193
  21219681.833   -71463766.106 7  21219677.630       38271.059 8  21219680.985
  22715339.933   -51021152.871 5  22715341.037   -27391724.569 7  22715339.292
  20043402.135   -44090725.974 8  20043401.365   -25749911.241 9  20043401.278
  23006898.613   -62071917.441 6  23006897.782   -17809243.977 7  23006898.481
  25745104.877     6843330.880 1
 15  7 30  1 27 30.0000000  0 11G 4G 8G 9G11G16G19G21G23G26G27G31
  24461426.642   -29262445.650 4  24461432.074    -3464528.954 5  24461426.129
  20322147.373   -38431575.744 7  20322147.424   -20414167.490 9  20322146.369
  22896500.013   -37486201.872 6  22896500.603    -1484041.435 7  22896499.518
  25065108.072   -47061608.260 3  25065108.983   -17769776.440 4  25065106.306
  21575572.583   -44427762.874 6  21575569.930   -15281663.278 8  21575571.513
  20700136.994   -40639512.465 7  20700132.962   -18866346.537 8  20700135.432
  25489023.481   -15473803.876 2  25489021.545   -11839623.853 3  25489021.368
  21219464.166   -71464912.872 7  21219459.525       37377.416 8  21219462.996
  22722130.403   -50985469.805 6  22722131.654   -27363919.624 7  22722129.591
  20044091.100   -44087104.646 7  20044090.498   -25747089.437 9  20044090.336
  23017379.315   -62016842.731 6  23017378.353   -17766328.724 7  23017379.168
 15  7 30  1 28  0.0000000  0 11G 4G 8G 9G11G16G19G21G23G26G27G31
  24440556.776   -29372121.150 3  24440560.883    -3549990.324 5  24440555.433
  20316871.940   -38459297.195 8  20316872.123   -20435768.626 9  20316871.293
  22885850.356   -37542169.118 5  22885850.500    -1527652.280 7  22885849.196
  25042704.069   -47179341.875 3  25042705.649   -17861516.897 4  25042702.900
  21579710.573   -44406018.838 7  21579707.500   -15264719.890 8  21579709.398
  20686445.581   -40711461.442 7  20686441.447   -18922410.658 9  20686443.827
  25495867.179   -15437840.361 2  25495866.214   -11811600.380 3  25495864.949
  21219352.547   -71465499.510 7  21219347.846       36920.251 8  21219351.411
  22728919.363   -50949791.702 6  22728922.028   -27336118.539 7  22728918.151
  20044877.555   -44082971.656 8  20044876.955   -25743868.933 9  20044876.836
  23027914.076   -61961483.729 6  23027913.254   -17723191.923 7  23027912.760
 15  7 30  1 28 30.0000000  0 11G 4G 8G 9G11G16G19G21G23G26G27G31
  24419657.749   -29481943.541 3  24419661.895    -3635566.152 5  24419657.380
  20311691.254   -38486521.999 8  20311691.389   -20456982.767 9  20311690.396
  22875294.187   -37597640.245 6  22875294.139    -1570876.551 7  22875292.652
  25020279.866   -47297183.035 3  25020281.491   -17953341.167 4  25020277.710
  21583853.192   -44384249.540 7  21583849.802   -15247756.814 8  21583851.750
  20672852.229   -40782894.710 7  20672848.128   -18978072.923 9  20672850.619
  25502773.145   -15401543.570 1  25502773.450   -11783317.198 3  25502772.572
  21219346.917   -71465528.677 7  21219342.798       36897.468 8  21219346.296
  22735707.527   -50914119.998 6  22735709.482   -27308322.458 7  22735706.391
  20045761.004   -44078330.129 8  20045760.300   -25740252.168 9  20045760.111
  23038502.134   -61905842.367 6  23038501.151   -17679835.111 7  23038501.792
 15  7 30  1 29  0.0000000  0 11G 4G 8G 9G11G16G19G21G23G26G27G31
  24398732.652   -29591905.959 3  24398737.152    -3721251.101 5  24398732.433
  20306605.802   -38513245.722 8  20306606.087   -20477806.451 9  20306605.023
  22864833.628   -37652609.624 5  22864834.464    -1613709.835 7  22864833.196
  24997835.628   -47415124.861 3  24997837.477   -18045243.873 4  24997834.416
  21588001.112   -44362450.381 6  21587998.707   -15230770.479 8  21587999.928
  20659358.112   -40853806.169 7  20659354.128   -19033328.592 8  20659356.619
  25509746.074   -15364909.966 1  25509745.301   -11754771.595 2  25509744.446
  21219448.220   -71464996.659 7  21219443.834       37311.976 8  21219447.095
  22742495.830   -50878449.937 6  22742496.813   -27280527.620 7  22742495.083
  20046741.581   -44073176.930 8  20046740.894   -25736236.696 9  20046740.783
  23049145.267   -61849914.466 6  23049143.732   -17636255.008 7  23049144.397
 15  7 30  1 29 30.0000000  0 11G 4G 8G 9G11G16G19G21G23G26G27G31
  24377780.664   -29702008.026 3  24377785.193    -3807044.867 5  24377779.366
  20301615.415   -38539470.932 8  20301615.514   -20498241.684 9  20301614.789
  22854468.091   -37707078.354 6  22854469.764    -1656153.011 7  22854467.656
  24975372.275   -47533167.437 3  24975374.406   -18137225.065 4  24975371.180
  21592154.595   -44340624.463 7  21592151.400   -15213763.293 8  21592153.369
  20645963.307   -40924196.764 7  20645959.182   -19088178.395 9  20645961.604
  25516778.513   -15327942.554 1  25516779.364   -11725965.857 2  25516778.525
  21219655.127   -71463906.827 7  21219651.221       38161.142 8  21219654.315
  22749282.426   -50842783.444 5  22749284.057   -27252735.598 7  22749281.566
  20047818.882   -44067515.786 8  20047818.171   -25731825.420 9  20047818.087
  23059841.853   -61793702.668 6  23059841.373   -17592453.712 7  23059841.328
 15  7 30  1 30  0.0000000  0 11G 4G 8G 9G11G16G19G21G23G26G27G31
  24356802.432   -29812251.276 3  24356805.777    -3892948.654 5  24356801.050
  20296719.016   -38565202.340 8  20296719.022   -20518292.136 9  20296718.212
  22844198.176   -37761049.335 5  22844199.489    -1698208.337 7  22844197.660
  24952891.372   -47651312.194 3  24952893.096   -18229285.895 4  24952888.707
  21596312.117   -44318776.446 7  21596308.885   -15196738.874 8  21596310.948
  20632666.891   -40994069.049 7  20632662.823   -19142624.318 9  20632665.281
  25523876.489   -15290646.306 1  25523875.826   -11696903.877 3  25523874.324
  21219968.228   -71462264.164 7  21219964.109       39441.075 8  21219967.038
  22756068.619   -50807124.326 6  22756070.678   -27224949.312 7  22756067.566
  20048991.997   -44061352.147 8  20048991.211   -25727022.595 9  20048991.163
  23070591.733   -61737211.281 6  23070590.941   -17548434.532 7  23070591.148
 15  7 30  1 30 30.0000000  0 11G 4G 8G 9G11G16G19G21G23G26G27G31
  24335798.360   -29922630.098 3  24335800.879    -3978958.071 5  24335797.803
  20291916.937   -38590436.947 8  20291916.940   -20537955.467 9  20291916.284
  22834023.636   -37814518.226 6  22834023.585    -1739872.421 7  22834022.215
  24930390.164   -47769554.021 3  24930392.538   -18321422.341 4  24930387.985
  21600474.442   -44296903.059 7  21600471.072   -15179694.690 8  21600473.096
  20619470.144   -41063418.231 7  20619466.142   -19196662.633 9  20619468.552
  25531038.564   -15253018.683 2  25531035.248   -11667583.688 3  25531035.227
  21220386.663   -71460066.562 7  21220382.346       41153.450 8  21220385.878
  22762853.581   -50771469.008 6  22762855.800   -27197165.986 7  22762852.748
  20050260.715   -44054684.239 8  20050260.011   -25721826.829 9  20050259.888
  23081395.422   -61680437.554 6  23081395.503   -17504195.367 7  23081395.380
 15  7 30  1 31  0.0000000  0 11G 4G 8G 9G11G16G19G21G23G26G27G31
  24314768.453   -30033144.430 3  24314770.525    -4065073.091 5  24314767.266
  20287208.928   -38615177.566 8  20287209.020   -20557233.873 9  20287208.295
  22823944.167   -37867486.308 5  22823944.254    -1781146.284 7  22823943.424
  24907871.406   -47887892.917 3  24907873.256   -18413634.431 4  24907870.663
  21604641.080   -44275007.368 6  21604638.229   -15162633.128 8  21604639.917
  20606372.907   -41132245.478 7  20606368.590   -19250294.247 9  20606371.249
  25538261.293   -15215062.901 1  25538259.065   -11638007.782 3  25538258.004
  21220909.618   -71457317.426 7  21220905.763       43295.582 8  21220908.587
  22769637.462   -50735819.618 5  22769640.055   -27169387.280 7  22769636.554
  20051624.729   -44047515.949 8  20051623.977   -25716241.157 9  20051623.935
  23092252.083   -61623384.274 6  23092251.366   -17459738.356 7  23092251.741
 15  7 30  1 31 30.0000000  0 11G 4G 8G 9G11G16G19G21G23G26G27G31
  24293713.732   -30143788.548 4  24293715.732    -4151289.248 5  24293712.266
  20282595.598   -38639421.741 8  20282595.487   -20576125.442 9  20282594.921
  22813960.677   -37919949.483 5  22813960.815    -1822026.695 7  22813959.996
  24885334.997   -48006323.544 3  24885336.031   -18505918.009 4  24885333.858
  21608812.285   -44253086.886 6  21608809.233   -15145552.245 8  21608811.004
  20593375.687   -41200546.769 7  20593371.463   -19303516.017 9  20593374.095
  25545546.138   -15176776.923 1  25545545.101   -11608174.593 3  25545543.539
  21221538.154   -71454014.792 7  21221534.101       45869.010 8  21221537.018
  22776420.887   -50700172.771 6  22776422.275   -27141610.549 7  22776420.500
  20053084.419   -44039845.731 8  20053083.753   -25710264.373 9  20053083.564
  23103162.843   -61566049.011 6  23103161.350   -17415061.608 7  23103162.097
 15  7 30  1 32  0.0000000  0 11G 4G 8G 9G11G16G19G21G23G26G27G31
  24272633.840   -30254567.181 4  24272635.618    -4237610.218 5  24272632.044
  20278075.067   -38663177.329 8  20278074.902   -20594636.295 9  20278074.248
  22804072.562   -37971914.157 5  22804072.286    -1862518.662 7  22804071.066
  24862779.473   -48124851.172 3  24862780.936   -18598277.138 4  24862778.256
  21612987.161   -44231149.277 7  21612984.145   -15128458.028 8  21612986.130
  20580477.425   -41268327.769 7  20580473.150   -19356332.364 9  20580475.722
  25552892.433   -15138168.915 1  25552892.385   -11578090.458 3  25552890.616
  21222269.821   -71450167.413 7  21222266.071       48866.918 8  21222269.057
  22783202.120   -50664535.682 5  22783203.403   -27113841.430 7  22783201.863
  20054637.805   -44031682.557 8  20054637.110   -25703903.469 9  20054636.921
  23114125.990   -61508439.587 6  23114126.050   -17370171.253 7  23114124.715
 15  7 30  1 32 30.0000000  0 11G 4G 8G 9G11G16G19G21G23G26G27G31
  24251527.918   -30365474.608 4  24251530.229    -4324031.552 5  24251527.420
  20273648.032   -38686441.268 8  20273647.873   -20612764.042 9  20273647.288
  22794279.518   -38023375.923 6  22794279.575    -1902618.741 7  22794278.459
  24840207.601   -48243469.793 4  24840208.402   -18690707.210 5  24840205.742
  21617165.555   -44209191.761 6  21617162.728   -15111348.280 8  21617164.326
  20567679.063   -41335583.835 7  20567675.001   -19408739.677 9  20567677.390
  25560300.586   -15099236.356 2  25560301.761   -11547753.419 3  25560299.354
  21223106.335   -71445773.147 7  21223102.510       52290.966 8  21223105.364
  22789982.377   -50628904.480 5  22789984.688   -27086076.900 7  22789981.282
  20056285.375   -44023024.511 8  20056284.637   -25697156.955 9  20056284.628
  23125141.240   -61450552.929 5  23125141.462   -17325064.864 7  23125140.706
 15  7 30  1 33  0.0000000  0 11G 4G 8G 9G11G16G19G21G23G26G27G31
  24230399.486   -30476510.633 4  24230400.116    -4410553.091 5  24230398.338
  20269313.989   -38709216.690 8  20269314.052   -20630511.125 9  20269313.185
  22784581.831   -38074336.075 6  22784582.005    -1942327.966 7  22784581.067
  24817617.868   -48362179.577 4  24817618.518   -18783208.297 5  24817615.589
  21621347.078   -44187217.115 7  21621343.978   -15094225.196 8  21621345.711
  20554980.148   -41402316.186 7  20554976.056   -19460738.894 9  20554978.383
  25567771.864   -15059982.109 2  25567770.491   -11517165.741 3  25567769.256
  21224046.343   -71440835.415 7  21224042.083       56138.507 8  21224045.528
  22796761.700   -50593281.272 5  22796763.394   -27058318.595 7  22796761.218
  20058026.347   -44013875.553 8  20058025.598   -25690027.913 9  20058025.607
  23136208.747   -61392391.914 6  23136208.909   -17279744.692 7  23136208.315
 15  7 30  1 33 30.0000000  0 11G 4G 8G 9G11G16G19G21G23G26G27G31
  24209246.511   -30587667.749 4  24209248.058    -4497169.008 5  24209245.486
  20265073.709   -38731499.665 8  20265073.655   -20647874.480 9  20265072.855
  22774980.669   -38124788.987 5  22774980.690    -1981641.945 7  22774980.726
  24795011.559   -48480973.288 3  24795012.548   -18875774.784 5  24795009.439
  21625532.912   -44165220.887 7  21625529.611   -15077085.301 8  21625531.524
  20542382.123   -41468518.798 7  20542377.836   -19512325.324 9  20542380.411
  25575303.007   -15020402.684 1  25575300.192   -11486324.666 3  25575300.465
  21225089.972   -71435350.461 7  21225085.838       60412.451 8  21225089.166
  22803539.999   -50557661.025 5  22803541.618   -27030562.604 7  22803538.497
  20059861.374   -44004232.528 8  20059860.621   -25682513.883 9  20059860.505
  23147329.719   -61333952.288 5  23147329.710   -17234207.422 7  23147329.263
 15  7 30  1 34  0.0000000  0 11G 4G 8G 9G11G16G19G21G23G26G27G31
  24188070.698   -30698948.018 4  24188072.722    -4583880.897 5  24188070.503
  20260926.252   -38753294.569 8  20260926.249   -20664857.518 9  20260925.409
  22765476.262   -38174738.105 5  22765475.665    -2020563.355 7  22765475.518
  24772389.732   -48599853.415 4  24772390.107   -18968408.628 5  24772388.302
  21629721.867   -44143207.873 7  21629718.902   -15059932.316 8  21629720.644
  20529884.159   -41534194.730 7  20529880.205   -19563501.361 9  20529882.813
  25582894.016   -14980503.478 1  25582894.247   -11455234.408 3  25582893.150
  21226236.936   -71429324.060 7  21226232.625       65108.297 8  21226235.791
  22810316.849   -50522047.745 5  22810318.483   -27002812.048 7  22810316.259
  20061789.210   -43994101.396 8  20061788.509   -25674619.511 9  20061788.443
  23158502.363   -61275239.166 5  23158502.843   -17188457.020 7  23158501.275
 15  7 30  1 34 30.0000000  0 11G 4G 8G 9G11G16G19G21G23G26G27G31
  24166872.655   -30810346.724 5  24166874.070    -4670685.068 5  24166871.321
  20256871.987   -38774600.281 8  20256872.026   -20681459.367 9  20256871.019
  22756067.455   -38224180.452 6  22756068.043    -2059089.867 7  22756066.631
  24749751.388   -48718815.511 4  24749752.488   -19061106.330 5  24749749.985
  21633914.165   -44121176.460 7  21633911.194   -15042765.005 8  21633912.942
  20517487.528   -41599341.041 7  20517483.352   -19614264.706 9  20517485.948
  25590550.571   -14940284.558 1  25590548.113   -11423895.114 3  25590546.914
  21227486.534   -71422755.650 7  21227483.110       70226.492 8  21227485.634
  22817093.151   -50486439.127 5  22817094.758   -26975065.112 7  22817092.366
  20063810.042   -43983481.808 8  20063809.299   -25666344.524 9  20063809.284
  23169727.981   -61216250.902 6  23169727.244   -17142492.241 7  23169727.528
 15  7 30  1 35  0.0000000  0 11G 4G 8G 9G11G16G19G21G23G26G27G31
  24445444.670   -27771017.858 5  24445446.469    -2302376.846 5  24445444.319
  20552702.922   -35644576.895 8  20552703.174   -18242480.099 9  20552702.178
  23046547.910   -35122273.793 5  23046548.710      357980.237 7  23046547.322
  25026891.938   -49881317.815 4  25026892.913   -16698663.420 5  25026890.988
  21937902.260   -40948288.011 6  21937899.790   -12570384.411 8  21937900.917
  20804984.484   -42707418.655 7  20804980.395   -17209412.961 9  20804982.757
  25898056.854   -11748906.304 1
  21528631.934   -68264806.858 7  21528627.842    -1663338.251 8  21528631.302
  23123660.382   -47299996.267 6  23123661.695   -24492122.667 7  23123660.190
  20365715.908   -40821535.999 8  20365715.117   -23202490.663 9  20365715.060
  23480797.444   -58006150.112 6  23480796.929   -14641115.099 7  23480797.201
 15  7 30  1 35 30.0000000  0 11G 4G 8G 9G11G16G19G21G23G26G27G31
  24424203.181   -27882643.585 5  24424204.620    -2389357.922 5  24424202.968
  20548834.865   -35664903.759 8  20548835.110   -18258319.211 9  20548834.121
  23037333.423   -35170697.761 6  23037333.387      320247.263 7  23037332.128
  25004224.825   -50000434.660 3  25004225.590   -16791481.720 5  25004223.296
  21942102.089   -40926218.851 7  21942099.094   -12553187.686 8  21942100.992
  20792790.117   -42771499.938 7  20792786.118   -17259346.401 9  20792788.354
  25905831.516   -11708045.383 1
  21530088.254   -68257155.720 7  21530083.850    -1657376.371 8  21530087.457
  23130435.737   -47264393.644 5  23130437.484   -24464380.412 7  23130435.557
  20367922.099   -40809942.106 8  20367921.445   -23193456.478 9  20367921.346
  23492127.474   -57946610.714 6  23492126.850   -14594720.858 7  23492126.619
 15  7 30  1 36  0.0000000  0 11G 4G 8G 9G11G16G19G21G23G26G27G31
  24402941.369   -27994377.143 5  24402942.541    -2476423.021 5  24402940.503
  20545060.271   -35684740.473 8  20545060.286   -18273776.392 9  20545059.329
  23028216.378   -35218609.636 6  23028216.467      282913.314 7  23028214.966
  24981543.670   -50119623.639 3  24981544.132   -16884356.222 5  24981542.798
  21946305.578   -40904129.852 6  21946302.775   -12535975.497 8  21946304.037
  20780697.814   -42835045.329 7  20780693.626   -17308862.271 9  20780696.165
  25913668.756   -11666863.535 2
  21531646.614   -68248963.689 7  21531642.780    -1650993.015 8  21531645.955
  23137210.698   -47228791.865 5  23137211.936   -24436638.823 7  23137209.139
  20370220.881   -40797861.988 7  20370220.239   -23184043.411 9  20370220.011
  23503509.892   -57886795.119 6  23503510.081   -14548111.397 7  23503509.772
 15  7 30  1 36 30.0000000  0 11G 4G 8G 9G11G16G19G21G23G26G27G31
  24381658.281   -28106219.149 5  24381659.366    -2563572.626 5  24381658.212
  20541378.202   -35704090.556 8  20541378.163   -18288854.384 9  20541377.218
  23019196.063   -35266011.545 6  23019196.252      245976.743 7  23019195.443
  24958849.024   -50238885.739 3  24958849.588   -16977287.689 5  24958848.107
  21950512.164   -40882024.205 7  21950508.770   -12518750.343 8  21950510.824
  20768707.153   -42898056.477 7  20768702.713   -17357961.845 9  20768705.621
  25921565.326   -11625364.806 1  25921563.389   -13035144.969 2  25921563.029
  21533308.043   -68240235.029 7  21533303.732    -1644191.510 8  21533306.901
  23143984.425   -47193193.509 5  23143986.589   -24408899.899 7  23143983.568
  20372611.288   -40785300.252 8  20372610.688   -23174255.060 9  20372610.496
  23514944.504   -57826706.665 6  23514943.460   -14501289.334 7  23514944.126
 15  7 30  1 37  0.0000000  0 11G 4G 8G 9G11G16G19G21G23G26G27G31
  24360355.053   -28218164.454 4  24360358.144    -2650802.691 5  24360354.774
  20537788.868   -35722952.476 8  20537788.832   -18303551.986 9  20537788.055
  23010272.963   -35312900.472 6  23010273.289      209439.893 7  23010272.351
  24936140.927   -50358216.122 3  24936141.389   -17070272.360 5  24936139.893
  21954722.041   -40859900.015 6  21954718.722   -12501510.729 8  21954720.908
  20756818.934   -42960530.470 7  20756814.572   -17406642.860 9  20756817.222
  25929523.808   -11583548.141 2  25929522.012   -13002560.599 2  25929520.834
  21535070.823   -68230969.139 7  21535067.294    -1636971.389 8  21535070.202
  23150758.826   -47157596.075 6  23150760.826   -24381161.689 7  23150757.015
  20375093.506   -40772256.416 8  20375092.895   -23164091.049 9  20375092.670
  23526430.941   -57766343.902 6  23526430.986   -14454253.513 7  23526429.787
 15  7 30  1 37 30.0000000  0 11G 4G 8G 9G11G16G19G21G23G26G27G31
  24339032.860   -28330213.777 3  24339035.777    -2738113.830 5  24339032.171
  20534291.507   -35741330.691 8  20534291.555   -18317872.675 9  20534290.826
  23001448.011   -35359278.997 6  23001448.470      173300.757 7  23001447.067
  24913420.496   -50477615.854 3  24913420.964   -17163311.089 5  24913419.021
  21958934.986   -40837760.797 6  21958931.766   -12484259.414 8  21958934.065
  20745032.219   -43022469.253 7  20745028.121   -17454906.828 9  20745030.537
  25937541.248   -11541417.779 2  25937538.667   -12969731.778 2  25937538.852
  21536935.850   -68221170.626 7  21536932.201    -1629336.236 8  21536934.920
  23157531.830   -47122002.424 5  23157533.806   -24353426.417 7  23157530.997
  20377666.505   -40758735.562 8  20377665.866   -23153555.334 9  20377665.522
  23537969.305   -57705710.896 6  23537968.364   -14407007.111 7  23537968.573
 15  7 30  1 38  0.0000000  0 11G 4G 8G 9G11G16G19G21G23G26G27G31
  24317692.344   -28442359.566 4  24317695.588    -2825500.133 5  24317691.594
  20530887.309   -35759220.541 8  20530887.112   -18331812.826 9  20530886.539
  22992720.387   -35405141.115 6  22992720.558      137564.014 7  22992719.398
  24890688.409   -50597077.124 4  24890689.101   -17256397.760 5  24890686.535
  21963151.627   -40815602.123 7  21963148.755   -12466992.940 8  21963150.946
  20733348.587   -43083866.860 7  20733344.483   -17502749.097 9  20733346.825
  25945616.805   -11498969.623 1  25945615.132   -12936655.316 2  25945615.399
  21538902.452   -68210835.799 7  21538898.684    -1621283.173 8  21538902.002
  23164305.683   -47086407.008 5  23164307.113   -24325689.787 7  23164304.451
  20380330.773   -40744734.150 8  20380330.233   -23142645.157 9  20380329.999
  23549559.776   -57644802.779 6  23549559.317   -14359546.331 7  23549559.071
 15  7 30  1 38 30.0000000  0 11G 4G 8G 9G11G16G19G21G23G26G27G31
  24296333.438   -28554600.045 4  24296337.066    -2912960.239 5  24296332.800
  20527575.679   -35776623.653 8  20527575.442   -18345373.704 9  20527574.813
  22984091.446   -35450487.158 6  22984092.801      102229.398 7  22984091.146
  24867943.419   -50716599.047 4  24867945.149   -17349531.696 5  24867942.256
  21967371.892   -40793425.213 6  21967368.738   -12449712.259 8  21967370.423
  20721767.899   -43144723.449 7  20721763.690   -17550169.793 9  20721766.112
  25953754.393   -11456205.999 1  25953754.570   -12903333.131 2  25953752.393
  21540970.909   -68199967.085 7  21540966.871    -1612814.091 8  21540969.899
  23171079.413   -47050810.469 5  23171080.893   -24297952.268 7  23171079.176
  20383086.192   -40730255.063 7  20383085.670   -23131362.765 9  20383085.500
  23561202.381   -57583621.348 5  23561201.371   -14311872.576 7  23561201.775
 15  7 30  1 39  0.0000000  0 11G 4G 8G 9G11G16G19G21G23G26G27G31
  24274957.457   -28666935.297 4  24274960.613    -3000494.169 5  24274956.593
  20524355.842   -35793543.807 8  20524355.602   -18358558.245 9  20524354.880
  22975560.476   -35495319.168 6  22975560.536       67295.352 7  22975560.207
  24845187.939   -50836181.750 4  24845188.656   -17442712.999 5  24845186.923
  21971594.840   -40771233.239 6  21971592.154   -12432419.834 8  21971594.040
  20710289.892   -43205040.540 7  20710285.802   -17597170.102 9  20710288.561
  25961950.979   -11413130.636 1  25961951.885   -12869767.888 2  25961949.600
  21543139.710   -68188568.761 7  21543135.573    -1603932.327 8  21543138.702
  23177852.728   -47015215.207 5  23177854.119   -24270215.751 7  23177852.642
  20385931.402   -40715302.799 8  20385930.851   -23119711.657 9  20385930.752
  23572896.182   -57522169.892 6  23572896.122   -14263988.436 7  23572894.263
 15  7 30  1 39 30.0000000  0 11G 4G 8G 9G11G16G19G21G23G26G27G31
  24253562.897   -28779362.632 5  24253565.940    -3088099.860 6  24253562.639
  20521227.664   -35809981.729 7  20521227.760   -18371367.025 9  20521226.872
  22967126.907   -35539636.506 6  22967127.147       32762.339 7  22967126.508
  24822421.184   -50955822.869 4  24822421.355   -17535939.808 5  24822419.272
  21975821.042   -40749026.093 6  21975817.543   -12415115.588 8  21975819.771
  20698914.920   -43264817.297 7  20698910.579   -17643749.370 9  20698913.269
  25970207.968   -11369744.238 2  25970207.249   -12835960.310 1  25970205.633
  21545409.780   -68176642.363 7  21545405.295    -1594639.083 8  21545408.566
  23184626.260   -46979620.805 5  23184628.176   -24242479.928 7  23184626.494
  20388866.436   -40699879.138 7  20388865.990   -23107693.226 9  20388865.729
  23584641.319   -57460449.111 5  23584641.822   -14215894.455 7  23584641.139
 15  7 30  1 40  0.0000000  0 11G 4G 8G 9G11G16G19G21G23G26G27G31
  24232152.076   -28891879.072 5  24232154.906    -3175774.978 6  24232151.624
  20518191.243   -35825937.618 7  20518191.267   -18383800.198 9  20518190.631
  22958791.852   -35583438.050 6  22958792.143       -1368.773 7  22958790.773
  24799643.526   -51075519.638 5  24799643.724   -17629210.003 5  24799642.441
  21980049.713   -40726803.607 6  21980046.814   -12397799.395 8  21980048.157
  20687642.838   -43324052.289 7  20687638.488   -17689906.488 9  20687640.970
  25978524.034   -11326047.818 1  25978522.247   -12801911.167 1  25978521.333
  21547779.340   -68164188.893 7  21547775.359    -1584935.129 8  21547778.542
  23191400.044   -46944026.417 5  23191401.501   -24214744.108 7  23191399.114
  20391891.198   -40683985.488 8  20391890.449   -23095308.577 9  20391890.131
  23596437.687   -57398459.303 5  23596437.618   -14167590.808 7  23596436.515
 15  7 30  1 40 30.0000000  0 11G 4G 8G 9G11G16G19G21G23G26G27G31
  24210724.326   -29004478.737 5  24210727.519    -3263514.942 6  24210724.593
  20515247.311   -35841409.202 8  20515247.167   -18395855.992 9  20515246.429
  22950555.627   -35626719.983 6  22950555.747      -35094.978 7  22950554.809
  24776856.133   -51195266.400 5  24776857.321   -17722519.150 5  24776855.705
  21984281.943   -40704562.846 6  21984279.011   -12380468.967 8  21984280.336
  20676474.439   -43382741.602 7  20676470.469   -17735638.399 9  20676472.886
  25986897.513   -11282039.193 1  25986897.255   -12767618.749 2  25986896.626
  21550249.992   -68151206.929 6  21550245.747    -1574819.358 8  21550248.874
  23198173.726   -46908428.410 5  23198175.209   -24187005.449 7  23198172.448
  20395005.053   -40667620.437 7  20395004.627   -23082556.605 9  20395004.474
  23608285.638   -57336197.763 5  23608285.572   -14119075.433 7  23608284.676
 15  7 30  1 41  0.0000000  0 11G 4G 8G 9G11G16G19G21G23G26G27G31
  24189281.509   -29117164.752 5  24189284.063    -3351322.185 6  24189280.112
  20512393.901   -35856403.442 7  20512393.850   -18407539.825 9  20512393.203
  22942416.810   -35669487.722 6  22942418.126      -68420.529 7  22942415.641
  24754059.297   -51315066.946 4  24754058.788   -17815870.199 5  24754057.759
  21988516.710   -40682310.917 6  21988513.622   -12363129.835 8  21988515.229
  20665409.276   -43440890.358 7  20665404.998   -17780949.097 9  20665407.471
  25995331.089   -11237725.493 2  25995329.839   -12733088.633 2  25995327.773
  21552819.067   -68137704.109 6  21552815.295    -1564297.734 8  21552818.131
  23204947.836   -46872832.445 5  23204948.762   -24159268.400 6  23204947.179
  20398207.601   -40650791.892 8  20398207.118   -23069443.463 9  20398206.776
  23620183.867   -57273671.542 5  23620184.907   -14070353.812 7  23620183.261
 15  7 30  1 41 30.0000000  0 11G 4G 8G 9G11G16G19G21G23G26G27G31
  24167822.287   -29229931.973 4  24167825.399    -3439192.723 6  24167821.894
  20509631.832   -35870918.246 8  20509631.754   -18418850.072 9  20509631.032
  22934377.420   -35711737.906 6  22934378.058     -101342.796 7  22934376.398
  24731252.823   -51434916.147 4  24731252.151   -17909259.162 5  24731251.321
  21992753.652   -40660044.835 6  21992750.238   -12345779.674 8  21992752.142
  20654447.371   -43498495.001 7  20654443.204   -17825835.813 9  20654445.764
  26003822.024   -11193104.958 2  26003821.439   -12698319.413 2  26003819.919
  21555487.993   -68123679.300 7  21555484.225    -1553369.364 8  21555487.136
  23211721.374   -46837235.350 5  23211723.820   -24131530.470 6  23211720.384
  20401498.285   -40633498.934 8  20401497.775   -23055968.436 9  20401497.520
  23632132.776   -57210878.330 5  23632133.765   -14021424.158 7  23632132.488
 15  7 30  1 42  0.0000000  0 11G 4G 8G 9G11G16G19G21G23G26G27G31
  24146348.201   -29342776.074 4  24146350.692    -3527123.166 6  24146348.591
  20506961.125   -35884953.209 8  20506961.041   -18429786.413 9  20506960.193
  22926436.454   -35753468.369 6  22926436.622     -133860.083 7  22926435.405
  24708437.634   -51554809.971 4  24708437.412   -18002682.905 5  24708436.731
  21996993.680   -40637763.239 6  21996990.245   -12328417.417 8  21996992.196
  20643589.823   -43555553.002 7  20643585.398   -17870296.574 9  20643588.138
  26012371.349   -11148177.152 2  26012371.247   -12663310.775 2  26012369.637
  21558256.427   -68109132.521 6  21558252.628    -1542034.256 8  21558255.413
  23218496.329   -46801635.013 5  23218498.188   -24103790.021 6  23218495.118
  20404877.362   -40615741.813 8  20404876.844   -23042131.723 9  20404876.658
  23644132.973   -57147817.289 5  23644133.567   -13972285.792 7  23644132.883
 15  7 30  1 42 30.0000000  0 11G 4G 8G 9G11G16G19G21G23G26G27G31
  24124861.650   -29455693.692 5  24124863.356    -3615110.896 6  24124861.104
  20504381.606   -35898508.639 8  20504381.501   -18440349.095 9  20504380.743
  22918594.432   -35794678.123 6  22918594.423     -165971.617 7  22918593.608
  24685614.778   -51674745.572 4  24685614.362   -18096139.180 5  24685613.525
  22001236.604   -40615465.555 6  22001233.582   -12311042.623 8  22001235.195
  20632836.268   -43612063.102 7  20632831.840   -17914330.399 9  20632834.547
  26020980.255   -11102942.693 1  26020979.800   -12628063.210 2  26020977.059
  21561123.639   -68094064.986 7  21561119.963    -1530293.365 8  21561122.532
  23225271.165   -46766030.638 5  23225273.024   -24076046.415 6  23225270.914
  20408344.513   -40597521.971 8  20408343.961   -23027934.449 9  20408343.686
  23656184.429   -57084488.800 5  23656184.543   -13922939.048 7  23656184.273
 15  7 30  1 43  0.0000000  0 11G 4G 8G 9G11G16G19G21G23G26G27G31
  24103360.643   -29568681.391 5  24103363.125    -3703153.223 5  24103359.689
  20501893.302   -35911584.661 8  20501893.305   -18450538.200 9  20501892.420
  22910851.153   -35835365.973 6  22910852.493     -197676.481 7  22910850.490
  24662783.820   -51794719.758 4  24662783.466   -18189625.526 5  24662782.912
  22005482.741   -40593151.363 6  22005479.575   -12293654.971 8  22005482.070
  20622186.875   -43668023.849 7  20622182.735   -17957936.159 9  20622185.319
  26029645.663   -11057402.410 1  26029644.602   -12592577.309 2  26029643.655
  21564089.722   -68078477.705 7  21564086.278    -1518147.478 8  21564088.736
  23232047.758   -46730421.037 5  23232049.464   -24048298.754 6  23232047.494
  20411899.266   -40578840.641 7  20411898.918   -23013377.574 9  20411898.499
  23668286.376   -57020892.784 5  23668287.006   -13873383.828 7  23668285.603
 15  7 30  1 43 30.0000000  0 11G 4G 8G 9G11G16G19G21G23G26G27G31
  24081847.446   -29681732.994 5  24081849.901    -3791245.348 5  24081846.621
  20499496.587   -35924178.766 8  20499496.701   -18460351.787 9  20499495.840
  22903208.652   -35875527.845 6  22903209.734     -228971.485 7  22903207.983
  24639947.999   -51914726.571 5  24639948.101   -18283137.285 5  24639947.010
  22009733.016   -40570817.768 7  22009729.496   -12276252.194 7  22009731.313
  20611643.321   -43723430.912 7  20611638.980   -18001110.480 9  20611641.834
  26038369.639   -11011553.637 2  26038368.955   -12556851.038 2  26038368.548
  21567155.304   -68062368.592 7  21567151.365    -1505594.973 8  21567154.066
  23238826.305   -46694802.205 5  23238827.651   -24020543.906 7  23238825.559
  20415542.518   -40559696.144 8  20415542.008   -22998459.791 9  20415541.553
  23680439.906   -56957026.334 5  23680440.712   -13823617.881 7  23680439.534
 15  7 30  1 44  0.0000000  0 11G 4G 8G 9G11G16G19G21G23G26G27G31
  24060321.856   -29794847.854 5  24060323.664    -3879386.738 6  24060321.325
  20497191.039   -35936294.137 8  20497191.183   -18469792.336 9  20497190.286
  22895665.978   -35915165.518 6  22895667.291     -259858.015 7  22895665.361
  24617104.344   -52034765.981 4  24617105.588   -18376674.439 5  24617104.308
  22013986.246   -40548467.413 6  22013982.721   -12258836.359 7  22013984.945
  20601204.890   -43778285.891 7  20601200.582   -18043854.604 9  20601203.208
  26047152.709   -10965399.884 1  26047150.824   -12520887.117 2  26047151.079
  21570319.344   -68045741.686 7  21570315.284    -1492638.994 8  21570318.204
  23245605.662   -46659175.919 5  23245607.461   -23992783.239 7  23245604.871
  20419272.791   -40540092.667 7  20419272.317   -22983184.361 9  20419271.963
  23692644.687   -56892892.665 6  23692645.053   -13773643.712 7  23692644.034
 15  7 30  1 44 30.0000000  0 11G 4G 8G 9G11G16G19G21G23G26G27G31
  24038785.143   -29908024.130 4  24038787.140    -3967575.990 6  24038784.139
  20494976.241   -35947932.410 7  20494976.481   -18478861.120 9  20494975.597
  22888222.881   -35954279.256 5  22888223.457     -290336.295 7  22888221.991
  24594255.512   -52154835.995 4  24594255.893   -18470235.414 5  24594255.323
  22018242.385   -40526100.846 6  22018239.420   -12241407.886 7  22018240.919
  20590871.442   -43832588.756 7  20590867.218   -18086168.513 9  20590869.823
  26055991.496   -10918942.956 1  26055993.181   -12484686.934 2  26055990.822
  21573581.457   -68028599.722 7  21573577.428    -1479281.666 8  21573580.780
  23252386.290   -46623542.411 5  23252388.493   -23965016.949 7  23252385.663
  20423090.027   -40520032.850 7  20423089.574   -22967553.339 9  20423089.295
  23704899.433   -56828493.262 5  23704899.394   -13723462.481 7  23704898.066
 15  7 30  1 45  0.0000000  0 11G 4G 8G 9G11G16G19G21G23G26G27G31
  24017237.725   -30021258.190 4  24017239.752    -4055810.259 6  24017236.565
  20492852.601   -35959093.796 7  20492852.643   -18487558.305 9  20492851.723
  22880879.860   -35992867.751 6  22880880.790     -320405.290 7  22880879.944
  24571402.192   -52274933.598 4  24571403.143   -18563817.888 5  24571401.431
  22022501.746   -40503717.359 6  22022499.009   -12223966.240 7  22022500.433
  20580643.285   -43886338.186 7  20580639.064   -18128051.175 9  20580641.726
  26064890.467   -10872183.227 2  26064890.614   -12448250.819 1  26064888.980
  21576940.941   -68010943.688 7  21576937.139    -1465523.765 8  21576940.374
  23259169.082   -46587900.372 5  23259171.702   -23937244.013 7  23259168.519
  20426994.137   -40499517.749 7  20426993.562   -22951567.554 9  20426993.211
  23717205.047   -56763827.953 6  23717205.385   -13673074.048 7  23717203.871
 15  7 30  1 45 30.0000000  0 11G 4G 8G 9G11G16G19G21G23G26G27G31
  23995679.266   -30134546.863 4  23995682.054    -4144087.085 6  23995677.965
  20490819.133   -35969779.066 8  20490819.334   -18495884.491 9  20490818.342
  22873637.088   -36030930.323 6  22873637.133     -350064.480 7  22873636.239
  24548543.509   -52395055.970 4  24548544.699   -18657419.656 5  24548542.664
  22026764.417   -40481316.904 6  22026761.231   -12206511.373 7  22026762.912
  20570520.463   -43939533.107 7  20570516.458   -18169501.752 9  20570518.820
  26073845.834   -10825121.573 1  26073846.272   -12411579.429 1  26073844.203
  21580398.489   -67992774.835 6  21580394.448    -1451366.276 8  21580397.659
  23265953.191   -46552249.207 5  23265955.940   -23909463.973 7  23265953.871
  20430984.276   -40478549.090 7  20430983.769   -22935228.350 9  20430983.457
  23729561.194   -56698897.106 5  23729560.579   -13622478.708 6  23729560.090
 15  7 30  1 46  0.0000000  0 11G 4G 8G 9G11G16G19G21G23G26G27G31
  23974111.114   -30247888.920 4  23974114.070    -4232405.514 6  23974110.365
  20488875.869   -35979990.705 8  20488876.109   -18503841.609 9  20488875.174
  22866493.849   -36068468.276 6  22866494.532     -379314.865 7  22866493.525
  24525680.350   -52515202.401 4  24525681.372   -18751040.169 5  24525678.968
  22031030.272   -40458901.441 7  22031026.624   -12189044.808 7  22031028.923
  20560502.994   -43992174.447 7  20560498.959   -18210520.966 9  20560501.495
  26082859.541   -10777760.986 1  26082857.562   -12374675.095 1  26082857.320
  21583953.224   -67974096.485 7  21583949.294    -1436811.769 8  21583952.358
  23272739.233   -46516589.726 5  23272740.633   -23881677.442 7  23272739.080
  20435059.996   -40457130.483 8  20435059.535   -22918538.539 9  20435059.271
  23741967.004   -56633703.341 5  23741967.709   -13571678.499 6  23741966.072
 15  7 30  1 46 30.0000000  0 11G 4G 8G 9G11G16G19G21G23G26G27G31
  23952533.339   -30361279.720 5  23952536.106    -4320761.922 6  23952532.809
  20487023.029   -35989727.953 8  20487023.110   -18511429.070 9  20487022.241
  22859450.582   -36105479.055 6  22859452.018     -408154.465 7  22859450.234
  24502813.803   -52635368.291 5  24502814.406   -18844675.840 5  24502812.820
  22035298.861   -40436468.653 6  22035295.647   -12171564.732 7  22035297.623
  20550591.801   -44044259.295 7  20550587.469   -18251106.554 9  20550589.994
  26091930.331   -10730100.352 1  26091928.221   -12337536.973 1  26091926.413
  21587604.723   -67954908.577 7  21587600.838    -1421860.197 8  21587603.692
  23279526.468   -46480919.458 5  23279527.886   -23853882.493 7  23279525.179
  20439221.616   -40435261.715 8  20439221.065   -22901497.952 9  20439220.765
  23754423.681   -56568245.318 5  23754423.756   -13520672.374 6  23754423.144
 15  7 30  1 47  0.0000000  0 10G 4G 8G 9G11G16G19G23G26G27G31
  23930948.483   -30474715.032 5  23930950.105    -4409153.000 6  23930946.879
  20485260.531   -35998990.249 7  20485260.546   -18518646.439 9  20485259.689
  22852508.755   -36141961.006 6  22852509.277     -436581.999 7  22852508.273
  24479942.996   -52755549.554 5  24479944.597   -18938323.512 6  24479942.942
  22039571.152   -40414017.401 6  22039567.531   -12154070.270 7  22039569.887
  20540786.543   -44095785.852 7  20540782.295   -18291257.107 9  20540784.910
  21591352.462   -67935211.713 7  21591348.942    -1406512.043 8  21591351.442
  23286316.968   -46445236.572 5  23286319.241   -23826077.733 6  23286315.973
  20443468.785   -40412943.477 7  20443468.230   -22884107.124 9  20443467.949
  23766930.003   -56502522.540 5  23766930.518   -13469459.934 6  23766929.070
 15  7 30  1 47 30.0000000  0 10G 4G 8G 9G11G16G19G23G26G27G31
  23909353.317   -30588194.792 5  23909356.021    -4497578.722 6  23909352.601
  20483587.321   -36007781.941 8  20483587.632   -18525497.103 9  20483586.673
  22845666.688   -36177916.823 5  22845667.605     -464599.557 7  22845665.684
  24457070.810   -52875747.010 5  24457071.191   -19031983.805 6  24457069.635
  22043846.478   -40391551.011 6  22043843.315   -12136564.009 7  22043845.036
  20531087.112   -44146756.812 7  20531082.831   -18330974.734 9  20531085.319
  21595196.940   -67915010.692 7  21595193.238    -1390771.044 8  21595196.005
  23293108.928   -46409543.519 5  23293112.244   -23798265.035 6  23293107.285
  20447800.148   -40390180.767 8  20447799.746   -22866369.954 9  20447799.317
  23779486.000   -56436538.876 5  23779486.831   -13418044.216 6  23779486.297
 15  7 30  1 48  0.0000000  0 10G 4G 8G 9G11G16G19G23G26G27G31
  23887750.533   -30701715.758 5  23887753.079    -4586036.556 6  23887750.402
  20482004.048   -36016103.209 8  20482004.105   -18531981.204 9  20482003.022
  22838925.036   -36213345.568 6  22838925.198     -492206.411 7  22838924.224
  24434195.363   -52995957.422 5  24434195.108   -19125654.166 6  24434194.754
  22048124.762   -40369068.721 7  22048121.356   -12119045.366 7  22048123.203
  20521493.529   -44197170.758 7  20521489.418   -18370258.319 9  20521491.943
  21599136.702   -67894306.697 7  21599132.388    -1374638.105 8  21599135.859
  23299903.275   -46373839.171 5  23299905.799   -23770443.559 6  23299902.741
  20452216.027   -40366974.971 7  20452215.596   -22848287.523 9  20452215.302
  23792092.285   -56370294.381 5  23792091.254   -13366425.242 6  23792091.152
 15  7 30  1 48 30.0000000  0 10G 4G 8G 9G11G16G19G23G26G27G31
  23866140.816   -30815276.631 5  23866143.559    -4674525.480 6  23866140.132
  20480509.579   -36023956.792 7  20480509.831   -18538100.876 9  20480508.827
  22832283.260   -36248248.698 6  22832283.272     -519403.699 7  22832282.403
  24411316.983   -53116180.244 5  24411317.532   -19219334.221 6  24411316.108
  22052405.070   -40346572.504 6  22052402.186   -12101515.877 7  22052404.278
  20512005.808   -44247028.902 7  20512001.893   -18409108.807 9  20512004.171
  21603171.561   -67873103.445 7  21603168.365    -1358116.144 8  21603170.925
  23306699.842   -46338124.715 5  23306701.677   -23742614.188 6  23306699.087
  20456715.547   -40343329.816 7  20456714.965   -22829862.740 9  20456714.779
  23804747.667   -56303791.447 5  23804746.972   -13314604.918 6  23804746.840
 15  7 30  1 49  0.0000000  0 10G 4G 8G 9G11G16G19G23G26G27G31
  23844524.295   -30928872.592 5  23844526.394    -4763041.756 6  23844523.459
  20479103.999   -36031341.975 8  20479104.278   -18543855.558 9  20479103.322
  22825741.720   -36282623.739 6  22825742.373     -546189.477 7  22825740.725
  24388438.259   -53236410.835 5  24388439.050   -19313020.311 6  24388437.266
  22056689.305   -40324060.076 7  22056686.430   -12083973.747 7  22056688.022
  20502624.438   -44296328.588 7  20502620.265   -18447524.134 9  20502622.712
  21607301.121   -67851400.769 7  21607297.853    -1341205.015 8  21607300.239
  23313499.444   -46302397.418 5  23313500.874   -23714774.820 6  23313498.335
  20461299.067   -40319245.169 8  20461298.387   -22811095.493 9  20461298.114
  23817452.023   -56237029.077 6  23817451.525   -13262582.416 6  23817452.227
 15  7 30  1 49 30.0000000  0 10G 4G 8G 9G11G16G19G23G26G27G31
  23822901.737   -31042498.095 5  23822904.351    -4851581.063 6  23822901.962
  20477788.189   -36038257.206 8  20477788.372   -18549244.045 9  20477787.263
  22819301.575   -36316468.082 6  22819301.881     -572561.728 7  22819300.196
  24365558.605   -53356643.979 5  24365558.353   -19406708.395 5  24365556.899
  22060976.948   -40301529.492 6  22060974.325   -12066417.472 7  22060975.497
  20493349.891   -44345067.148 7  20493345.703   -18485502.219 9  20493348.083
  21611526.333   -67829197.937 7  21611523.149    -1323904.162 8  21611524.996
  23320300.425   -46266654.311 5  23320302.685   -23686923.134 6  23320299.373
  20465965.889   -40294720.613 8  20465965.241   -22791985.462 9  20465964.986
  23830206.711   -56170005.710 5  23830206.645   -13210356.553 6  23830206.375
 15  7 30  1 50  0.0000000  0 10G 4G 8G 9G11G16G19G23G26G27G31
  23801273.108   -31156155.325 5  23801275.648    -4940145.093 6  23801272.356
  20476560.461   -36044708.525 8  20476560.797   -18554271.043 9  20476559.694
  22812960.818   -36349786.300 6  22812960.938     -598524.008 7  22812960.227
  24342677.785   -53476881.912 4  24342678.486   -19500400.201 5  24342676.730
  22065266.832   -40278985.535 7  22065264.280   -12048850.764 7  22065265.851
  20484181.161   -44393248.739 7  20484176.898   -18523046.304 9  20484179.525
  21615845.356   -67806501.902 7  21615841.737    -1306218.998 8  21615844.324
  23327104.667   -46230899.644 5  23327106.562   -23659062.445 6  23327103.010
  20470715.108   -40269763.035 8  20470714.505   -22772538.009 9  20470714.301
  23843009.621   -56102726.950 5  23843008.781   -13157931.681 6  23843009.177
 15  7 30  1 50 30.0000000  0 10G 4G 8G 9G11G16G19G23G26G27G31
  23779640.307   -31269837.637 5  23779642.456    -5028728.641 6  23779639.920
  20475421.762   -36050693.210 8  20475421.921   -18558934.432 9  20475420.944
  22806721.810   -36382574.422 6  22806722.293     -624073.229 7  22806721.192
  24319797.385   -53597118.428 4  24319799.258   -19594090.903 5  24319796.485
  22069560.483   -40256424.422 6  22069557.266   -12031270.692 7  22069558.687
  20475119.146   -44440869.146 7  20475115.045   -18560153.103 9  20475117.686
  21620258.537   -67783310.839 7  21620255.105    -1288148.090 8  21620257.836
  23333911.383   -46195129.124 5  23333912.990   -23631189.396 6  23333910.841
  20475547.058   -40244370.687 7  20475546.470   -22752751.772 9  20475546.242
  23855861.211   -56035189.908 5  23855861.004   -13105305.550 6  23855859.766
 15  7 30  1 51  0.0000000  0 10G 4G 8G 9G11G16G19G23G26G27G31
  23758002.681   -31383544.217 5  23758005.022    -5117331.116 6  23758001.428
  20474370.879   -36056214.971 8  20474371.086   -18563237.104 9  20474370.135
  22800583.332   -36414834.508 6  22800583.410     -649211.000 7  22800581.851
  24296917.458   -53717353.416 4  24296918.408   -19687780.413 5  24296915.617
  22073856.794   -40233848.438 6  22073853.562   -12013679.030 7  22073854.917
  20466163.857   -44487930.194 7  20466159.585   -18596824.037 9  20466162.304
  21624764.961   -67759629.178 7  21624761.849    -1269694.902 8  21624763.720
  23340720.491   -46159344.337 5  23340724.233   -23603305.235 6  23340719.745
  20480460.902   -40218547.886 8  20480460.482   -22732630.122 9  20480460.320
  23868761.724   -55967397.730 5  23868761.589   -13052480.620 6  23868761.391
 15  7 30  1 51 30.0000000  0 10G 4G 8G 9G11G16G19G23G26G27G31
  23736361.773   -31497265.678 5  23736362.942    -5205945.161 6  23736361.578
  20473409.376   -36061268.140 8  20473409.564   -18567174.635 9  20473408.629
  22794546.006   -36446559.910 6  22794545.571     -673932.129 7  22794545.215
  24274039.156   -53837577.977 4  24274041.363   -19781461.787 5  24274037.211
  22078156.525   -40211250.922 7  22078153.770   -11996070.592 7  22078154.828
  20457316.337   -44534425.030 7  20457312.023   -18633053.764 9  20457314.550
  21629366.100   -67735452.178 7  21629362.740    -1250855.737 8  21629365.060
  23347534.807   -46123538.188 5  23347537.253   -23575404.421 6  23347534.237
  20485457.678   -40192290.150 7  20485457.111   -22712169.559 9  20485456.847
  23881712.581   -55899344.795 5  23881712.399   -12999452.496 6  23881711.112
 15  7 30  1 52  0.0000000  0 10G 4G 8G 9G11G16G19G23G26G27G31
  23714718.778   -31611003.221 5  23714720.028    -5294571.738 6  23714717.693
  20472535.924   -36065858.076 8  20472536.062   -18570751.210 9  20472535.100
  22788609.696   -36477754.511 6  22788610.190     -698239.645 7  22788608.820
  24251163.301   -53957793.191 5  24251165.463   -19875135.888 5  24251161.535
  22082459.914   -40188635.811 6  22082457.114   -11978448.452 7  22082458.889
  20448575.441   -44580357.170 7  20448571.328   -18668845.026 9  20448573.957
  21634059.804   -67710785.982 7  21634056.371    -1231635.384 8  21634058.587
  23354352.031   -46087714.144 5  23354354.660   -23547489.669 6  23354351.623
  20490535.970   -40165603.621 8  20490535.445   -22691374.872 9  20490535.128
  23894710.986   -55831035.900 5  23894710.866   -12946224.946 6  23894710.245
 15  7 30  1 52 30.0000000  0 10G 4G 8G 9G11G16G19G23G26G27G31
  23693071.937   -31724757.049 5  23693073.762    -5383210.990 6  23693071.097
  20471749.731   -36069989.287 7  20471749.877   -18573970.333 9  20471749.065
  22782773.912   -36508421.590 6  22782774.493     -722136.094 7  22782773.279
  24228287.958   -54078000.039 4  24228290.614   -19968803.454 6  24228287.122
  22086766.268   -40166006.504 6  22086763.753   -11960815.250 7  22086764.466
  20439941.142   -44625729.796 7  20439937.272   -18704200.299 9  20439939.724
  21638845.895   -67685635.810 7  21638842.156    -1212037.903 8  21638844.806
  23361172.123   -46051874.927 5  23361175.004   -23519563.087 6  23361170.408
  20495694.799   -40138493.750 8  20495694.247   -22670250.306 9  20495693.989
  23907757.144   -55762475.519 5  23907757.405   -12892801.419 6  23907756.703
 15  7 30  1 53  0.0000000  0 11G 4G 7G 8G 9G11G16G19G23G26G27G31
  23671421.792   -31838526.464 5  23671425.044    -5471862.402 6  23671421.300
  24562950.686     6400893.814 4  24562948.558    10761688.588 4  24562949.004
  20471050.318   -36073665.063 8  20471050.342   -18576834.579 9  20471049.595
  22777038.169   -36538563.052 6  22777038.663     -745622.974 7  22777037.254
  24205415.515   -54198198.008 5  24205417.865   -20062464.104 6  24205414.294
  22091074.663   -40143365.228 6  22091072.226   -11943172.715 7  22091073.851
  20431413.594   -44670544.568 7  20431409.427   -18739120.879 9  20431411.801
  21643723.341   -67660006.125 7  21643719.498    -1192066.777 8  21643722.367
  23367994.644   -46016021.967 5  23367996.814   -23491625.807 6  23367993.205
  20500933.480   -40110964.559 7  20500933.015   -22648798.995 9  20500932.722
  23920851.248   -55693666.325 5  23920852.882   -12839184.021 6  23920850.670
 15  7 30  1 53 30.0000000  0 11G 4G 7G 8G 9G11G16G19G23G26G27G31
  23649770.681   -31952304.610 5  23649773.688    -5560520.603 6  23649769.587
  24541476.172     6288046.182 5  24541476.229    10673755.417 5  24541474.993
  20470437.938   -36076882.896 7  20470438.190   -18579341.984 9  20470437.146
  22771403.380   -36568175.045 6  22771404.223     -768697.296 7  22771402.904
  24182545.466   -54318380.707 5  24182547.855   -20156112.831 6  24182544.333
  22095386.527   -40120708.081 6  22095383.985   -11925517.813 7  22095385.568
  20422992.657   -44714797.370 7  20422988.256   -18773603.563 9  20422991.021
  21648691.936   -67633895.013 6  21648688.606    -1171720.515 8  21648691.112
  23374821.149   -45980150.795 5  23374823.344   -23463674.327 6  23374820.391
  20506252.245   -40083014.420 8  20506251.543   -22627019.674 9  20506251.370
  23933993.088   -55624605.573 5  23933993.238   -12785370.604 6  23933993.187
 15  7 30  1 54  0.0000000  0 11G 4G 7G 8G 9G11G16G19G23G26G27G31
  23628118.090   -32066090.353 5  23628121.013    -5649184.724 6  23628116.582
  24519993.533     6175153.877 4  24519993.934    10585787.468 5  24519992.975
  20469912.111   -36079645.771 8  20469912.458   -18581494.877 9  20469911.355
  22765869.182   -36597259.425 6  22765869.422     -791360.476 7  22765868.429
  24159677.756   -54438547.296 4  24159680.850   -20249749.021 6  24159677.411
  22099700.619   -40098037.006 6  22099697.708   -11907852.059 7  22099699.485
  20414678.273   -44758489.957 7  20414673.866   -18807649.721 9  20414676.735
  21653751.258   -67607306.554 7  21653747.550    -1151002.293 8  21653750.374
  23381650.172   -45944262.756 5  23381652.951   -23435709.699 6  23381649.807
  20511650.317   -40054647.350 8  20511649.663   -22604915.472 9  20511649.576
  23947183.021   -55555296.038 5  23947183.732   -12731363.324 6  23947182.401
 15  7 30  1 54 30.0000000  0 11G 4G 7G 8G 9G11G16G19G23G26G27G31
  23606464.408   -32179879.581 5  23606468.371    -5737851.562 6  23606463.649
  24498502.068     6062220.203 4  24498501.202    10497787.239 6  24498502.377
  20469472.972   -36081953.791 8  20469473.233   -18583293.340 9  20469472.183
  22760434.856   -36625814.875 6  22760435.428     -813611.508 7  22760434.064
  24136815.418   -54558694.055 5  24136816.012   -20343369.749 6  24136814.207
  22104017.531   -40075350.518 6  22104014.947   -11890174.287 7  22104015.810
  20406470.516   -44801620.513 7  20406466.295   -18841257.930 9  20406468.990
  21658901.866   -67580241.415 7  21658898.434    -1129912.632 8  21658901.135
  23388483.312   -45908355.953 5  23388486.298   -23407730.452 6  23388482.005
  20517127.663   -40025864.120 7  20517126.998   -22582486.988 9  20517126.761
  23960419.620   -55485737.565 5  23960420.372   -12677162.081 6  23960418.780
 15  7 30  1 55  0.0000000  0 11G 4G 7G 8G 9G11G16G19G23G26G27G31
  23584810.677   -32293669.517 5  23584814.443    -5826518.961 6  23584810.596
  24477004.131     5949246.951 4  24477004.326    10409756.197 6  24477003.651
  20469120.113   -36083808.322 8  20469120.368   -18584738.440 9  20469119.310
  22755101.317   -36653841.536 6  22755102.118     -835450.496 7  22755100.978
  24113956.369   -54678818.438 5  24113957.961   -20436973.038 6  24113955.380
  22108337.714   -40052648.734 6  22108334.384   -11872484.596 7  22108336.230
  20398369.920   -44844189.089 7  20398365.684   -18874428.238 9  20398368.457
  21664142.832   -67552701.959 7  21664139.181    -1108453.382 8  21664141.804
  23395319.599   -45872429.660 5  23395322.558   -23379736.006 6  23395318.190
  20522683.624   -39996666.994 7  20522683.108   -22559735.986 9  20522682.667
  23973703.232   -55415931.189 5  23973704.428   -12622767.662 6  23973701.763
 15  7 30  1 55 30.0000000  0 11G 4G 7G 8G 9G11G16G19G23G26G27G31
  23563157.777   -32407457.506 5  23563160.910    -5915184.829 6  23563156.452
  24455498.836     5836235.690 4  24455498.255    10321695.548 6  24455498.672
  20468853.262   -36085211.315 8  20468853.274   -18585831.690 9  20468852.284
  22749868.665   -36681340.108 6  22749869.939     -856877.981 7  22749868.449
  24091101.484   -54798918.680 5  24091103.109   -20530557.530 6  24091100.423
  22112660.527   -40029931.869 6  22112657.769   -11854783.155 7  22112659.600
  20390376.419   -44886196.299 7  20390371.985   -18907161.116 9  20390374.599
  21669472.740   -67524691.021 7  21669469.559    -1086626.731 8  21669472.156
  23402159.817   -45836484.141 5  23402162.890   -23351726.580 6  23402159.244
  20528317.755   -39967058.815 7  20528317.315   -22536664.681 9  20528316.997
  23987033.749   -55345878.392 5  23987035.308   -12568181.223 6  23987033.539
 15  7 30  1 56  0.0000000  0 11G 4G 7G 8G 9G11G16G19G23G26G27G31
  23541506.163   -32521238.914 5  23541506.874    -6003845.589 6  23541504.706
  24433986.560     5723190.167 4  24433987.531    10233608.199 6  24433986.056
  20468672.403   -36086162.044 8  20468672.415   -18586572.525 9  20468671.468
  22744737.180   -36708308.653 6  22744737.798     -877892.471 7  22744736.209
  24068252.667   -54918990.197 5  24068254.565   -20624119.657 6  24068251.126
  22116986.412   -40007198.579 6  22116983.885   -11837068.916 7  22116985.252
  20382489.680   -44927639.735 7  20382485.537   -18939454.691 9  20382488.139
  21674892.889   -67496208.764 6  21674889.429    -1064432.827 8  21674892.055
  23409004.319   -45800516.695 4  23409007.703   -23323700.062 6  23409003.620
  20534030.172   -39937039.702 7  20534029.821   -22513273.167 9  20534029.644
  24000412.200   -55275578.306 5  24000412.533   -12513402.090 6  24000411.286
 15  7 30  1 56 30.0000000  0 11G 4G 7G 8G 9G11G16G19G23G26G27G31
  23519854.972   -32635012.947 5  23519857.895    -6092500.577 6  23519854.621
  24412468.938     5610110.204 4  24412469.154    10145493.990 6  24412468.096
  20468576.688   -36086664.391 7  20468576.727   -18586963.969 9  20468575.906
  22739705.275   -36734749.731 6  22739706.366     -898495.942 7  22739704.186
  24045409.193   -55039032.787 5  24045410.287   -20717659.232 6  24045408.155
  22121315.481   -39984450.835 6  22121312.996   -11819343.415 7  22121314.180
  20374710.228   -44968521.702 7  20374706.096   -18971310.757 9  20374708.573
  21680401.842   -67467259.798 7  21680398.149    -1041875.258 8  21680400.685
  23415852.873   -45764529.132 5  23415855.191   -23295657.882 6  23415851.821
  20539820.006   -39906614.271 7  20539819.632   -22489565.044 9  20539819.299
  24013836.346   -55205034.334 5  24013836.463   -12458432.909 6  24013835.213
 15  7 30  1 57  0.0000000  0 11G 4G 7G 8G 9G11G16G19G23G26G27G31
  23498206.593   -32748778.477 5  23498208.845    -6181148.940 6  23498205.154
  24390943.420     5496996.009 4  24390943.885    10057353.114 6  24390942.194
  20468565.893   -36086721.509 8  20468565.911   -18587008.477 9  20468565.110
  22734773.914   -36760665.253 6  22734774.789     -918689.875 7  22734772.909
  24022571.141   -55159045.829 5  24022572.751   -20811175.784 6  24022569.594
  22125646.652   -39961690.155 6  22125643.648   -11801607.836 7  22125645.009
  20367037.429   -45008844.124 7  20367032.909   -19002730.815 9  20367035.574
  21685998.733   -67437848.268 6  21685995.256    -1018957.248 8  21685997.729
  23422704.060   -45728522.616 5  23422706.531   -23267600.922 6  23422703.650
  20545686.237   -39875786.584 7  20545685.875   -22465543.473 9  20545685.443
  24027306.087   -55134249.133 5  24027306.992   -12403275.761 6  24027305.344
 15  7 30  1 57 30.0000000  0 11G 4G 7G 8G 9G11G16G19G23G26G27G31
  23476559.728   -32862531.824 5  23476562.420    -6269787.803 6  23476559.101
  24369412.878     5383850.530 4  24369412.146     9969187.829 6  24369412.356
  20468639.678   -36086333.772 8  20468639.606   -18586706.347 9  20468638.844
  22729942.317   -36786054.514 6  22729942.731     -938473.744 7  22729942.000
  23999739.853   -55279025.783 5  23999741.289   -20904666.549 6  23999739.625
  22129980.235   -39938916.011 6  22129977.969   -11783861.759 7  22129978.889
  20359470.860   -45048606.020 7  20359466.369   -19033714.100 9  20359469.310
  21691683.167   -67407975.565 7  21691680.640     -995679.884 8  21691682.544
  23429560.404   -45692495.593 5  23429562.802   -23239527.970 6  23429559.930
  20551628.861   -39844557.823 7  20551628.478   -22441209.379 9  20551628.181
  24040822.440   -55063223.023 5  24040822.905   -12347930.896 6  24040821.735
 15  7 30  1 58  0.0000000  0 11G 4G 7G 8G 9G11G16G19G23G26G27G31
  23454915.309   -32976273.026 5  23454917.800    -6358417.195 6  23454914.691
  24347875.772     5270672.728 4  24347875.050     9880997.378 6  24347874.984
  20468797.264   -36085505.739 8  20468797.279   -18586061.126 9  20468796.484
  22725210.603   -36810920.739 6  22725211.095     -957850.060 7  22725210.300
  23976914.503   -55398973.213 5  23976916.989   -20998131.971 6  23976913.184
  22134316.125   -39916131.325 6  22134313.373   -11766107.477 7  22134314.716
  20352010.599   -45087810.238 7  20352006.075   -19064262.833 9  20352008.968
  21697454.364   -67377646.992 7  21697451.207     -972047.307 8  21697453.692
  23436418.927   -45656450.528 5  23436421.457   -23211440.982 6  23436419.131
  20557646.985   -39812933.350 7  20557646.416   -22416566.940 9  20557646.131
  24054383.453   -54991960.211 5  24054383.216   -12292401.595 6  24054382.215
 15  7 30  1 58 30.0000000  0 11G 4G 7G 8G 9G11G16G19G23G26G27G31
  23433274.721   -33089996.347 5  23433276.574    -6447032.653 6  23433274.431
  24326333.634     5157467.180 4  24326332.234     9792785.321 6  24326333.124
  20469038.614   -36084236.488 7  20469038.689   -18585072.096 9  20469037.898
  22720578.930   -36835261.721 6  22720579.454     -976817.079 7  22720577.718
  23954096.526   -55518882.954 5  23954097.545   -21091568.009 6  23954095.249
  22138654.368   -39893333.443 6  22138651.918   -11748342.903 7  22138653.036
  20344656.810   -45126454.280 7  20344652.427   -19094375.063 9  20344655.146
  21703312.851   -67346862.389 6  21703309.410     -948059.372 8  21703311.937
  23443282.945   -45620384.367 5  23443285.259   -23183337.555 6  23443281.830
  20563740.195   -39780912.950 7  20563739.820   -22391615.986 9  20563739.400
  24067989.857   -54920459.335 5  24067990.577   -12236686.769 6  24067988.760
 15  7 30  1 59  0.0000000  0 12G 1G 4G 7G 8G 9G11G16G19G23G26G27G31
  25252004.056    10021900.98812  25252009.977    17777548.51013  25252003.634
  23411636.424   -33203704.563 5  23411638.628    -6535636.365 6  23411636.271
  24304785.430     5044230.149 4  24304784.573     9704548.710 6  24304784.201
  20469362.915   -36082532.852 8  20469363.002   -18583744.578 9  20469362.135
  22716045.450   -36859083.231 6  22716046.116     -995379.320 7  22716045.651
  23931285.597   -55638757.768 5  23931286.511   -21184976.836 6  23931284.461
  22142993.995   -39870527.522 6  22142991.276   -11730572.072 7  22142993.207
  20337408.413   -45164543.896 7  20337404.171   -19124055.274 9  20337406.821
  21709256.488   -67315629.705 6  21709252.990     -923722.289 8  21709255.340
  23450149.146   -45584301.934 5  23450151.715   -23155221.435 6  23450147.973
  20569907.435   -39748504.357 7  20569906.920   -22366362.538 9  20569906.572
  24081639.195   -54848727.028 5  24081641.306   -12180791.620 6  24081638.904
 15  7 30  1 59 30.0000000  0 12G 1G 4G 7G 8G 9G11G16G19G23G26G27G31
  25230429.636     9908534.727 3  25230437.104    17689211.250 3  25230428.893
  23390002.090   -33317392.540 5  23390004.765    -6624224.297 6  23390001.281
  24283231.558     4930965.949 4  24283231.731     9616290.962 6  24283230.763
  20469770.087   -36080394.452 7  20469769.847   -18582078.286 9  20469769.056
  22711611.939   -36882383.396 6  22711612.689    -1013535.327 7  22711610.890
  23908480.999   -55758593.261 5  23908482.258   -21278355.013 6  23908480.546
  22147335.787   -39847711.615 6  22147332.993   -11712793.457 7  22147334.573
  20330265.918   -45202077.147 7  20330261.802   -19153301.958 9  20330264.452
  21715284.703   -67283949.148 7  21715281.459     -899036.215 8  21715283.861
  23457018.917   -45548200.521 5  23457021.612   -23127090.531 6  23457018.686
  20576148.329   -39715707.696 7  20576147.891   -22340806.703 9  20576147.516
  24095334.575   -54776761.969 5  24095335.109   -12124715.115 6  24095333.043
 15  7 30  2  0  0.0000000  0 12G 1G 4G 7G 8G 9G11G16G19G23G26G27G31
  25208825.512     9795002.579 3  25208831.682    17600744.717 3  25208825.575
  23368373.588   -33431052.328 5  23368375.671    -6712790.263 6  23368372.904
  24261674.201     4817681.668 5  24261673.518     9528017.544 6  24261673.572
  20470260.416   -36077817.450 8  20470260.215   -18580070.227 9  20470259.504
  22707277.801   -36905157.611 6  22707279.141    -1031281.502 7  22707276.832
  23885686.303   -55878381.725 5  23885686.564   -21371696.541 6  23885686.061
  22151680.383   -39824880.736 6  22151677.199   -11695003.182 7  22151678.911
  20323230.640   -45239048.898 7  20323226.152   -19182111.112 9  20323229.033
  21721399.333   -67251818.171 6  21721395.984     -873999.163 8  21721398.095
  23463893.296   -45512074.602 4  23463896.845   -23098940.524 6  23463892.747
  20582463.805   -39682520.275 7  20582463.271   -22314946.381 9  20582462.935
  24109073.749   -54704560.643 5  24109073.644   -12068454.492 6  24109074.195
 15  7 30  2  0 30.0000000  0 12G 1G 4G 7G 8G 9G11G16G19G23G26G27G31
  25187190.360     9681305.083 2  25187196.266    17512149.324 4  25187189.455
  23346750.472   -33544682.601 6  23346752.349    -6801333.253 6  23346750.319
  24240113.239     4704377.525 5  24240111.482     9439728.671 6  24240112.831
  20470833.550   -36074805.340 8  20470833.406   -18577723.119 9  20470832.698
  22703043.733   -36927407.980 6  22703045.361    -1048619.479 7  22703042.893
  23862900.434   -55998122.372 5  23862900.713   -21465000.825 6  23862899.759
  22156027.811   -39802036.466 6  22156024.268   -11677202.467 7  22156026.231
  20316301.768   -45275461.310 7  20316297.310   -19210484.417 9  20316300.092
  21727598.588   -67219240.512 6  21727594.883     -848614.052 8  21727597.854
  23470772.055   -45475925.309 5  23470774.573   -23070772.318 6  23470771.770
  20588852.769   -39648946.191 7  20588852.178   -22288784.764 9  20588851.950
  24122857.741   -54632125.761 5  24122858.440   -12012011.893 6  24122857.522
 15  7 30  2  1  0.0000000  0 12G 1G 4G 7G 8G 9G11G16G19G23G26G27G31
  25165523.999     9567446.034 3  25165529.641    17423428.038 4  25165523.148
  23325133.943   -33658279.155 6  23325136.287    -6889849.949 6  23325132.744
  24218549.077     4591056.951 5  24218548.205     9351426.959 6  24218548.448
  20471489.505   -36071358.043 8  20471489.358   -18575036.905 9  20471488.689
  22698909.229   -36949133.453 6  22698910.722    -1065548.454 7  22698907.871
  23840124.496   -56117811.392 5  23840125.096   -21558264.868 6  23840123.837
  22160377.527   -39779177.332 6  22160374.649   -11659390.174 7  22160376.217
  20309479.178   -45311312.780 7  20309474.858   -19238420.622 9  20309477.628
  21733882.724   -67186217.755 7  21733879.444     -822882.108 8  21733881.855
  23477656.645   -45439750.514 5  23477658.884   -23042584.233 6  23477655.535
  20595315.083   -39614986.316 8  20595314.516   -22262322.525 9  20595314.340
  24136686.169   -54559457.238 5  24136687.092   -11955387.230 6  24136685.941
 15  7 30  2  1 30.0000000  0 12G 1G 4G 7G 8G 9G11G16G19G23G26G27G31
  25143826.406     9453424.555 2  25143831.368    17334580.197 4  25143825.366
  23303523.352   -33771841.846 6  23303525.547    -6978340.248 6  23303521.749
  24196981.948     4477719.046 5  24196980.920     9263111.778 6  24196981.585
  20472227.438   -36067480.072 8  20472227.438   -18572015.103 9  20472226.715
  22694874.592   -36970337.373 6  22694875.887    -1082071.016 7  22694874.167
  23817358.146   -56237449.138 5  23817357.651   -21651488.950 6  23817356.434
  22164730.052   -39756305.988 6  22164726.943   -11641568.364 7  22164728.331
  20302763.123   -45346606.537 7  20302758.719   -19265922.245 9  20302761.513
  21740250.595   -67152755.365 7  21740247.105     -796807.596 8  21740249.965
  23484544.781   -45403552.551 5  23484547.488   -23014378.075 6  23484543.774
  20601850.028   -39580645.850 7  20601849.306   -22235563.721 9  20601849.078
  24150558.079   -54486559.084 5  24150559.320   -11898583.640 6  24150557.845
 15  7 30  2  2  0.0000000  0 12G 1G 4G 7G 8G 9G11G16G19G23G26G27G31
  25122099.095     9339248.489 2  25122104.143    17245611.879 4  25122097.509
  23281920.976   -33885362.321 6  23281922.541    -7066797.668 6  23281919.744
  24175411.968     4364371.672 5  24175411.302     9174789.215 6  24175410.648
  20473047.973   -36063167.896 7  20473047.973   -18568654.958 9  20473047.208
  22690939.807   -36991014.892 6  22690940.818    -1098183.397 7  22690939.016
  23794603.311   -56357027.922 5  23794602.567   -21744667.103 6  23794602.447
  22169085.826   -39733417.513 6  22169082.684   -11623733.206 7  22169084.186
  20296154.018   -45381337.563 8  20296149.821   -19292985.375 9  20296152.492
  21746702.440   -67118850.029 7  21746699.847     -770387.936 8  21746701.439
  23491438.311   -45367325.643 4  23491440.805   -22986149.363 6  23491437.267
  20608457.652   -39545921.857 7  20608457.064   -22208506.062 9  20608456.764
  24164474.570   -54413427.334 5  24164475.581   -11841598.050 6  24164474.010
 15  7 30  2  2 30.0000000  0 12G 1G 4G 7G 8G 9G11G16G19G23G26G27G31
  25100341.684     9224918.991 2  25100347.686    17156524.003 5  25100342.026
  23260326.446   -33998838.780 6  23260329.264    -7155220.767 6  23260325.742
  24153841.235     4251015.387 4  24153840.098     9086459.688 6  24153840.749
  20473950.834   -36058424.063 8  20473950.648   -18564958.461 9  20473950.078
  22687104.889   -37011167.587 6  22687106.523    -1113886.825 7  22687104.322
  23771859.235   -56476545.990 5  23771859.772   -21837797.942 6  23771858.153
  22173444.212   -39710512.596 6  22173441.340   -11605885.239 7  22173442.599
  20289652.056   -45415507.029 7  20289647.571   -19319610.930 9  20289650.221
  21753238.392   -67084505.453 7  21753235.227     -743626.014 8  21753237.802
  23498337.264   -45331070.178 4  23498339.650   -22957898.402 6  23498336.835
  20615137.723   -39510817.840 7  20615137.154   -22181152.283 9  20615136.788
  24178436.151   -54340064.229 5  24178435.944   -11784432.168 6  24178434.700
 15  7 30  2  3  0.0000000  0 12G 1G 4G 7G 8G 9G11G16G19G23G26G27G31
  25078556.872     9110433.335 2  25078563.516    17067314.462 5  25078556.297
  23238740.574   -34112272.903 5  23238743.727    -7243610.879 6  23238740.448
  24132268.328     4137647.566 5  24132266.691     8998121.167 6  24132268.364
  20474934.447   -36053254.972 8  20474934.402   -18560930.589 9  20474933.664
  22683369.064   -37030800.846 6  22683370.692    -1129185.502 7  22683368.243
  23749126.420   -56596006.166 5  23749125.796   -21930883.672 6  23749125.191
  22177805.173   -39687595.906 6  22177802.646   -11588028.102 7  22177803.845
  20283255.298   -45449120.310 7  20283251.157   -19345803.091 9  20283253.730
  21759855.867   -67049729.264 7  21759852.549     -716527.767 8  21759854.671
  23505242.018   -45294790.449 5  23505243.783   -22929628.543 6  23505241.388
  20621888.696   -39475340.989 7  20621888.192   -22153507.986 9  20621887.955
  24192438.800   -54266475.703 4  24192439.825   -11727090.630 6  24192437.835
 15  7 30  2  3 30.0000000  0 12G 1G 4G 7G 8G 9G11G16G19G23G26G27G31
  25056742.924     8995796.765 3  25056748.245    16977987.311 4  25056740.340
  23217163.683   -34225659.378 5  23217165.824    -7331963.861 6  23217162.763
  24110693.284     4024272.664 4  24110692.034     8909777.155 6  24110692.679
  20475999.040   -36047660.111 8  20475999.193   -18556570.951 9  20475998.275
  22679732.195   -37049912.510 6  22679732.882    -1144077.738 7  22679731.440
  23726405.716   -56715402.733 5  23726405.788   -22023919.839 6  23726405.845
  22182168.598   -39664664.886 6  22182165.948   -11570159.794 7  22182167.789
  20276965.361   -45482174.952 7  20276960.927   -19371559.950 9  20276963.622
  21766556.016   -67014521.289 7  21766552.754     -689093.066 8  21766554.835
  23512150.270   -45258483.166 5  23512152.788   -22901337.210 6  23512150.165
  20628710.701   -39439490.983 7  20628710.077   -22125572.915 9  20628709.867
  24206486.196   -54192660.516 5  24206487.671   -11669572.493 6  24206485.777
 15  7 30  2  4  0.0000000  0 12G 1G 4G 7G 8G 9G11G16G19G23G26G27G31
  25034898.004     8881010.929 2  25034904.563    16888543.834 4  25034898.603
  23195596.758   -34338995.691 6  23195598.445    -7420277.771 6  23195595.852
  24089118.172     3910892.555 5  24089115.359     8821429.032 6  24089116.733
  20477144.295   -36041641.081 7  20477144.541   -18551880.791 9  20477143.683
  22676194.251   -37068503.678 5  22676194.986    -1158564.409 7  22676193.337
  23703697.903   -56834733.859 5  23703697.786   -22116905.020 6  23703696.620
  22186534.857   -39641719.690 6  22186531.859   -11552280.438 7  22186533.759
  20270781.488   -45514671.856 7  20270777.054   -19396882.205 9  20270779.848
  21773337.399   -66978884.353 7  21773334.638     -661324.108 8  21773336.473
  23519065.034   -45222148.319 5  23519067.513   -22873024.408 6  23519063.637
  20635603.175   -39403270.757 7  20635602.600   -22097349.364 9  20635602.351
  24220575.935   -54118620.479 5  24220577.320   -11611879.116 6  24220574.964
 15  7 30  2  4 30.0000000  0 12G 1G 4G 7G 8G 9G11G16G19G23G26G27G31
  25013027.056     8766080.922 2  25013033.975    16798988.046 4  25013027.733
  23174039.929   -34452275.807 6  23174042.537    -7508547.870 6  23174040.187
  24067541.311     3797512.145 4  24067540.477     8733080.693 6  24067541.200
  20478370.752   -36035196.934 7  20478370.815   -18546859.375 9  20478369.942
  22672756.408   -37086572.013 6  22672756.852    -1172643.665 7  22672755.293
  23681003.485   -56953994.018 6  23681002.421   -22209834.900 6  23681002.847
  22190904.284   -39618757.309 6  22190901.831   -11534387.700 7  22190903.639
  20264703.906   -45546608.443 7  20264699.688   -19421767.849 9  20264702.389
  21780200.746   -66942818.381 7  21780198.320     -633220.846 8  21780199.547
  23525985.095   -45185782.354 5  23525987.371   -22844687.354 6  23525985.110
  20642566.347   -39366679.789 7  20642565.675   -22068836.922 9  20642565.480
  24234707.549   -54044353.941 5  24234709.759   -11554009.254 6  24234708.278
 15  7 30  2  5  0.0000000  0 12G 1G 4G 7G 8G 9G11G16G19G23G26G27G31
  24991130.107     8651007.919 2  24991137.982    16709320.817 4  24991129.942
  23152495.086   -34565498.250 6  23152496.150    -7596773.047 6  23152494.409
  24045966.360     3684132.137 5  24045964.714     8644732.668 6  24045966.096
  20479677.271   -36028330.545 8  20479677.334   -18541508.940 9  20479676.552
  22669417.215   -37104119.589 6  22669417.926    -1186317.149 7  22669415.590
  23658322.480   -57073182.249 6  23658322.282   -22302708.734 6  23658321.032
  22195277.326   -39595778.969 6  22195275.411   -11516482.524 7  22195276.013
  20258732.712   -45577986.666 7  20258728.548   -19446218.399 9  20258731.087
  21787144.392   -66906327.490 7  21787142.077     -604786.479 8  21787143.417
  23532911.201   -45149386.164 5  23532913.962   -22816326.742 6  23532910.775
  20649599.217   -39329721.855 8  20649598.587   -22040038.529 9  20649598.201
  24248884.312   -53969863.439 5  24248884.438   -11495964.882 6  24248882.879
 15  7 30  2  5 30.0000000  0 12G 1G 4G 7G 8G 9G11G16G19G23G26G27G31
  24969205.409     8535792.262 3  24969210.793    16619542.448 4  24969205.493
  23130960.529   -34678661.692 6  23130961.599    -7684952.257 6  23130959.870
  24024390.099     3570752.736 4  24024390.405     8556385.107 6  24024389.946
  20481063.380   -36021045.454 8  20481063.755   -18535832.238 9  20481062.678
  22666176.198   -37121148.927 6  22666177.439    -1199586.801 7  22666175.532
  23635655.613   -57192297.765 6  23635655.925   -22395525.910 6  23635654.669
  22199652.509   -39572786.833 6  22199650.021   -11498566.582 7  22199651.118
  20252867.432   -45608808.792 7  20252863.274   -19470235.628 9  20252866.011
  21794168.613   -66869416.147 6  21794165.066     -576024.478 8  21794167.702
  23539842.894   -45112960.866 5  23539845.592   -22787943.458 6  23539841.536
  20656700.911   -39292401.274 8  20656700.452   -22010957.553 9  20656700.221
  24263100.719   -53895152.301 5  24263102.928   -11437748.562 6  24263099.948
 15  7 30  2  6  0.0000000  0 12G 1G 4G 7G 8G 9G11G16G19G23G26G27G31
  24947254.761     8420437.866 2  24947260.475    16529655.959 4  24947254.521
  23109438.267   -34791761.724 6  23109439.178    -7773082.052 6  23109437.367
  24002816.710     3457378.086 4  24002816.320     8468041.268 6  24002815.726
  20482529.344   -36013341.834 7  20482529.740   -18529829.415 9  20482528.595
  22663034.694   -37137658.908 6  22663035.506    -1212451.766 7  22663033.485
  23613003.082   -57311336.474 6  23613002.686   -22488283.229 6  23613002.318
  22204030.699   -39549778.906 6  22204027.953   -11480638.352 7  22204029.332
  20247108.284   -45639073.605 7  20247104.027   -19493818.590 9  20247106.722
  21801272.588   -66832085.041 7  21801269.599     -546935.393 8  21801271.896
  23546780.256   -45076504.369 4  23546783.239   -22759535.865 6  23546779.183
  20663871.727   -39254718.771 7  20663871.230   -21981594.563 9  20663870.933
  24277360.011   -53820219.921 5  24277361.435   -11379359.859 6  24277359.760
 15  7 30  2  6 30.0000000  0 12G 1G 4G 7G 8G 9G11G16G19G23G26G27G31
  24925277.554     8304950.715 2  24925283.490    16439666.021 4  24925277.138
  23087928.940   -34904791.546 6  23087930.754    -7861157.120 6  23087930.080
  23981244.019     3344013.343 5  23981242.631     8379705.125 6  23981243.195
  20484075.299   -36005217.949 7  20484075.599   -18523499.116 9  20484074.570
  22659992.532   -37153646.791 6  22659993.392    -1224909.905 7  22659992.019
  23590366.257   -57430292.205 6  23590366.953   -22580975.907 6  23590365.601
  22208412.943   -39526751.422 6  22208409.345   -11462694.872 7  22208411.678
  20241455.709   -45668777.899 7  20241451.455   -19516964.785 9  20241454.237
  21808456.743   -66794333.252 6  21808453.990     -517518.502 8  21808455.417
  23553724.895   -45040012.303 5  23553727.416   -22731100.556 6  23553723.390
  20671111.589   -39216673.255 7  20671110.930   -21951948.709 9  20671110.819
  24291661.910   -53745064.322 5  24291663.595   -11320797.230 6  24291661.119
 15  7 30  2  7  0.0000000  0 12G 1G 4G 7G 8G 9G11G16G19G23G26G27G31
  24903275.786     8189328.322 2  24903282.273    16349570.686 4  24903275.105
  23066433.129   -35017753.197 6  23066434.616    -7949179.086 6  23066432.700
  23959672.666     3230655.981 4  23959670.564     8291374.711 6  23959672.225
  20485699.742   -35996680.416 8  20485700.132   -18516846.494 9  20485699.167
  22657048.312   -37169118.236 6  22657049.346    -1236965.623 7  22657047.415
  23567745.252   -57549167.201 5  23567744.818   -22673605.671 6  23567744.446
  22212797.878   -39503709.198 6  22212794.616   -11444739.908 7  22212796.067
  20235909.009   -45697927.099 7  20235904.539   -19539678.439 9  20235907.375
  21815719.131   -66756168.844 6  21815716.607     -487780.100 8  21815718.435
  23560674.827   -45003489.139 5  23560678.179   -22702641.021 6  23560673.646
  20678418.973   -39178272.047 7  20678418.443   -21922025.691 9  20678418.161
  24306004.707   -53669691.807 5  24306006.968   -11262065.548 6  24306003.523
 15  7 30  2  7 30.0000000  0 12G 1G 4G 7G 8G 9G11G16G19G23G26G27G31
  24881248.094     8073572.221 2  24881253.955    16259371.174 4  24881247.063
  23044950.589   -35130644.394 6  23044952.375    -8037146.142 7  23044950.154
  23938103.396     3117307.392 5  23938101.891     8203051.176 6  23938102.850
  20487402.923   -35987731.520 8  20487403.049   -18509873.326 9  20487402.045
  22654202.904   -37184074.572 6  22654203.368    -1248619.960 7  22654202.082
  23545139.573   -57667959.986 5  23545140.442   -22766171.385 6  23545138.755
  22217185.158   -39480652.524 6  22217182.115   -11426773.689 7  22217183.884
  20230467.521   -45726522.561 7  20230463.081   -19561960.611 9  20230465.884
  21823059.420   -66717594.989 7  21823056.252     -457722.644 8  21823058.653
  23567630.849   -44966934.898 5  23567633.895   -22674157.269 6  23567630.216
  20685793.613   -39139518.249 7  20685792.930   -21891827.930 9  20685792.645
  24320388.356   -53594104.283 4  24320390.878   -11203166.346 6  24320388.117
 15  7 30  2  8  0.0000000  0 12G 1G 4G 7G 8G 9G11G16G19G23G26G27G31
  24859195.130     7957686.165 2  24859202.517    16169070.390 4  24859194.015
  23023482.454   -35243460.548 6  23023484.510    -8125054.721 7  23023481.336
  23916535.856     3003971.243 5  23916534.561     8114737.344 6  23916535.937
  20489183.999   -35978371.942 7  20489184.185   -18502580.147 9  20489183.094
  22651454.113   -37198515.257 6  22651455.081    -1259872.484 7  22651453.546
  23522550.190   -57786666.185 5  23522551.566   -22858669.617 6  23522549.150
  22221575.927   -39457580.271 6  22221573.259   -11408795.325 7  22221574.230
  20225131.380   -45754563.404 7  20225127.030   -19583810.612 9  20225129.818
  21830478.004   -66678612.741 7  21830474.838     -427346.954 8  21830476.813
  23574592.593   -44930347.590 4  23574595.699   -22645647.753 6  23574591.937
  20693235.031   -39100412.902 7  20693234.582   -21861356.229 9  20693234.120
  24334812.850   -53518301.594 4  24334815.425   -11144099.495 6  24334812.919
 15  7 30  2  8 30.0000000  0 12G 1G 4G 7G 8G 9G11G16G19G23G26G27G31
  24837119.511     7841675.225 2  24837125.183    16078672.314 4  24837117.574
  23002029.467   -35356196.359 6  23002031.068    -8212900.704 7  23002028.415
  23894972.684     2890652.207 4  23894970.483     8026436.841 6  23894970.477
  20491043.423   -35968600.497 7  20491043.684   -18494966.030 9  20491042.763
  22648804.826   -37212438.454 6  22648805.611    -1270721.772 7  22648803.893
  23499978.513   -57905280.876 5  23499978.555   -22951096.554 6  23499977.971
  22225969.850   -39434489.269 6  22225967.356   -11390802.365 7  22225968.951
  20219901.378   -45782047.520 7  20219897.028   -19605226.800 9  20219899.849
  21837973.690   -66639222.449 7  21837970.926     -396653.313 8  21837972.842
  23581562.750   -44893723.992 4  23581565.286   -22617109.955 6  23581561.641
  20700743.522   -39060955.915 7  20700742.986   -21830610.529 9  20700742.746
  24349279.494   -53442282.802 4  24349280.984   -11084864.222 6  24349278.720
 15  7 30  2  9  0.0000000  0 12G 1G 4G 7G 8G 9G11G16G19G23G26G27G31
  24815018.679     7725541.457 2  24815025.940    15988178.546 4  24815018.127
  22980591.704   -35468848.836 6  22980594.313    -8300681.742 7  22980590.754
  23873411.574     2777352.413 5  23873410.222     7938151.317 6  23873411.568
  20492980.799   -35958419.562 7  20492980.957   -18487032.830 9  20492979.947
  22646253.496   -37225845.318 6  22646254.665    -1281168.728 7  22646253.121
  23477424.494   -58023801.771 6  23477425.133   -23043450.408 6  23477424.045
  22230367.284   -39411379.851 6  22230364.742   -11372795.047 7  22230366.073
  20214777.076   -45808975.739 7  20214772.735   -19626209.819 9  20214775.502
  21845546.349   -66599426.828 7  21845543.294     -365643.837 8  21845545.357
  23588538.944   -44857063.820 5  23588542.659   -22588543.660 6  23588537.712
  20708318.337   -39021150.010 7  20708317.869   -21799592.942 9  20708317.584
  24363785.503   -53366049.599 4  24363787.614   -11025461.881 6  24363784.973
 15  7 30  2  9 30.0000000  0 12G 1G 4G 7G 8G 9G11G16G19G23G26G27G31
  24792895.701     7609285.932 2  24792903.070    15897589.901 4  24792895.504
  22959171.380   -35581416.241 6  22959172.690    -8388396.502 7  22959171.201
  23851854.859     2664072.398 5  23851853.570     7849881.234 6  23851854.407
  20494995.623   -35947831.784 7  20494995.602   -18478782.608 9  20494994.831
  22643800.489   -37238737.961 6  22643801.149    -1291214.984 7  22643800.042
  23454888.702   -58142227.742 5  23454890.084   -23135730.290 6  23454888.627
  22234768.162   -39388253.035 6  22234765.755   -11354774.175 7  22234766.738
  20209758.140   -45835350.099 7  20209753.901   -19646761.260 9  20209756.542
  21853195.805   -66559230.243 7  21853192.502     -334321.914 8  21853194.621
  23595520.868   -44820367.685 5  23595523.902   -22559949.357 6  23595520.664
  20715958.898   -38980998.930 7  20715958.352   -21768306.391 9  20715958.002
  24378334.083   -53289604.574 5  24378335.621   -10965894.514 6  24378333.421
 15  7 30  2 10  0.0000000  0 12G 1G 4G 7G 8G 9G11G16G19G23G26G27G31
  24770751.043     7492907.964 3  24770756.901    15806905.855 4  24770749.361
  22937766.514   -35693898.847 5  22937767.146    -8476045.166 7  22937765.048
  23830302.975     2550811.318 5  23830302.105     7761625.881 6  23830302.330
  20497086.999   -35936842.577 7  20497086.939   -18470219.584 9  20497086.115
  22641443.491   -37251120.407 6  22641445.140    -1300863.680 7  22641442.678
  23432371.141   -58260559.209 6  23432372.415   -23227936.528 6  23432371.096
  22239171.997   -39365111.890 6  22239168.987   -11336742.133 7  22239170.692
  20204843.855   -45861174.571 7  20204839.598   -19666884.217 9  20204842.140
  21860920.096   -66518638.839 7  21860917.086     -302692.345 8  21860919.119
  23602511.162   -44783638.162 5  23602513.581   -22531329.025 6  23602510.370
  20723664.119   -38940508.271 7  20723663.516   -21736755.231 9  20723663.282
  24392919.730   -53212952.142 5  24392921.334   -10906165.507 6  24392919.778
 15  7 30  2 10 30.0000000  0 12G 1G 4G 7G 8G 9G11G16G19G23G26G27G31
  24748581.232     7376412.430 3  24748588.499    15716130.188 4  24748581.130
  22916378.801   -35806290.969 6  22916381.352    -8563623.331 7  22916377.797
  23808753.989     2437573.966 5  23808753.995     7673389.044 6  23808753.020
  20499254.462   -35925450.949 7  20499254.633   -18461342.985 9  20499253.833
  22639184.555   -37262991.030 6  22639186.704    -1310113.563 7  22639183.505
  23409872.107   -58378791.232 6  23409872.565   -23320065.294 6  23409871.390
  22243578.727   -39341953.671 6  22243576.323   -11318696.787 7  22243577.081
  20200034.635   -45886447.278 7  20200030.483   -19686577.228 9  20200032.977
  21868719.631   -66477652.487 6  21868716.220     -270755.025 8  21868719.017
  23609507.331   -44746871.954 5  23609510.170   -22502680.094 6  23609507.124
  20731433.687   -38899678.032 7  20731433.210   -21704939.467 9  20731432.965
  24407546.934   -53136091.300 5  24407548.121   -10846274.104 6  24407545.897
 15  7 30  2 11  0.0000000  0 12G 1G 4G 7G 8G 9G11G16G19G23G26G27G31
  24726390.432     7259799.367 3  24726397.459    15625262.961 5  24726390.015
  22895008.695   -35918592.139 6  22895010.959    -8651130.613 7  22895008.183
  23787210.549     2324360.280 5  23787209.691     7585170.634 6  23787209.658
  20501497.914   -35913661.858 7  20501498.034   -18452156.675 9  20501497.249
  22637022.772   -37274353.163 6  22637024.280    -1318967.209 7  22637022.436
  23387392.565   -58496923.518 6  23387393.587   -23412116.337 6  23387390.979
  22247988.497   -39318780.582 6  22247985.958   -11300639.864 7  22247987.052
  20195329.983   -45911171.063 8  20195325.669   -19705842.512 9  20195328.202
  21876593.464   -66436276.322 7  21876590.374     -238513.963 8  21876592.433
  23616511.331   -44710071.107 5  23616512.884   -22474004.194 6  23616510.063
  20739267.345   -38858513.026 7  20739266.581   -21672862.843 9  20739266.341
  24422212.034   -53059025.827 5  24422212.982   -10786223.226 6  24422211.228
 15  7 30  2 11 30.0000000  0 12G 1G 4G 7G 8G 9G11G16G19G23G26G27G31
  24704177.676     7143070.036 3  24704185.314    15534305.128 5  24704177.142
  22873656.061   -36030800.263 6  22873657.596    -8738565.399 7  22873655.762
  23765671.486     2211171.015 5  23765671.360     7496971.279 6  23765670.796
  20503816.497   -35901477.418 8  20503816.692   -18442662.304 9  20503815.778
  22634957.448   -37285208.940 6  22634958.263    -1327426.290 7  22634956.830
  23364931.697   -58614954.967 6  23364931.688   -23504088.797 6  23364931.245
  22252400.941   -39295593.359 6  22252398.477   -11282571.920 7  22252399.329
  20190729.110   -45935347.948 7  20190724.877   -19724681.641 9  20190727.458
  21884540.069   -66394514.659 6  21884537.467     -205972.500 7  21884538.840
  23623520.401   -44673236.007 5  23623523.567   -22445301.602 6  23623520.176
  20747163.653   -38817016.897 7  20747163.105   -21640528.202 9  20747162.820
  24436915.481   -52981758.321 5  24436917.250   -10726014.920 6  24436915.317
 15  7 30  2 12  0.0000000  0 12G 1G 4G 7G 8G 9G11G16G19G23G26G27G31
  24681944.605     7026229.365 3  24681950.847    15443260.535 5  24681943.580
  22852322.473   -36142909.821 6  22852323.945    -8825923.365 7  22852321.442
  23744138.257     2098010.829 5  23744136.944     7408794.564 6  23744137.289
  20506210.478   -35888897.532 8  20506210.439   -18432859.795 9  20506209.552
  22632987.997   -37295556.771 6  22632988.948    -1335489.588 7  22632987.458
  23342491.512   -58732880.389 6  23342491.698   -23595978.659 6  23342489.956
  22256816.423   -39272389.513 6  22256813.578   -11264491.013 7  22256815.068
  20186232.757   -45958976.369 7  20186228.437   -19743093.396 9  20186231.129
  21892560.756   -66352367.385 7  21892557.794     -173130.572 7  21892559.502
  23630537.307   -44636363.515 5  23630539.568   -22416569.866 6  23630535.997
  20755123.140   -38775189.635 7  20755122.586   -21607935.538 9  20755122.199
  24451657.581   -52904287.577 4  24451659.967   -10665648.246 6  24451657.845
 15  7 30  2 12 30.0000000  0 12G 1G 4G 7G 8G 9G11G16G19G23G26G27G31
  24659690.481     6909282.445 3  24659696.524    15352133.165 5  24659689.704
  22831008.474   -36254915.257 6  22831009.961    -8913200.209 7  22831007.290
  23722609.597     1984885.150 5  23722609.096     7320644.751 6  23722610.110
  20508679.700   -35875921.029 7  20508679.859   -18422748.228 9  20508678.876
  22631115.635   -37305395.054 6  22631117.143    -1343155.818 7  22631115.188
  23320072.007   -58850694.631 6  23320072.748   -23687781.876 6  23320071.024
  22261235.897   -39249166.146 6  22261232.905   -11246394.906 7  22261234.497
  20181841.337   -45982054.207 7  20181836.948   -19761076.127 9  20181839.595
  21900654.771   -66309834.940 7  21900651.926     -139988.509 7  21900654.010
  23637561.166   -44599450.395 5  23637565.084   -22387806.475 6  23637560.794
  20763145.739   -38733031.080 8  20763145.113   -21575084.723 9  20763144.816
  24466439.085   -52826612.592 5  24466440.997   -10605122.407 6  24466438.506
 15  7 30  2 13  0.0000000  0 12G 1G 4G 7G 8G 9G11G16G19G23G26G27G31
  24637416.599     6792231.150 3  24637423.300    15260924.446 5  24637415.625
  22809714.302   -36366813.883 6  22809715.792    -9000393.818 7  22809713.379
  23701090.039     1871795.437 5  23701088.630     7232522.957 6  23701089.469
  20511224.126   -35862550.350 7  20511224.312   -18412329.515 9  20511223.239
  22629340.429   -37314725.289 6  22629341.628    -1350426.187 7  22629339.424
  23297673.778   -58968395.589 6  23297673.964   -23779496.831 6  23297673.766
  22265658.597   -39225923.478 6  22265655.938   -11228283.753 7  22265657.152
  20177554.434   -46004582.702 7  20177549.958   -19778630.800 9  20177552.677
  21908820.608   -66266920.604 6  21908818.483     -106548.862 7  21908820.006
  23644592.489   -44562496.543 4  23644597.322   -22359011.333 6  23644592.141
  20771230.581   -38690544.234 7  20771230.066   -21541978.097 9  20771229.874
  24481257.460   -52748735.503 4  24481259.406   -10544439.090 6  24481257.130
 15  7 30  2 13 30.0000000  0 12G 1G 4G 7G 8G 9G11G16G19G23G26G27G31
  24615123.139     6675077.694 4  24615128.508    15169636.139 5  24615121.994
  22788442.019   -36478603.129 6  22788443.020    -9087502.220 7  22788441.332
  23679576.905     1758743.355 5  23679576.195     7144430.479 6  23679575.721
  20513842.930   -35848787.915 7  20513843.179   -18401605.538 9  20513842.190
  22627661.687   -37323548.817 6  22627662.583    -1357301.705 7  22627660.590
  23275298.147   -59085981.152 6  23275298.744   -23871121.849 6  23275297.332
  22270085.195   -39202661.408 6  22270082.728   -11210157.485 7  22270083.957
  20173371.517   -46026563.440 8  20173367.152   -19795758.646 9  20173369.910
  21917059.250   -66223627.349 6  21917056.360      -72813.963 7  21917058.713
  23651633.301   -44525501.572 5  23651636.317   -22330184.156 6  23651632.498
  20779377.633   -38647731.889 7  20779376.953   -21508617.834 9  20779376.692
  24496115.834   -52670657.698 4  24496118.328   -10483599.369 6  24496114.620
 15  7 30  2 14  0.0000000  0 12G 1G 4G 7G 8G 9G11G16G19G23G26G27G31
  24592810.000     6557821.272 3  24592815.912    15078267.583 5  24592808.795
  22767189.759   -36590283.068 6  22767190.463    -9174525.440 7  22767188.817
  23658070.379     1645728.283 5  23658068.835     7056366.842 6  23658070.310
  20516535.396   -35834638.895 8  20516535.693   -18390580.326 9  20516534.758
  22626078.087   -37331869.996 6  22626079.013    -1363785.793 7  22626076.819
  23252943.925   -59203451.560 5  23252945.271   -23962657.141 6  23252942.960
  22274515.324   -39179382.967 6  22274512.857   -11192018.460 7  22274513.810
  20169292.157   -46048000.147 8  20169287.789   -19812462.574 9  20169290.667
  21925369.299   -66179961.761 7  21925366.145      -38788.938 7  21925368.201
  23658681.038   -44488468.128 5  23658685.046   -22301327.007 6  23658681.047
  20787585.243   -38604599.783 7  20787584.632   -21475008.408 9  20787584.467
  24511010.288   -52592384.171 4  24511012.869   -10422607.125 6  24511009.988
 15  7 30  2 14 30.0000000  0 12G 1G 4G 7G 8G 9G11G16G19G23G26G27G31
  24570477.752     6440467.550 3  24570484.249    14986823.193 5  24570476.856
  22745959.197   -36701847.292 6  22745960.624    -9261458.477 7  22745958.915
  23636572.202     1532755.515 5  23636570.841     6968336.154 6  23636571.740
  20519301.944   -35820101.795 8  20519301.887   -18379252.714 9  20519301.209
  22624590.814   -37339686.686 6  22624591.863    -1369876.768 7  22624589.609
  23230613.611   -59320801.399 6  23230613.392   -24054098.470 6  23230612.888
  22278948.619   -39156084.765 6  22278945.990   -11173864.031 7  22278947.570
  20165316.894   -46068890.675 7  20165312.328   -19828740.902 9  20165315.404
  21933749.364   -66135923.221 7  21933746.633       -4473.290 7  21933748.174
  23665736.243   -44451392.356 5  23665739.280   -22272436.859 6  23665733.925
  20795853.981   -38561147.266 7  20795853.252   -21441149.308 9  20795853.120
  24525943.693   -52513913.177 3  24525945.007   -10361461.014 6  24525943.562
 15  7 30  2 15  0.0000000  0 12G 1G 4G 7G 8G 9G11G16G19G23G26G27G31
  24548126.573     6323014.381 2  24548132.371    14895301.323 5  24548125.475
  22724750.721   -36813297.761 6  22724752.556    -9348302.880 7  22724750.428
  23615081.975     1419822.902 5  23615080.464     6880336.781 6  23615081.681
  20522140.784   -35805183.416 7  20522140.679   -18367628.006 9  20522139.926
  22623198.374   -37347004.633 6  22623199.267    -1375579.113 7  22623197.744
  23208304.777   -59438032.771 6  23208305.254   -24145447.485 6  23208303.560
  22283384.912   -39132771.242 6  22283382.489   -11155697.672 7  22283383.676
  20161444.399   -46089240.397 7  20161440.091   -19844597.829 9  20161442.924
  21942198.550   -66091519.201 7  21942196.257       30127.137 7  21942198.115
  23672798.978   -44414278.296 5  23672801.676   -22243516.897 6  23672798.388
  20804182.419   -38517381.399 7  20804181.868   -21407046.042 9  20804181.613
  24540912.577   -52435250.787 4  24540914.537   -10300165.784 5  24540911.393
 15  7 30  2 15 30.0000000  0 12G 1G 4G 7G 8G 9G11G16G19G23G26G27G31
  24525757.705     6205463.311 2  24525765.095    14803703.161 5  24525757.567
  22703564.841   -36924631.812 6  22703565.630    -9435056.569 7  22703563.945
  23593599.477     1306931.712 5  23593598.521     6792369.654 6  23593598.476
  20525051.681   -35789886.355 8  20525051.738   -18355708.222 9  20525050.938
  22621899.931   -37353825.929 6  22621901.340    -1380894.456 7  22621899.424
  23186019.393   -59555144.271 6  23186019.561   -24236703.099 7  23186017.975
  22287824.325   -39109443.081 6  22287821.786   -11137519.897 7  22287822.766
  20157674.713   -46109051.381 7  20157670.123   -19860034.957 9  20157672.965
  21950717.617   -66046753.546 7  21950715.003       65009.365 8  21950716.667
  23679868.912   -44377126.204 5  23679871.175   -22214567.305 6  23679867.914
  20812569.590   -38473305.625 7  20812569.245   -21372701.291 9  20812568.945
  24555917.966   -52356399.435 4  24555919.735   -10238723.328 5  24555916.728
 15  7 30  2 16  0.0000000  0 12G 1G 4G 7G 8G 9G11G16G19G23G26G27G31
  24503370.332     6087820.399 2  24503376.426    14712033.451 5  24503369.864
  22682401.586   -37035843.126 6  22682403.295    -9521714.623 7  22682400.873
  23572125.568     1194087.699 5  23572124.321     6704439.298 6  23572125.811
  20528035.030   -35774209.159 8  20528034.754   -18343492.229 9  20528034.149
  22620697.091   -37360148.120 6  22620698.932    -1385820.900 7  22620696.492
  23163757.770   -59672129.037 6  23163757.953   -24327859.950 7  23163756.604
  22292267.250   -39086096.272 6  22292264.348   -11119327.601 7  22292265.307
  20154007.691   -46128320.710 7  20154003.269   -19875050.020 9  20154006.123
  21959305.574   -66001625.689 6  21959302.660      100173.817 7  21959304.756
  23686946.625   -44339931.859 5  23686949.452   -22185584.789 6  23686945.990
  20821016.110   -38428918.871 7  20821015.820   -21338114.220 9  20821015.244
  24570959.240   -52277356.942 4  24570961.228   -10177131.917 6  24570958.008
 15  7 30  2 16 30.0000000  0 12G 1G 4G 7G 8G 9G11G16G19G23G26G27G31
  24480967.195     5970088.483 3  24480973.880    14620294.360 5  24480966.017
  22661263.025   -37146928.362 6  22661263.742    -9608274.445 7  22661261.121
  23550661.531     1081293.539 5  23550660.491     6616547.798 6  23550660.737
  20531090.119   -35758153.409 7  20531090.287   -18330981.258 9  20531089.385
  22619588.663   -37365972.171 6  22619591.145    -1390359.179 7  22619588.285
  23141520.530   -59788984.616 6  23141520.191   -24418916.168 7  23141520.209
  22296713.498   -39062730.225 6  22296710.444   -11101120.310 7  22296711.913
  20150443.842   -46147049.220 7  20150439.309   -19889643.662 9  20150442.268
  21967961.428   -65956138.421 7  21967958.670      135618.331 7  21967960.313
  23694032.966   -44302694.351 5  23694033.995   -22156568.669 6  23694032.786
  20829521.327   -38384223.417 7  20829521.088   -21303286.603 9  20829520.572
  24586036.411   -52198124.809 4  24586038.687   -10115392.757 5  24586035.917
 15  7 30  2 17  0.0000000  0 12G 1G 4G 7G 8G 9G11G16G19G23G26G27G31
  24458546.536     5852264.732 3  24458553.506    14528483.727 5  24458544.740
  22640147.704   -37257889.624 6  22640148.660    -9694737.642 7  22640146.873
  23529206.620      968546.330 5  23529205.652     6528692.857 6  23529205.772
  20534215.962   -35741726.355 8  20534216.286   -18318180.958 9  20534215.386
  22618574.396   -37371304.465 6  22618575.904    -1394514.270 7  22618573.056
  23119307.908   -59905713.941 6  23119307.926   -24509873.980 7  23119306.115
  22301162.290   -39039350.314 6  22301159.945   -11082902.217 7  22301161.672
  20146981.536   -46165243.338 8  20146977.213   -19903820.894 9  20146980.067
  21976684.255   -65910299.582 7  21976682.252      171336.791 7  21976683.113
  23701125.963   -44265418.281 5  23701128.271   -22127522.493 6  23701125.657
  20838084.221   -38339226.998 7  20838083.565   -21268224.466 9  20838083.316
  24601148.640   -52118709.713 4  24601151.030   -10053511.023 5  24601147.612
 15  7 30  2 17 30.0000000  0 12G 1G 4G 7G 8G 9G11G16G19G23G26G27G31
  24436109.477     5734357.566 4  24436114.754    14436608.096 5  24436107.805
  22619057.334   -37368718.005 6  22619059.202    -9781097.301 7  22619057.439
  23507762.298      855854.192 5  23507761.036     6440880.856 6  23507761.216
  20537413.447   -35724924.260 7  20537413.677   -18305088.421 9  20537412.688
  22617654.051   -37376140.494 6  22617655.271    -1398282.663 7  22617653.280
  23097120.295   -60022308.292 6  23097120.667   -24600726.635 7  23097120.082
  22305615.422   -39015949.713 6  22305612.487   -11064668.005 7  22305614.163
  20143621.978   -46182898.244 7  20143617.508   -19917577.960 9  20143620.362
  21985474.584   -65864106.547 6  21985472.242      207331.245 7  21985473.372
  23708228.658   -44228097.202 4  23708231.275   -22098441.226 6  23708227.947
  20846704.589   -38293926.285 7  20846703.878   -21232925.218 9  20846703.848
  24616297.156   -52039107.587 4  24616298.889    -9991483.551 6  24616295.993
 15  7 30  2 18  0.0000000  0 12G 1G 4G 7G 8G 9G11G16G19G23G26G27G31
  24413656.536     5616366.388 4  24413661.858    14344666.999 5  24413656.368
  22597993.074   -37479413.382 6  22597993.721    -9867353.322 7  22597992.642
  23486328.243      743216.491 5  23486326.064     6353111.257 6  23486327.509
  20540681.379   -35707751.835 8  20540681.421   -18291707.314 9  20540680.558
  22616827.526   -37380484.569 6  22616828.569    -1401667.718 7  22616825.760
  23074958.588   -60138768.555 6  23074958.722   -24691474.791 7  23074957.613
  22310072.178   -38992531.859 6  22310068.911   -11046420.353 7  22310070.455
  20140364.388   -46200017.344 7  20140359.762   -19930917.514 9  20140362.682
  21994331.133   -65817565.346 6  21994328.729      243597.010 7  21994330.381
  23715338.134   -44190733.468 4  23715341.099   -22069326.724 6  23715337.600
  20855381.833   -38248326.927 7  20855381.071   -21197393.255 9  20855381.158
  24631479.024   -51959322.719 4  24631481.125    -9929313.672 6  24631478.577
 15  7 30  2 18 30.0000000  0 12G 1G 4G 7G 8G 9G11G16G19G23G26G27G31
  24391188.429     5498294.050 4  24391193.651    14252662.649 5  24391188.309
  22576953.972   -37589972.558 6  22576955.165    -9953503.214 7  22576953.675
  23464904.789      630635.801 5  23464902.427     6265386.106 6  23464903.827
  20544019.235   -35690211.070 8  20544019.256   -18278039.193 9  20544018.543
  22616094.528   -37384337.620 6  22616095.277    -1404670.159 7  22616093.718
  23052823.049   -60255091.730 6  23052823.732   -24782116.149 7  23052822.425
  22314531.729   -38969095.591 6  22314528.626   -11028158.345 7  22314530.488
  20137208.368   -46216602.229 7  20137203.766   -19943840.799 9  20137206.677
  22003253.461   -65770678.588 6  22003250.909      280132.036 7  22003252.852
  23722456.643   -44153326.185 4  23722459.851   -22040178.297 6  23722456.070
  20864115.815   -38202431.052 7  20864114.943   -21161630.241 9  20864114.781
  24646697.014   -51879356.575 4  24646697.463    -9867002.553 6  24646696.591
 15  7 30  2 19  0.0000000  0 12G 1G 4G 7G 8G 9G11G16G19G23G26G27G31
  24368704.687     5380142.731 4  24368709.702    14160596.771 5  24368703.260
  22555942.187   -37700392.596 6  22555942.715   -10039544.684 7  22555941.543
  23443493.078      518114.153 5  23443491.415     6177706.958 6  23443492.089
  20547426.614   -35672304.564 8  20547426.847   -18264086.072 9  20547426.053
  22615454.021   -37387701.385 6  22615454.600    -1407291.350 7  22615453.203
  23030714.107   -60371275.615 6  23030714.443   -24872648.952 7  23030712.737
  22318994.620   -38945641.541 6  22318992.569   -11009882.489 7  22318993.486
  20134153.641   -46232654.103 7  20134149.402   -19956348.747 9  20134151.894
  22012240.855   -65723449.485 6  22012239.026      316933.809 7  22012239.916
  23729583.019   -44115875.084 4  23729585.983   -22010995.702 6  23729582.263
  20872904.882   -38156241.652 7  20872904.474   -21125638.506 9  20872904.132
  24661947.633   -51799211.197 4  24661949.830    -9804551.765 5  24661947.315
 15  7 30  2 19 30.0000000  0 12G 1G 4G 7G 8G 9G11G16G19G23G26G27G31
  24346205.925     5261916.533 4  24346212.596    14068472.536 6  24346205.512
  22534956.808   -37810668.946 6  22534958.118   -10125474.182 7  22534956.151
  23422092.883      405655.292 5  23422091.276     6090076.746 6  23422092.451
  20550903.921   -35654032.099 7  20550904.014   -18249847.789 9  20550903.112
  22614907.424   -37390575.546 6  22614908.743    -1409531.024 7  22614906.930
  23008631.848   -60487315.896 6  23008632.288   -24963069.869 7  23008631.248
  22323461.752   -38922167.473 6  22323459.366   -10991591.035 7  22323459.977
  20131200.563   -46248172.496 7  20131196.297   -19968440.997 9  20131198.983
  22021293.511   -65675879.468 6  22021290.603      354001.231 7  22021292.000
  23736719.275   -44078377.884 4  23736722.519   -21981777.191 6  23736718.526
  20881750.189   -38109759.585 7  20881749.590   -21089418.720 9  20881749.359
  24677232.887   -51718886.225 4  24677235.987    -9741961.063 5  24677233.109
 15  7 30  2 20  0.0000000  0 12G 1G 4G 7G 8G 9G11G16G19G23G26G27G31
  24323694.869     5143617.449 4  24323699.666    13976291.495 6  24323693.287
  22513999.442   -37920799.188 6  22514000.260   -10211289.845 7  22513998.929
  23400704.699      293261.167 6  23400701.902     6002496.949 6  23400704.969
  20554449.935   -35635396.811 7  20554450.097   -18235326.791 9  20554449.429
  22614453.272   -37392962.098 6  22614454.624    -1411390.734 7  22614452.507
  22986578.008   -60603210.899 6  22986578.980   -25053377.568 7  22986577.181
  22327932.446   -38898673.518 6  22327929.967   -10973284.084 7  22327931.277
  20128348.787   -46263159.088 7  20128344.422   -19980118.860 9  20128347.180
  22030410.304   -65627972.416 6  22030406.992      391331.276 7  22030409.264
  23743863.147   -44040834.582 4  23743867.167   -21952522.762 6  23743862.700
  20890650.587   -38062988.014 7  20890650.065   -21052973.352 9  20890649.810
  24692552.594   -51638384.101 4  24692556.005    -9679232.318 5  24692551.325
 15  7 30  2 20 30.0000000  0 12G 1G 4G 7G 8G 9G11G16G19G23G26G27G31
  24301170.332     5025250.534 3  24301176.828    13884057.596 6  24301170.116
  22493071.308   -38030777.571 6  22493071.527   -10296987.186 7  22493071.320
  23379330.115      180936.803 5  23379328.861     5914971.548 6  23379329.563
  20558065.232   -35616397.938 7  20558065.501   -18220522.479 9  20558064.713
  22614091.974   -37394859.846 6  22614093.221    -1412869.576 7  22614091.149
  22964552.403   -60718955.124 6  22964552.067   -25143567.784 7  22964550.991
  22332407.580   -38875156.818 6  22332405.308   -10954959.386 7  22332406.759
  20125598.440   -46277612.461 7  20125594.135   -19991381.227 9  20125596.815
  22039590.249   -65579728.460 7  22039588.148      428923.849 7  22039588.615
  23751016.917   -44003241.932 4  23751020.590   -21923229.876 6  23751016.033
  20899606.026   -38015926.864 7  20899605.486   -21016302.328 9  20899605.216
  24707904.884   -51557703.912 3  24707908.434    -9616364.803 5  24707903.973
 15  7 30  2 21  0.0000000  0 12G 1G 4G 7G 8G 9G11G16G19G23G26G27G31
  24278633.158     4906816.394 3  24278638.518    13791771.319 6  24278633.893
  22472171.651   -38140603.006 6  22472173.018   -10382565.340 7  22472171.331
  23357968.571       68682.634 5  23357967.357     5827500.835 7  23357967.752
  20561749.177   -35597039.583 8  20561749.300   -18205438.051 9  20561748.428
  22613823.522   -37396272.100 6  22613824.736    -1413970.112 7  22613822.514
  22942555.656   -60834548.338 6  22942556.331   -25233640.347 7  22942555.012
  22336886.374   -38851619.089 6  22336884.447   -10936618.323 7  22336885.322
  20122948.889   -46291535.772 7  20122944.608   -20002230.562 9  20122947.235
  22048833.798   -65531152.737 6  22048832.089      466774.928 7  22048832.653
  23758179.963   -43965601.248 4  23758183.603   -21893899.572 6  23758179.253
  20908615.743   -37968580.638 7  20908614.999   -20979409.175 9  20908614.993
  24723292.068   -51476849.068 4  24723294.919    -9553361.241 5  24723290.815
 15  7 30  2 21 30.0000000  0 12G 1G 4G 7G 8G 9G11G16G19G23G26G27G31
  24256084.010     4788315.617 4  24256087.725    13699433.122 6  24256082.547
  22451302.529   -38250274.135 6  22451303.350   -10468023.268 7  22451301.416
  23336620.446      -43501.260 6  23336618.944     5740084.872 6  23336619.699
  20565500.510   -35577325.767 7  20565500.705   -18190076.641 9  20565499.812
  22613646.998   -37397202.338 6  22613648.347    -1414695.057 7  22613646.239
  22920588.076   -60949989.727 6  22920587.806   -25323594.596 7  22920586.478
  22341369.588   -38828061.912 6  22341366.842   -10918262.121 7  22341368.380
  20120399.730   -46304932.427 7  20120395.293   -20012669.510 9  20120397.970
  22058140.324   -65482250.291 6  22058137.878      504880.599 7  22058139.437
  23765351.449   -43927913.902 5  23765355.376   -21864532.891 6  23765351.194
  20917678.882   -37920953.883 7  20917678.259   -20942297.426 9  20917677.932
  24738710.703   -51395823.115 4  24738714.492    -9490224.313 5  24738710.106
 15  7 30  2 22  0.0000000  0 12G 1G 4G 7G 8G 9G11G16G19G23G26G27G31
  24233521.555     4669751.563 3  24233526.406    13607045.629 5  24233520.575
  22430462.501   -38359787.356 6  22430463.463   -10553358.152 7  22430461.659
  23315286.234     -155611.538 5  23315285.140     5652726.297 7  23315285.329
  20569319.446   -35557257.408 7  20569319.339   -18174438.968 9  20569318.559
  22613561.149   -37397651.141 6  22613562.924    -1415044.852 7  22613560.607
  22898649.708   -61065275.666 6  22898649.093   -25413427.719 7  22898648.464
  22345856.177   -38804483.888 6  22345853.527   -10899889.664 7  22345854.885
  20117950.441   -46317802.658 7  20117946.175   -20022698.260 9  20117948.882
  22067507.717   -65433023.422 6  22067505.529      543239.068 7  22067506.410
  23772532.260   -43890178.414 4  23772535.411   -21835128.702 6  23772531.946
  20926795.232   -37873048.312 7  20926794.438   -20904968.417 9  20926794.270
  24754160.780   -51314626.971 4  24754164.860    -9426954.769 5  24754161.035
 15  7 30  2 22 30.0000000  0 12G 1G 4G 7G 8G 9G11G16G19G23G26G27G31
  24210946.616     4551125.613 4  24210952.118    13514609.866 5  24210946.500
  22409653.100   -38469140.798 6  22409654.161   -10638568.519 7  22409652.168
  23293966.664     -267646.842 5  23293964.686     5565426.128 7  23293966.308
  20573205.092   -35536838.158 7  20573205.209   -18158527.872 9  20573204.415
  22613566.962   -37397621.266 6  22613567.895    -1415021.654 7  22613566.042
  22876741.082   -61180405.467 6  22876741.819   -25503139.181 7  22876739.652
  22350346.405   -38780886.418 6  22350343.860   -10881502.051 7  22350345.239
  20115601.117   -46330149.063 7  20115596.758   -20032318.830 9  20115599.405
  22076936.664   -65383476.324 6  22076934.631      581847.051 7  22076935.746
  23779722.890   -43852395.434 4  23779725.514   -21805687.519 6  23779721.709
  20935963.773   -37824867.703 7  20935963.191   -20867425.099 9  20935962.921
  24769645.213   -51233263.563 4  24769648.014    -9363554.916 5  24769644.131
 15  7 30  2 23  0.0000000  0 12G 1G 4G 7G 8G 9G11G16G19G23G26G27G31
  24188362.945     4432442.185 3  24188366.737    13422129.339 5  24188362.522
  22388875.579   -38578329.323 6  22388876.155   -10723650.401 7  22388874.865
  23272661.799     -379603.070 5  23272660.855     5478187.584 7  23272661.782
  20577157.751   -35516068.065 7  20577157.649   -18142343.393 9  20577156.918
  22613664.047   -37397112.353 6  22613664.976    -1414625.180 7  22613662.872
  22854863.523   -61295374.451 6  22854863.035   -25592725.328 7  22854861.682
  22354841.337   -38757267.010 6  22354839.011   -10863097.353 7  22354840.234
  20113351.322   -46341970.927 7  20113347.175   -20041530.669 9  20113349.868
  22086425.854   -65333610.067 6  22086423.881      620703.743 7  22086425.200
  23786922.065   -43814562.384 5  23786925.563   -21776207.308 6  23786921.066
  20945184.229   -37776412.735 7  20945183.728   -20829667.991 9  20945183.410
  24785159.638   -51151732.707 4  24785163.646    -9300024.563 5  24785159.437
 15  7 30  2 23 30.0000000  0 12G 1G 4G 7G 8G 9G11G16G19G23G26G27G31
  24165767.024     4313704.648 4  24165772.324    13329606.651 5  24165766.448
  22368129.626   -38687349.036 6  22368130.337   -10808600.732 7  22368128.790
  23251373.576     -491477.180 5  23251371.672     5391013.033 7  23251373.264
  20581176.520   -35494948.721 7  20581176.577   -18125886.766 9  20581175.782
  22613851.942   -37396125.083 6  22613852.799    -1413855.960 7  22613851.525
  22833016.541   -61410179.234 6  22833016.894   -25682183.510 7  22833015.713
  22359340.668   -38733624.684 6  22359337.727   -10844674.789 7  22359338.698
  20111201.510   -46353268.801 7  20111197.163   -20050334.201 9  20111199.855
  22095975.502   -65283427.008 6  22095973.299      659807.288 7  22095974.396
  23794131.099   -43776677.880 5  23794134.397   -21746687.026 6  23794130.679
  20954456.669   -37727685.146 7  20954456.225   -20791698.453 9  20954455.697
  24800707.963   -51070035.279 4  24800709.858    -9236364.421 5  24800705.901
 15  7 30  2 24  0.0000000  0 12G 1G 4G 7G 8G 9G11G16G19G23G26G27G31
  24143163.047     4194918.765 4  24143168.099    13237046.262 5  24143162.654
  22347416.971   -38796193.912 6  22347417.493   -10893414.828 7  22347415.901
  23230100.501     -603263.458 5  23230098.849     5303906.903 7  23230099.533
  20585261.972   -35473478.949 7  20585262.041   -18109157.085 9  20585261.321
  22614131.016   -37394657.911 6  22614132.257    -1412712.791 7  22614130.563
  22811201.983   -61524814.151 6  22811201.669   -25771509.339 7  22811201.663
  22363844.342   -38709955.572 6  22363841.796   -10826231.353 7  22363843.349
  20109151.700   -46364040.849 8  20109147.302   -20058728.000 9  20109149.976
  22105585.485   -65232927.269 6  22105583.749      699157.600 7  22105584.390
  23801350.899   -43738738.096 5  23801353.792   -21717123.656 6  23801349.361
  20963780.960   -37678684.369 7  20963780.712   -20753516.041 9  20963780.259
  24816285.209   -50988169.792 4  24816287.317    -9172573.323 5  24816284.340
 15  7 30  2 24 30.0000000  0 12G 1G 4G 7G 8G 9G11G16G19G23G26G27G31
  24120550.149     4076083.846 4  24120555.263    13144447.671 6  24120549.342
  22326737.326   -38904864.066 6  22326738.391   -10978092.778 7  22326736.970
  23208844.601     -714962.696 5  23208843.828     5216868.609 7  23208844.068
  20589413.216   -35451664.113 7  20589413.282   -18092158.517 9  20589412.364
  22614500.732   -37392715.699 6  22614501.631    -1411199.460 7  22614500.210
  22789420.068   -61639280.074 6  22789419.648   -25860703.493 7  22789418.986
  22368352.555   -38686262.940 6  22368350.975   -10807769.595 7  22368352.354
  20107200.956   -46374291.714 7  20107196.645   -20066715.686 9  20107199.430
  22115254.427   -65182117.179 6  22115252.649      738749.729 7  22115253.330
  23808580.253   -43700745.744 5  23808583.410   -21687519.324 6  23808580.265
  20973156.763   -37629416.229 7  20973156.244   -20715125.293 9  20973155.965
  24831894.239   -50906141.237 4  24831898.772    -9108655.124 5  24831894.527
 15  7 30  2 25  0.0000000  0 12G 1G 4G 7G 8G 9G11G16G19G23G26G27G31
  24097926.644     3957201.061 4  24097931.887    13051811.766 6  24097926.221
  22306091.603   -39013357.908 6  22306093.249   -11062633.342 7  22306090.977
  23187606.335     -826573.850 6  23187603.979     5129898.942 7  23187605.948
  20593629.413   -35429507.610 8  20593629.557   -18074893.716 9  20593628.583
  22614960.206   -37390301.394 6  22614961.090    -1409318.265 7  22614959.226
  22767670.287   -61753575.762 6  22767669.238   -25949764.992 7  22767668.263
  22372866.023   -38662547.544 6  22372863.328   -10789290.107 7  22372864.374
  20105348.947   -46384024.076 8  20105344.552   -20074299.342 9  20105347.340
  22124981.322   -65131001.211 6  22124979.359      778580.218 7  22124980.000
  23815820.235   -43662701.546 5  23815823.637   -21657874.579 6  23815819.962
  20982582.253   -37579884.641 7  20982581.713   -20676529.264 9  20982581.386
  24847535.524   -50823952.511 4  24847537.976    -9044612.169 5  24847534.007
 15  7 30  2 25 30.0000000  0 12G 1G 4G 7G 8G 9G11G16G19G23G26G27G31
  24075295.638     3838274.379 4  24075300.866    12959141.669 6  24075295.218
  22285480.479   -39121670.678 6  22285481.696   -11147032.808 7  22285479.786
  23166384.471     -938093.043 5  23166383.263     5043000.925 7  23166383.940
  20597910.494   -35407010.413 7  20597910.665   -18057363.442 9  20597909.733
  22615509.240   -37387415.253 6  22615511.056    -1407069.413 7  22615507.699
  22745953.432   -61867697.563 6  22745952.910   -26038690.998 7  22745952.056
  22377383.524   -38638807.691 6  22377381.440   -10770791.548 7  22377381.974
  20103595.634   -46393238.332 7  20103591.251   -20081479.279 9  20103593.893
  22134766.701   -65079580.826 7  22134764.644      818647.899 7  22134766.008
  23823070.182   -43624603.511 5  23823074.484   -21628187.890 6  23823069.402
  20992057.502   -37530090.810 7  20992056.929   -20637728.892 9  20992056.845
  24863204.771   -50741604.047 3  24863207.496    -8980444.705 5  24863205.082
 15  7 30  2 26  0.0000000  0 12G 1G 4G 7G 8G 9G11G16G19G23G26G27G31
  24052656.001     3719303.019 4  24052660.645    12866436.752 6  24052655.638
  22264903.591   -39229802.810 6  22264904.472   -11231291.512 7  22264902.830
  23145180.309    -1049521.383 6  23145179.928     4956173.712 7  23145179.602
  20602255.446   -35384178.003 7  20602255.650   -18039571.962 9  20602254.712
  22616147.264   -37384062.346 6  22616148.814    -1404456.843 7  22616146.733
  22724269.977   -61981646.014 6  22724269.525   -26127481.900 7  22724268.256
  22381905.308   -38615046.451 6  22381902.535   -10752276.333 7  22381904.145
  20101939.968   -46401938.944 7  20101935.501   -20088258.973 9  20101938.259
  22144608.399   -65027862.990 6  22144606.150      858947.361 7  22144607.460
  23830329.458   -43586454.390 5  23830332.417   -21598461.396 6  23830329.206
  21001581.833   -37480040.695 7  21001581.348   -20598728.813 9  21001581.000
  24878905.801   -50659101.199 3  24878909.108    -8916156.979 5  24878904.545
 15  7 30  2 26 30.0000000  0 12G 1G 4G 7G 8G 9G11G16G19G23G26G27G31
  24030009.421     3600294.091 4  24030014.247    12773702.570 6  24030009.391
  22244362.753   -39337746.896 6  22244364.126   -11315403.696 7  22244361.785
  23123995.082    -1160851.988 6  23123993.113     4869422.654 7  23123994.423
  20606664.536   -35361007.790 8  20606664.644   -18021517.254 9  20606663.718
  22616875.142   -37380239.854 6  22616876.521    -1401478.362 7  22616873.715
  22702620.387   -62095414.245 6  22702620.144   -26216132.372 7  22702619.125
  22386431.989   -38591258.761 6  22386429.278   -10733740.500 7  22386431.029
  20100382.471   -46410123.042 7  20100378.238   -20094636.189 9  20100380.882
  22154506.991   -64975846.247 6  22154504.569      899479.735 7  22154506.140
  23837600.379   -43548249.096 4  23837604.306   -21568691.124 6  23837599.662
  21011155.166   -37429732.373 7  21011154.893   -20559527.540 9  21011154.434
  24894635.755   -50576440.840 3  24894639.455    -8851746.481 5  24894634.895
 15  7 30  2 27  0.0000000  0 12G 1G 4G 7G 8G 9G11G16G19G23G26G27G31
  24007356.128     3481249.929 4  24007361.108    12680940.944 6  24007355.702
  22223857.528   -39445500.009 6  22223857.836   -11399367.067 7  22223856.826
  23102828.491    -1272082.559 6  23102826.746     4782749.534 7  23102827.852
  20611137.556   -35337502.405 8  20611137.583   -18003201.376 9  20611136.708
  22617691.594   -37375949.693 6  22617693.429    -1398135.477 7  22617690.731
  22681005.686   -62209000.046 6  22681005.588   -26304640.687 7  22681004.673
  22390963.765   -38567444.589 6  22390961.373   -10715184.026 7  22390962.449
  20098923.117   -46417792.309 8  20098918.794   -20100612.237 9  20098921.384
  22164461.659   -64923533.746 7  22164460.092      940242.572 7  22164460.736
  23844881.645   -43509987.218 5  23844884.979   -21538876.766 6  23844881.465
  21020777.164   -37379168.606 7  21020776.834   -20520127.222 9  21020776.486
  24910394.253   -50493624.977 3  24910396.912    -8787214.838 5  24910394.646
 15  7 30  2 27 30.0000000  0 12G 1G 4G 7G 8G 9G11G16G19G23G26G27G31
  23984695.950     3362171.415 4  23984701.724    12588152.536 6  23984696.036
  22203389.704   -39553060.984 6  22203390.037   -11483180.720 7  22203389.024
  23081681.017    -1383212.572 5  23081680.195     4696154.775 7  23081680.138
  20615673.455   -35313665.641 8  20615673.602   -17984627.279 9  20615672.742
  22618596.754   -37371195.419 6  22618597.950    -1394430.931 7  22618595.762
  22659425.867   -62322402.680 6  22659425.141   -26393006.277 7  22659425.030
  22395500.222   -38543605.485 6  22395497.665   -10696608.122 7  22395498.798
  20097561.007   -46424949.945 7  20097556.717   -20106189.612 9  20097559.313
  22174471.517   -64870930.759 6  22174469.502      981231.750 7  22174470.704
  23852172.732   -43471669.985 4  23852176.792   -21509019.270 6  23852172.367
  21030447.053   -37328353.805 7  21030446.472   -20480531.285 9  21030446.148
  24926184.013   -50410657.634 3  24926186.489    -8722565.148 5  24926181.252
 15  7 30  2 28  0.0000000  0 12G 1G 4G 7G 8G 9G11G16G19G23G26G27G31
  23962029.322     3243060.740 3  23962035.798    12495339.082 6  23962029.886
  22182958.413   -39660426.942 6  22182958.998   -11566842.412 7  22182957.700
  23060553.584    -1494239.775 6  23060552.505     4609640.089 7  23060553.377
  20620271.900   -35289499.962 7  20620272.257   -17965796.885 9  20620271.273
  22619588.762   -37365979.072 6  22619590.797    -1390366.329 7  22619588.222
  22637880.958   -62435619.881 6  22637881.138   -26481227.378 7  22637879.951
  22400040.905   -38519741.486 6  22400038.852   -10678012.852 7  22400040.249
  20096296.012   -46431597.797 7  20096291.542   -20111369.757 9  20096294.372
  22184536.569   -64818040.800 6  22184534.635     1022444.552 7  22184535.328
  23859475.371   -43433297.108 4  23859478.992   -21479118.422 6  23859474.600
  21040163.993   -37277290.850 7  21040163.561   -20440741.983 9  21040163.096
  24941999.855   -50327540.589 3  24942002.586    -8657798.826 5  24941999.447
 15  7 30  2 28 30.0000000  0 12G 1G 4G 7G 8G 9G11G16G19G23G26G27G31
  23939358.336     3123922.517 3  23939364.698    12402504.149 6  23939358.357
  22162565.289   -39767592.923 6  22162565.235   -11650348.275 7  22162565.154
  23039445.958    -1605159.829 6  23039445.140     4523208.945 7  23039444.738
  20624933.004   -35265006.112 7  20624933.214   -17946710.774 9  20624932.344
  22620669.351   -37360300.510 6  22620671.084    -1385941.565 7  22620668.674
  22616372.843   -62548647.288 6  22616372.216   -26569300.598 7  22616372.315
  22404587.456   -38495849.995 6  22404585.046   -10659396.138 7  22404586.365
  20095128.143   -46437735.598 7  20095123.574   -20116152.455 9  20095126.333
  22194655.707   -64764864.868 6  22194654.516     1063880.183 7  22194655.143
  23866789.174   -43394865.995 4  23866792.981   -21449172.193 6  23866787.774
  21049927.972   -37225980.394 7  21049927.555   -20400759.825 9  21049927.163
  24957845.142   -50244273.616 3  24957847.403    -8592915.653 5  24957845.220
 15  7 30  2 29  0.0000000  0 12G 1G 4G 7G 8G 9G11G16G19G23G26G27G31
  23916683.030     3004763.549 4  23916689.646    12309653.068 6  23916683.246
  22142211.960   -39874551.543 6  22142212.373   -11733692.560 7  22142211.090
  23018360.389    -1715966.101 6  23018358.065     4436866.435 7  23018359.411
  20629657.005   -35240181.593 7  20629657.313   -17927367.003 9  20629656.321
  22621838.572   -37354157.307 6  22621840.641    -1381154.743 7  22621837.799
  22594901.533   -62661478.058 6  22594901.644   -26657220.586 7  22594900.982
  22409140.128   -38471926.104 6  22409137.568   -10640754.176 7  22409138.890
  20094057.560   -46443360.728 7  20094053.303   -20120535.666 9  20094055.909
  22204829.418   -64711402.109 6  22204827.949     1105539.313 7  22204828.948
  23874114.075   -43356371.953 4  23874118.383   -21419176.938 6  23874112.546
  21059739.610   -37174420.799 7  21059739.001   -20360583.533 9  21059738.749
  24973719.753   -50160854.268 4  24973722.795    -8527913.778 5  24973719.609
 15  7 30  2 29 30.0000000  0 12G 1G 4G 7G 8G 9G11G16G19G23G26G27G31
  23894003.799     2885583.128 4  23894010.323    12216785.264 6  23894003.584
  22121897.204   -39981303.288 6  22121897.801   -11816875.640 7  22121896.404
  22997296.239    -1826659.521 6  22997294.710     4350611.881 7  22997295.795
  20634442.888   -35215032.084 7  20634442.978   -17907769.986 9  20634442.031
  22623095.401   -37347554.636 6  22623096.759    -1376009.896 7  22623094.601
  22573467.733   -62774113.444 6  22573467.254   -26744988.322 7  22573466.582
  22413698.619   -38447973.550 6  22413695.780   -10622089.872 7  22413696.659
  20093083.796   -46448477.925 7  20093079.404   -20124523.085 9  20093082.129
  22215056.817   -64657659.002 6  22215054.665     1147416.902 7  22215055.534
  23881450.293   -43317817.598 4  23881453.855   -21389134.667 6  23881450.062
  21069597.496   -37122617.957 6  21069596.720   -20320217.698 8  21069596.666
  24989622.043   -50077287.968 3  24989624.612    -8462797.365 5  24989620.825
 15  7 30  2 30  0.0000000  0 12G 1G 4G 7G 8G 9G11G16G19G23G26G27G31
  23871321.646     2766384.882 4  23871327.612    12123903.583 6  23871320.753
  22101623.427   -40087844.000 6  22101624.231   -11899894.277 7  22101622.528
  22976253.483    -1937236.503 6  22976251.921     4264448.046 7  22976253.390
  20639290.065   -35189558.988 7  20639290.449   -17887920.828 9  20639289.561
  22624438.477   -37340493.328 6  22624440.219    -1370507.668 7  22624439.092
  22552071.690   -62886549.902 6  22552071.351   -26832601.054 7  22552070.946
  22418262.063   -38423990.462 6  22418259.812   -10603401.788 7  22418261.053
  20092206.891   -46453087.978 7  20092202.208   -20128115.325 9  20092204.990
  22225336.281   -64603637.972 6  22225335.052     1189511.039 7  22225335.546
  23888798.566   -43279201.323 4  23888801.918   -21359044.169 6  23888798.779
  21079501.179   -37070573.452 7  21079500.495   -20279663.560 9  21079500.415
  25005552.717   -49993574.973 3  25005556.039    -8397566.654 5  25005552.025
 15  7 30  2 30 30.0000000  0 12G 1G 4G 7G 8G 9G11G16G19G23G26G27G31
  23848636.243     2647169.897 4  23848641.711    12031008.835 6  23848635.026
  22081389.490   -40194172.163 6  22081389.886   -11982747.299 7  22081389.037
  22955234.407    -2047696.126 6  22955232.623     4178375.650 7  22955233.466
  20644198.471   -35163765.799 7  20644198.648   -17867822.240 9  20644197.805
  22625869.267   -37332976.757 6  22625870.847    -1364650.694 7  22625869.072
  22530714.028   -62998786.200 6  22530713.195   -26920057.815 7  22530713.042
  22422832.150   -38399977.943 6  22422828.832   -10584690.781 7  22422830.217
  20091425.122   -46457194.051 7  20091420.769   -20131314.857 9  20091423.488
  22235668.676   -64549343.477 6  22235666.445     1231818.273 7  22235668.052
  23896159.253   -43240524.145 4  23896162.656   -21328906.202 6  23896158.792
  21089450.127   -37018291.389 7  21089449.585   -20238924.308 8  21089449.105
  25021508.781   -49909719.168 3  25021515.029    -8332224.653 5  25021508.283
 15  7 30  2 31  0.0000000  0 12G 1G 4G 7G 8G 9G11G16G19G23G26G27G31
  23825947.050     2527940.589 5  23825951.904    11938102.927 6  23825946.927
  22061196.996   -40300284.875 6  22061197.599   -12065432.439 7  22061196.376
  22934236.535    -2158036.148 6  22934235.732     4092396.462 7  22934236.068
  20649167.195   -35137654.910 7  20649167.282   -17847476.090 9  20649166.550
  22627386.142   -37325007.103 6  22627387.883    -1358440.669 7  22627385.341
  22509394.219   -63110820.240 6  22509394.464   -27007356.971 7  22509393.682
  22427406.926   -38375935.948 6  22427403.781   -10565956.783 7  22427405.709
  20090739.431   -46460797.873 7  20090734.949   -20134123.024 9  20090737.713
  22246052.138   -64494779.079 6  22246050.162     1274335.810 7  22246051.262
  23903530.085   -43201785.680 4  23903534.948   -21298720.487 6  23903528.542
  21099443.649   -36965774.592 7  21099443.214   -20198002.144 8  21099442.906
  25037494.824   -49825722.815 4  25037496.671    -8266773.108 5  25037492.195
 15  7 30  2 31 30.0000000  0 12G 1G 4G 7G 8G 9G11G16G19G23G26G27G31
  23803255.684     2408697.280 5  23803260.538    11845186.111 6  23803254.800
  22041045.451   -40406181.437 7  22041045.999   -12147949.148 7  22041044.734
  22913262.345    -2268256.401 6  22913261.694     4006510.594 7  22913262.596
  20654195.653   -35111230.976 7  20654195.722   -17826886.008 9  20654194.888
  22628988.247   -37316588.476 6  22628989.668    -1351880.793 7  22628987.390
  22488113.529   -63222651.808 6  22488113.337   -27094498.348 7  22488112.375
  22431987.182   -38351866.172 6  22431984.038   -10547201.144 7  22431986.694
  20090148.438   -46463903.521 7  20090144.019   -20136543.002 9  20090146.771
  22256485.122   -64439950.338 6  22256483.680     1317059.336 7  22256483.710
  23910913.902   -43162987.591 4  23910916.465   -21268488.310 6  23910913.515
  21109480.862   -36913027.874 7  21109480.476   -20156900.827 9  21109480.257
  25053503.025   -49741588.996 3  25053508.058    -8201214.462 5  25053502.461
 15  7 30  2 32  0.0000000  0 12G 1G 4G 7G 8G 9G11G16G19G23G26G27G31
  23780563.146     2289445.978 4  23780567.526    11752263.061 6  23780562.678
  22020936.140   -40511855.473 6  22020937.093   -12230292.462 7  22020935.615
  22892312.488    -2378350.993 6  22892310.215     3920722.647 7  22892312.413
  20659283.805   -35084493.040 7  20659283.739   -17806051.258 9  20659282.753
  22630675.644   -37307719.546 6  22630676.990    -1344970.045 7  22630674.256
  22466871.953   -63334274.941 6  22466871.495   -27181477.323 7  22466871.303
  22436573.536   -38327764.884 6  22436571.477   -10528420.953 7  22436572.088
  20089652.488   -46466509.508 7  20089648.117   -20138573.634 9  20089650.848
  22266969.464   -64384857.213 6  22266967.656     1359988.872 7  22266968.816
  23918308.795   -43124125.995 3  23918311.535   -21238206.645 6  23918308.166
  21119562.325   -36860050.506 7  21119561.753   -20115619.783 8  21119561.477
  25069540.542   -49657316.993 4  25069542.716    -8135548.149 4  25069539.532
 15  7 30  2 32 30.0000000  0 12G 1G 4G 7G 8G 9G11G16G19G23G26G27G31
  23757868.266     2170189.464 4  23757874.379    11659335.944 6  23757868.068
  22000869.967   -40617303.724 6  22000870.428   -12312459.836 7  22000869.442
  22871386.848    -2488317.498 6  22871385.041     3835034.500 7  22871385.310
  20664431.227   -35057442.854 7  20664431.197   -17784973.185 9  20664430.208
  22632448.749   -37298402.094 6  22632450.880    -1337709.786 7  22632448.323
  22445670.676   -63445687.278 6  22445670.771   -27268292.031 7  22445669.911
  22441165.715   -38303631.661 6  22441162.966   -10509615.881 7  22441164.822
  20089251.435   -46468617.277 7  20089246.935   -20140216.047 9  20089249.663
  22277503.367   -64329502.672 6  22277502.003     1403122.126 7  22277502.375
  23925716.361   -43085200.051 3  23925719.710   -21207874.824 6  23925716.031
  21129686.913   -36806844.912 7  21129686.430   -20074160.904 8  21129686.194
  25085603.695   -49572908.276 3  25085605.943    -8069775.292 4  25085602.829
 15  7 30  2 33  0.0000000  0 11G 1G 4G 7G 8G 9G11G16G19G23G26G27
  23735175.185     2050929.919 4  23735181.103    11566406.457 6  23735173.914
  21980847.473   -40722523.778 6  21980847.545   -12394449.401 7  21980846.717
  22850484.803    -2598153.746 6  22850483.858     3749447.859 7  22850484.125
  20669637.429   -35030083.574 7  20669637.540   -17763654.264 9  20669636.628
  22634306.889   -37288638.563 6  22634308.493    -1330101.938 7  22634306.254
  22424510.263   -63556886.885 6  22424510.110   -27354940.980 7  22424509.738
  22445764.666   -38279466.734 6  22445761.594   -10490786.104 7  22445762.865
  20088944.639   -46470229.174 7  20088940.163   -20141472.065 9  20088943.083
  22288086.008   -64273890.475 6  22288084.617     1446456.121 7  22288085.307
  23933135.892   -43046209.791 4  23933140.416   -21177492.910 6  23933135.127
  21139854.497   -36753414.121 7  21139854.105   -20032526.543 8  21139853.781
 15  7 30  2 33 30.0000000  0 11G 1G 4G 7G 8G 9G11G16G19G23G26G27
  23712480.267     1931669.939 4  23712486.373    11473476.625 6  23712479.541
  21960868.734   -40827512.506 6  21960868.761   -12476258.724 7  21960868.293
  22829609.273    -2707856.957 6  22829606.995     3663964.883 7  22829608.032
  20674902.177   -35002416.949 7  20674902.339   -17742095.856 9  20674901.416
  22636249.697   -37278430.978 6  22636251.682    -1322148.077 7  22636248.822
  22403390.510   -63667871.317 6  22403390.019   -27441422.259 7  22403389.422
  22450368.957   -38255269.618 6  22450366.924   -10471931.254 7  22450367.716
  20088732.002   -46471346.569 7  20088727.478   -20142342.756 9  20088730.419
  22298717.368   -64218024.016 6  22298715.815     1489988.257 7  22298716.607
  23940567.786   -43007154.600 4  23940571.926   -21147060.385 6  23940566.982
  21150064.634   -36699760.774 7  21150064.025   -19990718.759 8  21150063.801
 15  7 30  2 34  0.0000000  0 11G 1G 4G 7G 8G 9G11G16G19G23G26G27
  23689786.964     1812415.877 4  23689792.162    11380551.438 6  23689786.475
  21940935.081   -40932263.159 6  21940935.719   -12557882.513 7  21940934.448
  22808759.946    -2817421.337 6  22808757.967     3578590.081 7  22808759.149
  20680225.622   -34974441.916 7  20680225.817   -17720297.123 9  20680225.001
  22638277.053   -37267777.669 6  22638278.813    -1313846.899 7  22638276.507
  22382313.320   -63778634.266 6  22382312.636   -27527730.958 7  22382312.636
  22454980.586   -38231035.797 6  22454978.188   -10453047.803 7  22454979.132
  20088613.812   -46471967.979 7  20088609.243   -20142826.964 9  20088612.070
  22309397.106   -64161902.893 6  22309394.752     1533718.839 7  22309396.371
  23948013.464   -42968030.212 4  23948017.634   -21116573.938 6  23948012.334
  21160317.074   -36645883.699 7  21160316.565   -19948736.644 8  21160316.277
 15  7 30  2 34 30.0000000  0 11G 1G 4G 7G 8G 9G11G16G19G23G26G27
  23667094.312     1693167.158 4  23667100.337    11287630.397 6  23667094.300
  21921046.714   -41036776.229 6  21921047.805   -12639321.176 7  21921046.555
  22787937.243    -2926847.721 6  22787934.560     3493322.788 7  22787935.930
  20685606.659   -34946164.153 7  20685607.001   -17698262.502 9  20685605.961
  22640388.206   -37256683.953 6  22640390.839    -1305202.545 7  22640387.199
  22361277.282   -63889176.550 6  22361276.595   -27613867.698 7  22361276.353
  22459598.473   -38206767.754 6  22459596.365   -10434137.690 7  22459597.657
  20088589.133   -46472098.344 7  20088584.363   -20142928.541 9  20088587.250
  22320123.881   -64105533.540 6  22320122.067     1577642.838 7  22320122.873
  23955471.917   -42928839.410 4  23955474.339   -21086035.729 6  23955470.364
  21170611.000   -36591788.797 7  21170610.541   -19906584.793 8  21170610.125
 15  7 30  2 35  0.0000000  0 11G 1G 4G 7G 8G 9G11G16G19G23G26G27
  23644404.339     1573925.948 4  23644410.030    11194715.219 6  23644403.728
  21901204.540   -41141048.840 6  21901205.280   -12720572.481 8  21901204.075
  22767140.527    -3036133.729 6  22767138.305     3408164.902 7  22767140.179
  20691044.991   -34917586.031 8  20691045.048   -17675993.838 9  20691044.247
  22642582.384   -37245152.311 6  22642584.414    -1296216.959 7  22642581.953
  22340284.525   -63999496.299 6  22340283.742   -27699831.037 7  22340282.840
  22464222.789   -38182466.539 6  22464220.475   -10415201.729 7  22464221.767
  20088657.288   -46471740.000 7  20088652.581   -20142649.300 9  20088655.573
  22330897.274   -64048919.875 6  22330895.358     1621757.210 7  22330895.682
  23962941.048   -42889581.921 3  23962946.354   -21055445.578 6  23962939.783
  21180945.622   -36537479.066 7  21180945.392   -19864265.547 8  21180944.954
 15  7 30  2 35 30.0000000  0 11G 1G 4G 7G 8G 9G11G16G19G23G26G27
  23621715.438     1454696.344 5  23621720.597    11101809.064 6  23621714.700
  21881408.542   -41245076.662 6  21881408.530   -12801633.039 8  21881407.676
  22746371.355    -3145275.606 6  22746369.322     3323119.321 7  22746370.953
  20696540.165   -34888708.484 7  20696540.327   -17653491.845 9  20696539.437
  22644860.435   -37233183.472 6  22644862.198    -1286890.690 7  22644859.914
  22319333.994   -64109589.735 6  22319333.463   -27785618.026 7  22319333.349
  22468854.130   -38158130.002 6  22468851.150   -10396238.233 7  22468853.270
  20088818.375   -46470893.071 7  20088813.660   -20141989.348 9  20088816.700
  22341716.711   -63992063.461 6  22341715.485     1666060.734 7  22341715.446
  23970425.079   -42850255.881 4  23970429.633   -21024802.012 6  23970424.767
  21191320.969   -36482955.644 7  21191320.792   -19821779.788 8  21191320.381
 15  7 30  2 36  0.0000000  0 11G 1G 4G 7G 8G 9G11G16G19G23G26G27
  23599029.819     1335482.902 5  23599034.660    11008915.501 6  23599029.261
  21861659.636   -41348854.790 7  21861660.499   -12882499.023 8  21861659.267
  22725629.977    -3254268.936 6  22725628.538     3238189.483 7  22725629.578
  20702092.265   -34859531.938 7  20702092.376   -17630756.872 9  20702091.683
  22647221.094   -37220777.635 6  22647223.106    -1277223.908 7  22647220.003
  22298427.988   -64219452.451 6  22298426.866   -27871225.231 7  22298426.602
  22473492.459   -38133755.909 6  22473489.836   -10377245.487 7  22473490.882
  20089072.294   -46469558.070 7  20089067.677   -20140949.078 9  20089070.741
  22352582.095   -63934966.023 6  22352580.848     1710552.071 7  22352581.379
  23977921.485   -42810858.821 3  23977926.654   -20994103.103 6  23977920.445
  21201737.177   -36428219.278 7  21201736.637   -19779128.096 8  21201736.496
 15  7 30  2 36 30.0000000  0 11G 1G 4G 7G 8G 9G11G16G19G23G26G27
  23576347.272     1216285.569 5  23576353.628    10916034.501 6  23576345.746
  21841959.191   -41452383.067 7  21841959.836   -12963170.333 8  21841958.568
  22704917.631    -3363114.081 6  22704916.228     3153375.117 7  22704916.938
  20707700.242   -34830061.737 7  20707700.467   -17607793.076 9  20707699.610
  22649664.358   -37207939.598 5  22649665.884    -1267220.340 7  22649663.695
  22277565.397   -64329084.901 6  22277564.672   -27956653.001 7  22277564.147
  22478137.614   -38109346.072 6  22478135.525   -10358224.883 7  22478136.130
  20089418.509   -46467739.152 7  20089413.790   -20139531.726 9  20089416.821
  22363492.289   -63877633.509 6  22363491.477     1755226.582 7  22363491.354
  23985432.108   -42771392.836 4  23985436.008   -20963350.479 6  23985431.706
  21212192.682   -36373275.156 7  21212192.214   -19736314.514 8  21212192.061
 15  7 30  2 37  0.0000000  0 11G 1G 4G 7G 8G 9G11G16G19G23G26G27
  23553668.585     1097109.573 5  23553674.841    10823170.110 6  23553668.051
  21822307.091   -41555655.814 7  21822307.061   -13043642.524 8  21822306.854
  22684234.481    -3471805.628 6  22684232.820     3068680.422 7  22684234.166
  20713364.275   -34800297.261 7  20713364.497   -17584599.976 9  20713363.619
  22652189.222   -37194668.998 6  22652191.218    -1256879.713 7  22652188.703
  22256747.797   -64438481.932 6  22256747.296   -28041897.326 7  22256746.643
  22482789.587   -38084897.797 6  22482787.497   -10339174.323 7  22482788.732
  20089856.871   -46465435.782 7  20089852.270   -20137736.880 9  20089855.334
  22374447.051   -63820066.566 6  22374445.375     1800083.767 7  22374446.331
  23992955.403   -42731854.916 4  23992960.286   -20932541.806 6  23992955.022
  21222687.999   -36318123.362 7  21222687.306   -19693339.106 8  21222687.036
 15  7 30  2 37 30.0000000  0 11G 1G 4G 7G 8G 9G11G16G19G23G26G27
  23530994.409      977955.063 5  23530999.502    10730322.494 6  23530993.905
  21802703.318   -41658672.549 6  21802703.620   -13123915.224 8  21802703.069
  22663580.589    -3580343.830 6  22663578.142     2984105.230 7  22663579.635
  20719083.413   -34770243.339 7  20719083.536   -17561181.339 9  20719082.469
  22654795.773   -37180970.547 6  22654798.244    -1246205.682 7  22654795.357
  22235974.917   -64547643.684 6  22235974.305   -28126958.315 7  22235974.497
  22487449.069   -38060413.206 6  22487446.626   -10320095.468 7  22487447.930
  20090386.263   -46462652.455 7  20090381.928   -20135568.037 9  20090384.869
  22385445.015   -63762271.133 6  22385444.148     1845118.984 7  22385443.984
  24000493.489   -42692246.984 4  24000498.433   -20901678.565 6  24000492.997
  21233221.567   -36262768.988 7  21233220.814   -19650205.849 8  21233220.481
 15  7 30  2 38  0.0000000  0 11G 1G 4G 7G 8G 9G11G16G19G23G26G27
  23508325.446      858827.014 5  23508330.345    10637495.471 6  23508325.431
  21783149.783   -41761427.896 6  21783150.038   -13203984.240 8  21783148.779
  22642956.684    -3688723.774 6  22642954.499     2899653.349 7  22642955.899
  20724857.224   -34739900.242 7  20724857.539   -17537537.371 9  20724856.681
  22657484.537   -37166844.063 6  22657486.872    -1235198.148 7  22657483.491
  22215247.524   -64656565.689 6  22215247.332   -28211832.493 7  22215247.027
  22492115.785   -38035889.373 6  22492113.648   -10300986.029 7  22492115.081
  20091007.283   -46459388.702 7  20091002.981   -20133024.845 9  20091005.961
  22396486.650   -63704248.119 6  22396486.098     1890331.546 7  22396485.957
  24008044.745   -42652566.138 3  24008049.104   -20870758.538 6  24008044.431
  21243793.472   -36207212.268 7  21243792.962   -19606914.918 8  21243792.438
 15  7 30  2 38 30.0000000  0 11G 1G 4G 7G 8G 9G11G16G19G23G26G27
  23485661.721      739727.521 5  23485665.837    10544690.694 6  23485660.926
  21763646.284   -41863919.638 6  21763646.212   -13283847.850 8  21763645.685
  22622362.528    -3796943.764 6  22622361.278     2815326.115 7  22622361.542
  20730686.149   -34709270.309 7  20730686.095   -17513669.891 9  20730685.447
  22660253.294   -37152292.371 6  22660255.540    -1223859.267 7  22660252.605
  22194566.521   -64765245.951 6  22194565.562   -28296518.300 7  22194564.935
  22496789.568   -38011326.379 6  22496786.639   -10281846.068 7  22496788.581
  20091719.458   -46455647.356 8  20091714.910   -20130109.497 9  20091717.737
  22407571.065   -63646001.524 6  22407569.596     1935718.323 7  22407570.469
  24015609.271   -42612812.454 3  24015614.166   -20839781.714 6  24015608.173
  21254403.469   -36151456.316 7  21254403.073   -19563468.732 8  21254402.626
 15  7 30  2 39  0.0000000  0 11G 1G 4G 7G 8G 9G11G16G19G23G26G27
  23463002.648      620658.303 5  23463007.814    10451909.519 6  23463002.286
  21744193.165   -41966145.516 7  21744193.372   -13363504.297 8  21744192.272
  22601799.761    -3905001.708 6  22601798.448     2731125.150 7  22601799.509
  20736568.595   -34678357.496 7  20736568.700   -17489581.986 9  20736567.840
  22663103.169   -37137318.686 6  22663105.067    -1212191.566 7  22663102.552
  22173931.204   -64873683.150 6  22173930.586   -28381014.700 7  22173930.122
  22501471.591   -37986724.823 6  22501469.367   -10262676.074 7  22501470.065
  20092521.655   -46451430.965 7  20092517.212   -20126823.981 9  20092520.000
  22418696.262   -63587535.871 6  22418696.289     1981275.794 7  22418695.551
  24023188.522   -42572986.404 4  24023191.822   -20808748.521 6  24023187.982
  21265050.688   -36095504.732 7  21265050.187   -19519870.112 8  21265049.728
 15  7 30  2 39 30.0000000  0 11G 1G 4G 7G 8G 9G11G16G19G23G26G27
  23440351.248      501625.721 5  23440357.087    10359156.872 6  23440351.613
  21724792.027   -42068099.175 7  21724792.075   -13442948.626 8  21724791.032
  22581269.080    -4012891.636 6  22581267.961     2647055.104 7  22581268.492
  20742505.295   -34647160.310 7  20742505.517   -17465272.492 9  20742504.531
  22666033.245   -37121921.591 6  22666034.864    -1200193.929 7  22666032.564
  22153344.033   -64981871.177 6  22153343.068   -28465316.957 7  22153343.251
  22506160.912   -37962080.529 6  22506158.963   -10243472.760 7  22506159.800
  20093414.697   -46446738.067 7  20093410.246   -20123167.169 9  20093412.989
  22429864.475   -63528850.318 6  22429864.004     2027004.610 7  22429863.399
  24030781.362   -42533083.768 3  24030785.185   -20777655.653 6  24030781.035
  21275735.549   -36039356.367 7  21275735.177   -19476118.147 8  21275734.473
 15  7 30  2 40  0.0000000  0 11G 1G 4G 7G 8G 9G11G16G19G23G26G27
  23417707.333      382630.845 5  23417712.525    10266433.620 6  23417706.406
  21705443.083   -42169779.007 6  21705442.628   -13522179.580 8  21705442.253
  22560770.632    -4120612.654 6  22560769.301     2563116.669 7  22560769.976
  20748495.511   -34615682.571 7  20748495.407   -17440744.387 9  20748494.582
  22669043.065   -37106104.956 6  22669045.907    -1187869.380 7  22669041.950
  22132803.804   -65089809.148 7  22132803.129   -28549424.365 7  22132803.063
  22510858.894   -37937394.766 6  22510856.229   -10224237.134 7  22510857.464
  20094397.711   -46441572.455 7  20094393.403   -20119142.009 9  20094396.044
  22441072.959   -63469950.206 6  22441072.546     2072900.619 7  22441071.955
  24038389.789   -42493105.597 3  24038394.022   -20746503.937 6  24038388.272
  21286457.008   -35983015.387 7  21286456.505   -19432216.094 8  21286455.788
 15  7 30  2 40 30.0000000  0 11G 1G 4G 7G 8G 9G11G16G19G23G26G27
  23395071.509      263679.885 5  23395077.574    10173744.573 6  23395071.422
  21686146.762   -42271178.687 6  21686147.053   -13601192.241 8  21686145.929
  22540305.354    -4228158.855 6  22540303.340     2479314.461 7  22540304.404
  20754538.848   -34583923.120 7  20754538.938   -17415996.764 9  20754538.095
  22672133.482   -37089867.553 6  22672135.469    -1175216.974 7  22672132.058
  22112312.621   -65197491.417 6  22112311.640   -28633332.517 8  22112311.853
  22515564.892   -37912663.748 6  22515562.490   -10204966.267 7  22515563.807
  20095470.974   -46435932.272 7  20095466.702   -20114747.045 9  20095469.208
  22452322.270   -63410835.332 6  22452321.325     2118963.977 7  22452320.720
  24046012.924   -42453047.870 4  24046015.415   -20715290.222 6  24046012.018
  21297214.788   -35926480.878 7  21297214.659   -19388163.244 8  21297214.095
 15  7 30  2 41  0.0000000  0 11G 1G 4G 7G 8G 9G11G16G19G23G26G27
  23372446.004      144779.029 5  23372450.390    10081094.580 6  23372445.585
  21666905.974   -42372291.678 6  21666905.869   -13679981.506 8  21666905.108
  22519874.615    -4335523.888 6  22519872.529     2395653.417 7  22519873.482
  20760636.452   -34551880.609 7  20760636.515   -17391028.576 9  20760635.616
  22675303.325   -37073208.174 6  22675305.718    -1162235.759 7  22675301.766
  22091871.047   -65304912.134 7  22091870.333   -28717036.856 8  22091869.836
  22520280.561   -37887883.285 6  22520278.214   -10185656.851 7  22520279.077
  20096635.089   -46429816.433 7  20096630.460   -20109981.444 9  20096633.131
  22463612.385   -63351505.348 6  22463611.638     2165194.944 7  22463611.584
  24053651.597   -42412906.545 4  24053654.268   -20684011.351 6  24053650.997
  21308010.180   -35869751.844 7  21308009.940   -19343958.818 8  21308009.307
